[{"name": "\u5510\u57ce\u5bbe\u9986", "location": {"lat": 34.232702, "lng": 108.939071}, "address": "\u542b\u5149\u8def\u5357\u6bb5229\u53f7", "province": "\u9655\u897f\u7701", "city": "\u897f\u5b89\u5e02", "area": "\u96c1\u5854\u533a", "street_id": "e308284835a2e9a6b34c4947", "telephone": "(029)85209966", "detail": 1, "uid": "e308284835a2e9a6b34c4947", "detail_info": {"tag": "\u9152\u5e97;\u661f\u7ea7\u9152\u5e97", "navi_location": {"lng": 108.93891783503, "lat": 34.232586093896}, "type": "hotel", "detail_url": "http://api.map.baidu.com/place/detail?uid=e308284835a2e9a6b34c4947&output=html&source=placeapi_v2", "price": "276.0", "overall_rating": "4.4", "service_rating": "4.6", "facility_rating": "4.2", "hygiene_rating": "4.5", "image_num": "100", "comment_num": "212", "favorite_num": "0", "checkin_num": "0", "children": []}}, {"name": "\u897f\u5b89\u7a7a\u6e2f\u5546\u52a1\u9152\u5e97(\u897f\u7a0d\u95e8\u5e97-\u673a\u573a\u5df4\u58eb\u59cb\u53d1\u7ad9)", "location": {"lat": 34.261065, "lng": 108.917057}, "address": "\u9655\u897f\u7701\u897f\u5b89\u5e02\u83b2\u6e56\u533a\u949f\u9f13\u697c\u897f\u5927\u8857\u897f\u7a0d\u95e8\u52b3\u52a8\u5357\u8def207\u53f7", "province": "\u9655\u897f\u7701", "city": "\u897f\u5b89\u5e02", "area": "\u83b2\u6e56\u533a", "street_id": "c258d2cfd49ee5802efaa79a", "telephone": "(029)81323322", "detail": 1, "uid": "c258d2cfd49ee5802efaa79a", "detail_info": {"tag": "\u9152\u5e97;\u5176\u4ed6", "navi_location": {"lng": 108.916716, "lat": 34.260965031359}, "type": "hotel", "detail_url": "http://api.map.baidu.com/place/detail?uid=c258d2cfd49ee5802efaa79a&output=html&source=placeapi_v2", "price": "186.0", "overall_rating": "4.5", "service_rating": "4.5", "facility_rating": "4.4", "hygiene_rating": "4.5", "image_num": "100", "comment_num": "143", "favorite_num": "0", "checkin_num": "0", "children": []}}, {"name": "\u897f\u5b89\u6d77\u5347\u9152\u5e97", "location": {"lat": 34.218452, "lng": 108.891532}, "address": "\u9655\u897f\u7701\u897f\u5b89\u5e02\u96c1\u5854\u533a\u9ad8\u65b0\u533a\u6ca3\u60e0\u5357\u8def34\u53f7\u52b1\u8fdb\u6d77\u5347\u9152\u5e974\u5c42", "province": "\u9655\u897f\u7701", "city": "\u897f\u5b89\u5e02", "area": "\u96c1\u5854\u533a", "street_id": "5520b218c8826e404bcc4af6", "telephone": "(029)83266666", "detail": 1, "uid": "5520b218c8826e404bcc4af6", "detail_info": {"tag": "\u9152\u5e97;\u5176\u4ed6", "navi_location": {"lng": 108.89158539996, "lat": 34.21863790667}, "type": "hotel", "detail_url": "http://api.map.baidu.com/place/detail?uid=5520b218c8826e404bcc4af6&output=html&source=placeapi_v2", "price": "264.0", "overall_rating": "4.6", "service_rating": "4.6", "facility_rating": "4.5", "hygiene_rating": "4.7", "image_num": "100", "comment_num": "40", "favorite_num": "0", "checkin_num": "0", "children": []}}, {"name": "\u9e3f\u4e1a\u5927\u9152\u5e97", "location": {"lat": 34.252405, "lng": 108.939078}, "address": "\u9655\u897f\u7701\u897f\u5b89\u5e02\u7891\u6797\u533a\u542b\u5149\u5317\u8def137\u53f7", "province": "\u9655\u897f\u7701", "city": "\u897f\u5b89\u5e02", "area": "\u7891\u6797\u533a", "street_id": "93df0dc36e5e5b32882fb545", "telephone": "(029)88108888", "detail": 1, "uid": "93df0dc36e5e5b32882fb545", "detail_info": {"tag": "\u9152\u5e97;\u661f\u7ea7\u9152\u5e97", "navi_location": {"lng": 108.93886910195, "lat": 34.25198249258}, "type": "hotel", "detail_url": "http://api.map.baidu.com/place/detail?uid=93df0dc36e5e5b32882fb545&output=html&source=placeapi_v2", "price": "98.0", "overall_rating": "4.5", "service_rating": "4.5", "facility_rating": "4.1", "hygiene_rating": "4.5", "image_num": "100", "comment_num": "96", "favorite_num": "0", "checkin_num": "0", "children": []}}, {"name": "\u8b66\u82d1\u996d\u5e97", "location": {"lat": 34.278664, "lng": 108.943509}, "address": "\u9655\u897f\u7701\u897f\u5b89\u5e02\u83b2\u6e56\u533a\u9752\u5e74\u4e8c\u5df73\u53f7", "province": "\u9655\u897f\u7701", "city": "\u897f\u5b89\u5e02", "area": "\u83b2\u6e56\u533a", "street_id": "b388f9fdbf06ce58b35c6a57", "telephone": "(029)87324222", "detail": 1, "uid": "b388f9fdbf06ce58b35c6a57", "detail_info": {"tag": "\u9152\u5e97;\u661f\u7ea7\u9152\u5e97", "navi_location": {"lng": 108.94288917362, "lat": 34.278884347898}, "type": "hotel", "detail_url": "http://api.map.baidu.com/place/detail?uid=b388f9fdbf06ce58b35c6a57&output=html&source=placeapi_v2", "price": "120.0", "overall_rating": "4.5", "service_rating": "4.7", "facility_rating": "4.5", "hygiene_rating": "4.6", "image_num": "100", "comment_num": "92", "favorite_num": "0", "checkin_num": "0", "children": []}}, {"name": "\u897f\u5b89\u949f\u697c\u56de\u6c11\u8857\u8001\u5b59\u5bb6\u7cbe\u54c1\u5ba2\u6808", "location": {"lat": 34.269291, "lng": 108.948347}, "address": "\u897f\u5b89\u83b2\u6e56\u533a\u897f\u7f8a\u5e0240\u53f7", "province": "\u9655\u897f\u7701", "city": "\u897f\u5b89\u5e02", "area": "\u83b2\u6e56\u533a", "street_id": "3effc4507959c96c3617dc54", "telephone": "(029)87375990", "detail": 1, "uid": "3effc4507959c96c3617dc54", "detail_info": {"tag": "\u9152\u5e97;\u5176\u4ed6", "type": "hotel", "detail_url": "http://api.map.baidu.com/place/detail?uid=3effc4507959c96c3617dc54&output=html&source=placeapi_v2", "price": "168.0", "overall_rating": "4.5", "service_rating": "4.5", "facility_rating": "4.5", "hygiene_rating": "4.6", "image_num": "25", "comment_num": "31", "favorite_num": "0", "checkin_num": "0", "children": []}}, {"name": "\u7ef4\u4e5f\u7eb3\u9152\u5e97(\u897f\u5b89\u9ad8\u65b0\u5e97)", "location": {"lat": 34.219582, "lng": 108.91529}, "address": "\u9655\u897f\u7701\u897f\u5b89\u5e02\u96c1\u5854\u533a\u592a\u767d\u5357\u8def170\u53f7", "province": "\u9655\u897f\u7701", "city": "\u897f\u5b89\u5e02", "area": "\u96c1\u5854\u533a", "street_id": "7baea5a98f1a28e782288af3", "telephone": "(029)88216789", "detail": 1, "uid": "7baea5a98f1a28e782288af3", "detail_info": {"tag": "\u9152\u5e97;\u5feb\u6377\u9152\u5e97", "navi_location": {"lng": 108.9155800573, "lat": 34.219636614936}, "type": "hotel", "detail_url": "http://api.map.baidu.com/place/detail?uid=7baea5a98f1a28e782288af3&output=html&source=placeapi_v2", "price": "207.0", "overall_rating": "4.7", "service_rating": "4.8", "facility_rating": "4.7", "hygiene_rating": "4.8", "image_num": "100", "comment_num": "64", "favorite_num": "0", "checkin_num": "0", "children": []}}, {"name": "\u7ef4\u4e5f\u7eb3\u9152\u5e97(\u897f\u5b89\u56fd\u9645\u4f1a\u5c55\u4e2d\u5fc3\u5e97)", "location": {"lat": 34.197808, "lng": 108.944789}, "address": "\u9655\u897f\u7701\u897f\u5b89\u5e02\u96c1\u5854\u533a\u6731\u96c0\u5927\u8857\u5357\u6bb510\u53f7\u7d2b\u90e1\u957f\u5b89F3", "province": "\u9655\u897f\u7701", "city": "\u897f\u5b89\u5e02", "area": "\u96c1\u5854\u533a", "street_id": "1b5fcbc2a5f7305e0bf5eb43", "telephone": "(029)89325888", "detail": 1, "uid": "1b5fcbc2a5f7305e0bf5eb43", "detail_info": {"tag": "\u9152\u5e97;\u5176\u4ed6", "navi_location": {"lng": 108.94478739736, "lat": 34.197624663276}, "type": "hotel", "detail_url": "http://api.map.baidu.com/place/detail?uid=1b5fcbc2a5f7305e0bf5eb43&output=html&source=placeapi_v2", "price": "328.0", "overall_rating": "4.9", "service_rating": "4.9", "facility_rating": "4.8", "hygiene_rating": "4.9", "image_num": "100", "comment_num": "53", "favorite_num": "0", "checkin_num": "0", "children": []}}, {"name": "\u94c1\u901a\u5546\u52a1\u9152\u5e97", "location": {"lat": 34.237148, "lng": 108.933055}, "address": "\u897f\u5b89\u5e02\u96c1\u5854\u533a\u4e8c\u73af\u5357\u8def\u897f\u6bb598\u53f7\u94c1\u901a\u5546\u52a1\u9152\u5e97\u8d35\u5bbe\u697c1\u697c", "province": "\u9655\u897f\u7701", "city": "\u897f\u5b89\u5e02", "area": "\u96c1\u5854\u533a", "street_id": "00f1c7fbabc4c906c056ac43", "telephone": "(029)82333888", "detail": 1, "uid": "00f1c7fbabc4c906c056ac43", "detail_info": {"tag": "\u9152\u5e97;\u661f\u7ea7\u9152\u5e97", "navi_location": {"lng": 108.93313621859, "lat": 34.237360129343}, "type": "hotel", "detail_url": "http://api.map.baidu.com/place/detail?uid=00f1c7fbabc4c906c056ac43&output=html&source=placeapi_v2", "price": "80.0", "overall_rating": "4.6", "service_rating": "4.8", "facility_rating": "4.7", "hygiene_rating": "4.8", "image_num": "100", "comment_num": "181", "favorite_num": "0", "checkin_num": "0", "children": []}}, {"name": "\u767e\u4e8b\u7279\u5a01\u9152\u5e97", "location": {"lat": 34.217067, "lng": 108.892988}, "address": "\u6ca3\u60e0\u5357\u8def36\u53f7\u6a61\u6811\u8857\u533aC\u5ea7", "province": "\u9655\u897f\u7701", "city": "\u897f\u5b89\u5e02", "area": "\u96c1\u5854\u533a", "street_id": "02b9e4bb8879063303ec0177", "telephone": "(029)87924766,(029)85761111", "detail": 1, "uid": "02b9e4bb8879063303ec0177", "detail_info": {"tag": "\u9152\u5e97;\u5176\u4ed6", "navi_location": {"lng": 108.89290725742, "lat": 34.217308073557}, "type": "hotel", "detail_url": "http://api.map.baidu.com/place/detail?uid=02b9e4bb8879063303ec0177&output=html&source=placeapi_v2", "price": "247.0", "overall_rating": "4.5", "service_rating": "4.7", "facility_rating": "4.6", "hygiene_rating": "4.7", "image_num": "100", "comment_num": "53", "favorite_num": "0", "checkin_num": "0", "children": []}}, {"name": "\u897f\u5b89\u9a8a\u82d1\u5927\u9152\u5e97", "location": {"lat": 34.248392, "lng": 108.915895}, "address": "\u83b2\u6e56\u533a\u52b3\u52a8\u5357\u8def8\u53f7(\u52b3\u52a8\u8def\u8f6c\u76d8\u897f\u5317\u89d2)", "province": "\u9655\u897f\u7701", "city": "\u897f\u5b89\u5e02", "area": "\u83b2\u6e56\u533a", "street_id": "fa7da3e8099f087b42d63e75", "telephone": "(029)84263388", "detail": 1, "uid": "fa7da3e8099f087b42d63e75", "detail_info": {"tag": "\u9152\u5e97;\u661f\u7ea7\u9152\u5e97", "navi_location": {"lng": 108.91627395429, "lat": 34.248257040298}, "type": "hotel", "detail_url": "http://api.map.baidu.com/place/detail?uid=fa7da3e8099f087b42d63e75&output=html&source=placeapi_v2", "price": "214.0", "overall_rating": "4.3", "service_rating": "4.4", "facility_rating": "4.1", "hygiene_rating": "4.4", "image_num": "100", "comment_num": "60", "favorite_num": "0", "checkin_num": "0", "children": []}}, {"name": "\u9ad8\u65b0\u5546\u52a1\u9152\u5e97(\u5149\u8fdc\u8def)", "location": {"lat": 34.246491, "lng": 108.909347}, "address": "\u897f\u5b89\u5e02\u96c1\u5854\u533a\u9ad8\u65b0\u673a\u573a\u5927\u5df4\uff08\u5fd7\u8bda\u4e3d\u67cf\uff09\u7ad9\u897f\u5317\u65b9\u5411\u9ad8\u65b0\u4e8c\u8def4\u53f7", "province": "\u9655\u897f\u7701", "city": "\u897f\u5b89\u5e02", "area": "\u96c1\u5854\u533a", "street_id": "af1ae56bde0be86f4207c1f4", "telephone": "(029)88887222", "detail": 1, "uid": "af1ae56bde0be86f4207c1f4", "detail_info": {"tag": "\u9152\u5e97;\u5176\u4ed6", "navi_location": {"lng": 108.90941058848, "lat": 34.246752830727}, "type": "hotel", "detail_url": "http://api.map.baidu.com/place/detail?uid=af1ae56bde0be86f4207c1f4&output=html&source=placeapi_v2", "price": "233.0", "overall_rating": "4.7", "service_rating": "4.8", "facility_rating": "4.7", "hygiene_rating": "4.8", "image_num": "100", "comment_num": "50", "favorite_num": "0", "checkin_num": "0", "children": []}}, {"name": "\u548c\u9890\u9152\u5e97(\u9ad8\u65b0\u4e00\u8def)", "location": {"lat": 34.241569, "lng": 108.911928}, "address": "\u897f\u5b89\u9ad8\u65b0\u533a\u9ad8\u65b0\u4e00\u8def13\u53f7", "province": "\u9655\u897f\u7701", "city": "\u897f\u5b89\u5e02", "area": "\u96c1\u5854\u533a", "street_id": "b3aa435dd55c0d1215764301", "telephone": "(029)88896666", "detail": 1, "uid": "b3aa435dd55c0d1215764301", "detail_info": {"tag": "\u9152\u5e97;\u5feb\u6377\u9152\u5e97", "navi_location": {"lng": 108.91140661434, "lat": 34.24177623254}, "type": "hotel", "detail_url": "http://api.map.baidu.com/place/detail?uid=b3aa435dd55c0d1215764301&output=html&source=placeapi_v2", "price": "275.0", "overall_rating": "4.3", "service_rating": "4.5", "facility_rating": "4.3", "hygiene_rating": "4.5", "image_num": "100", "comment_num": "57", "favorite_num": "0", "checkin_num": "0", "children": []}}, {"name": "\u897f\u5b89\u7d2b\u91d1\u5c71\u5927\u9152\u5e97", "location": {"lat": 34.273193, "lng": 108.928522}, "address": "\u83b2\u6e56\u533a\u73af\u57ce\u897f\u8def328\u53f7\uff08\u7389\u7965\u95e8\u5916\u8f6c\u76d8\u5357150\u7c73\u8def\u897f\uff09", "province": "\u9655\u897f\u7701", "city": "\u897f\u5b89\u5e02", "area": "\u83b2\u6e56\u533a", "street_id": "4bb049d98a586d5e9900505b", "detail": 1, "uid": "4bb049d98a586d5e9900505b", "detail_info": {"tag": "\u9152\u5e97;\u661f\u7ea7\u9152\u5e97", "navi_location": {"lng": 108.92866312607, "lat": 34.273097922699}, "type": "hotel", "detail_url": "http://api.map.baidu.com/place/detail?uid=4bb049d98a586d5e9900505b&output=html&source=placeapi_v2", "price": "178.0", "overall_rating": "4.0", "service_rating": "3.8", "facility_rating": "3.6", "hygiene_rating": "3.9", "image_num": "100", "comment_num": "75", "favorite_num": "0", "checkin_num": "0", "children": []}}, {"name": "\u897f\u5b89\u5929\u4f51\u56fd\u9645\u9152\u5e97", "location": {"lat": 34.261446, "lng": 108.895617}, "address": "\u897f\u5b89\u5e02\u897f\u4e8c\u73af\u5357\u6bb512\u53f7(\u571f\u95e8\u5341\u5b57\u5357200\u7c73)", "province": "\u9655\u897f\u7701", "city": "\u897f\u5b89\u5e02", "area": "\u83b2\u6e56\u533a", "street_id": "f446091869d0d073b11e3676", "telephone": "(029)87918888", "detail": 1, "uid": "f446091869d0d073b11e3676", "detail_info": {"tag": "\u9152\u5e97;\u5176\u4ed6", "navi_location": {"lng": 108.89580199572, "lat": 34.261491435557}, "type": "hotel", "detail_url": "http://api.map.baidu.com/place/detail?uid=f446091869d0d073b11e3676&output=html&source=placeapi_v2", "price": "232.0", "overall_rating": "4.4", "service_rating": "4.3", "facility_rating": "4.3", "hygiene_rating": "4.4", "image_num": "100", "comment_num": "45", "favorite_num": "0", "checkin_num": "0", "children": []}}, {"name": "\u6c49\u5ead\u9152\u5e97(\u897f\u5b89\u5357\u95e8\u660e\u57ce\u5899\u5e97)", "location": {"lat": 34.254056, "lng": 108.949286}, "address": "\u9655\u897f\u7701\u897f\u5b89\u7891\u6797\u533a\u632f\u5174\u8def100\u53f7(\u5730\u94c12\u53f7\u7ebf\u6c38\u5b81\u95e8\u7ad9A2\u53e3\u897f300\u7c73\u8ddd\u79bb\u660e\u57ce\u5899\u5357\u95e8\u897f200\u7c73)", "province": "\u9655\u897f\u7701", "city": "\u897f\u5b89\u5e02", "area": "\u7891\u6797\u533a", "street_id": "41572e00d34e88adb45f1e65", "telephone": "(029)88405500", "detail": 1, "uid": "41572e00d34e88adb45f1e65", "detail_info": {"tag": "\u9152\u5e97;\u5feb\u6377\u9152\u5e97", "navi_location": {"lng": 108.94937712588, "lat": 34.253864392113}, "type": "hotel", "detail_url": "http://api.map.baidu.com/place/detail?uid=41572e00d34e88adb45f1e65&output=html&source=placeapi_v2", "price": "252.0", "overall_rating": "4.8", "service_rating": "4.7", "facility_rating": "4.6", "hygiene_rating": "4.7", "image_num": "100", "comment_num": "174", "favorite_num": "0", "checkin_num": "0", "children": []}}, {"name": "\u7f8e\u9053\u9152\u5e97", "location": {"lat": 34.234507, "lng": 108.908857}, "address": "\u9655\u897f\u7701\u897f\u5b89\u5e02\u96c1\u5854\u533a\u897f\u5b89\u9ad8\u65b0\u5f00\u53d1\u533a\u9ad8\u65b0\u8def60\u53f7", "province": "\u9655\u897f\u7701", "city": "\u897f\u5b89\u5e02", "area": "\u96c1\u5854\u533a", "street_id": "ce6446119f4b838302ff2d40", "telephone": "(029)87379999", "detail": 1, "uid": "1816533451d7c21dfa2d6187", "detail_info": {"tag": "\u9152\u5e97;\u5176\u4ed6", "navi_location": {"lng": 108.9089859442, "lat": 34.234517814715}, "type": "hotel", "detail_url": "http://api.map.baidu.com/place/detail?uid=1816533451d7c21dfa2d6187&output=html&source=placeapi_v2", "price": "223.0", "overall_rating": "4.6", "service_rating": "4.7", "facility_rating": "4.7", "hygiene_rating": "4.7", "image_num": "100", "comment_num": "78", "favorite_num": "0", "checkin_num": "0", "children": []}}, {"name": "\u9526\u6c5f\u4e4b\u661f\u9152\u5e97(\u79d1\u6280\u4e8c\u8def\u8f6f\u4ef6\u56ed\u5e97)", "location": {"lat": 34.229771, "lng": 108.890609}, "address": "\u9655\u897f\u7701\u897f\u5b89\u5e02\u96c1\u5854\u533a\u79d1\u6280\u4e8c\u8def\u4ed866\u53f7", "province": "\u9655\u897f\u7701", "city": "\u897f\u5b89\u5e02", "area": "\u96c1\u5854\u533a", "street_id": "a3f21eee39e7025d2fb17e1a", "telephone": "(029)88338181", "detail": 1, "uid": "a3f21eee39e7025d2fb17e1a", "detail_info": {"tag": "\u9152\u5e97;\u5feb\u6377\u9152\u5e97", "navi_location": {"lng": 108.89098412276, "lat": 34.2298140858}, "type": "hotel", "detail_url": "http://api.map.baidu.com/place/detail?uid=a3f21eee39e7025d2fb17e1a&output=html&source=placeapi_v2", "price": "179.0", "overall_rating": "4.6", "service_rating": "4.5", "facility_rating": "4.4", "hygiene_rating": "4.6", "image_num": "100", "comment_num": "87", "favorite_num": "0", "checkin_num": "0", "children": []}}, {"name": "\u6052\u4f73\u597d\u4e16\u754c\u5927\u9152\u5e97", "location": {"lat": 34.275358, "lng": 108.943763}, "address": "\u83b2\u6e56\u533a\u83b2\u6e56\u8def108\u53f7\u6052\u4f73\u597d\u4e16\u754c\u5927\u9152\u5e97\uff08\u83b2\u6e56\u516c\u56ed\u897f\u4fa7\uff09", "province": "\u9655\u897f\u7701", "city": "\u897f\u5b89\u5e02", "area": "\u83b2\u6e56\u533a", "street_id": "81d6a509c19a35596e20b958", "telephone": "(029)87351155,(029)87350101,(029)87351188", "detail": 1, "uid": "81d6a509c19a35596e20b958", "detail_info": {"tag": "\u9152\u5e97;\u661f\u7ea7\u9152\u5e97", "navi_location": {"lng": 108.9437096167, "lat": 34.27578733298}, "type": "hotel", "detail_url": "http://api.map.baidu.com/place/detail?uid=81d6a509c19a35596e20b958&output=html&source=placeapi_v2", "price": "198.0", "overall_rating": "3.8", "service_rating": "4.1", "facility_rating": "3.7", "hygiene_rating": "4.1", "image_num": "100", "comment_num": "72", "favorite_num": "0", "checkin_num": "0", "children": []}}, {"name": "\u901f8\u9152\u5e97(\u897f\u5b89\u6d12\u91d1\u6865\u5730\u94c1\u7ad9\u5e97)", "location": {"lat": 34.274029, "lng": 108.942287}, "address": "\u897f\u5b89\u83b2\u6e56\u533a\u83b2\u6e56\u8def\u52b3\u6b66\u5df71\u53f7(\u6d12\u91d1\u6865\u5730\u94c1\u7ad9B\u53e3\u5411\u4e1c50\u7c73)", "province": "\u9655\u897f\u7701", "city": "\u897f\u5b89\u5e02", "area": "\u83b2\u6e56\u533a", "street_id": "b3847e879fb5da890e3ddaf0", "telephone": "(029)87366868", "detail": 1, "uid": "b3847e879fb5da890e3ddaf0", "detail_info": {"tag": "\u9152\u5e97;\u5feb\u6377\u9152\u5e97", "navi_location": {"lng": 108.94183065981, "lat": 34.274164200476}, "type": "hotel", "detail_url": "http://api.map.baidu.com/place/detail?uid=b3847e879fb5da890e3ddaf0&output=html&source=placeapi_v2", "price": "188.0", "overall_rating": "4.1", "service_rating": "4.0", "facility_rating": "4.0", "hygiene_rating": "4.0", "image_num": "100", "comment_num": "500", "favorite_num": "0", "checkin_num": "0", "children": []}}, {"name": "\u897f\u5b89\u660a\u5fb7\u5546\u52a1\u9152\u5e97", "location": {"lat": 34.277711, "lng": 108.940975}, "address": "\u83b2\u6e56\u533a\u5317\u5927\u8857\u9752\u5e74\u8def209\u53f7(\u4e0e\u897f\u5317\u4e09\u8def\u4ea4\u6c47\u5904\u4ee5\u4e1c100\u7c73\u8def\u5317)", "province": "\u9655\u897f\u7701", "city": "\u897f\u5b89\u5e02", "area": "\u83b2\u6e56\u533a", "street_id": "ff94165cf7c0aca6d8131886", "telephone": "(029)87408800", "detail": 1, "uid": "ff94165cf7c0aca6d8131886", "detail_info": {"tag": "\u9152\u5e97;\u5176\u4ed6", "navi_location": {"lng": 108.94089367506, "lat": 34.2774437551}, "type": "hotel", "detail_url": "http://api.map.baidu.com/place/detail?uid=ff94165cf7c0aca6d8131886&output=html&source=placeapi_v2", "price": "278.0", "overall_rating": "4.7", "service_rating": "4.9", "facility_rating": "4.9", "hygiene_rating": "4.9", "image_num": "100", "comment_num": "500", "favorite_num": "0", "checkin_num": "0", "children": []}}, {"name": "\u98de\u9e7f\u5546\u52a1\u9152\u5e97", "location": {"lat": 34.276628, "lng": 108.935841}, "address": "\u897f\u5b89\u5e02\u83b2\u6e56\u533a\u83b2\u6e56\u8def323\u53f7(\u4ece\u7389\u7965\u95e8\u5730\u94c1D\u53e3\u51fa\u6216\u6d12\u91d1\u6865\u5730\u94c1B\u53e3\u51fa\u7389\u7965\u95e8\u91cc/\u6d12\u91d1\u6865\u5341\u5b57200\u7c73\u8def\u5317)", "province": "\u9655\u897f\u7701", "city": "\u897f\u5b89\u5e02", "area": "\u83b2\u6e56\u533a", "street_id": "91c13f9323a137e321f01741", "telephone": "(029)87510999", "detail": 1, "uid": "91c13f9323a137e321f01741", "detail_info": {"tag": "\u9152\u5e97;\u661f\u7ea7\u9152\u5e97", "navi_location": {"lng": 108.93553020547, "lat": 34.276502382753}, "type": "hotel", "detail_url": "http://api.map.baidu.com/place/detail?uid=91c13f9323a137e321f01741&output=html&source=placeapi_v2", "price": "196.0", "overall_rating": "4.6", "service_rating": "4.7", "facility_rating": "4.5", "hygiene_rating": "4.6", "image_num": "100", "comment_num": "64", "favorite_num": "0", "checkin_num": "0", "children": []}}, {"name": "\u897f\u5b89\u6021\u666f\u82b1\u56ed\u9152\u5e97", "location": {"lat": 34.257227, "lng": 108.90221}, "address": "\u897f\u5b89\u5e02\u83b2\u6e56\u533a\u4e30\u767b\u5357\u8def9\u53f7", "province": "\u9655\u897f\u7701", "city": "\u897f\u5b89\u5e02", "area": "\u83b2\u6e56\u533a", "street_id": "18250910b86f2cb728b97c20", "telephone": "(029)88613358", "detail": 1, "uid": "18250910b86f2cb728b97c20", "detail_info": {"tag": "\u9152\u5e97;\u5176\u4ed6", "navi_location": {"lng": 108.90205670475, "lat": 34.257583046451}, "type": "hotel", "detail_url": "http://api.map.baidu.com/place/detail?uid=18250910b86f2cb728b97c20&output=html&source=placeapi_v2", "price": "248.0", "overall_rating": "4.5", "service_rating": "4.5", "facility_rating": "4.4", "hygiene_rating": "4.5", "image_num": "100", "comment_num": "55", "favorite_num": "0", "checkin_num": "0", "children": []}}, {"name": "\u897f\u5b89\u6e58\u5b50\u95e8\u56fd\u9645\u9752\u5e74\u65c5\u820d", "location": {"lat": 34.258816, "lng": 108.950995}, "address": "\u7891\u6797\u533a\u6e58\u5b50\u5e99\u885716\u53f7", "province": "\u9655\u897f\u7701", "city": "\u897f\u5b89\u5e02", "area": "\u7891\u6797\u533a", "street_id": "d146b388139a5dc774026950", "telephone": "(029)87370456", "detail": 1, "uid": "d146b388139a5dc774026950", "detail_info": {"tag": "\u9152\u5e97;\u5176\u4ed6", "navi_location": {"lng": 108.95091066274, "lat": 34.258925819649}, "type": "hotel", "detail_url": "http://api.map.baidu.com/place/detail?uid=d146b388139a5dc774026950&output=html&source=placeapi_v2", "price": "70.0", "overall_rating": "4.6", "service_rating": "4.5", "facility_rating": "4.4", "hygiene_rating": "4.5", "image_num": "100", "comment_num": "58", "favorite_num": "0", "checkin_num": "0", "children": []}}, {"name": "\u5e03\u4e01\u9152\u5e97(\u949f\u9f13\u697c\u56de\u6c11\u8857\u5e97)", "location": {"lat": 34.267835, "lng": 108.950307}, "address": "\u5317\u9662\u95e8101\u53f7", "province": "\u9655\u897f\u7701", "city": "\u897f\u5b89\u5e02", "area": "\u83b2\u6e56\u533a", "street_id": "fa59acc5430cde0129201aca", "telephone": "(029)87277967", "detail": 1, "uid": "fa59acc5430cde0129201aca", "detail_info": {"tag": "\u9152\u5e97;\u5feb\u6377\u9152\u5e97", "type": "hotel", "detail_url": "http://api.map.baidu.com/place/detail?uid=fa59acc5430cde0129201aca&output=html&source=placeapi_v2", "price": "227.0", "overall_rating": "4.3", "service_rating": "4.4", "facility_rating": "4.2", "hygiene_rating": "4.4", "image_num": "100", "comment_num": "63", "favorite_num": "0", "checkin_num": "0", "children": []}}, {"name": "7\u5929\u8fde\u9501\u9152\u5e97(\u897f\u5b89\u949f\u9f13\u697c\u5317\u5927\u8857\u5730\u94c1\u7ad9\u5e97)", "location": {"lat": 34.276209, "lng": 108.944164}, "address": "\u83b2\u6e56\u8def103\u53f7\u6d12\u91d1\u6865\u5730\u94c1\u7ad9\u4e1c100\u7c73\u83b2\u6e56\u516c\u56ed\u659c\u5bf9\u9762\uff08\u539f\u6559\u80b2\u5bbe\u9986\uff09", "province": "\u9655\u897f\u7701", "city": "\u897f\u5b89\u5e02", "area": "\u83b2\u6e56\u533a", "street_id": "a4e07b275e3a3fd84d5547f6", "telephone": "(029)89623777", "detail": 1, "uid": "a4e07b275e3a3fd84d5547f6", "detail_info": {"tag": "\u9152\u5e97;\u5feb\u6377\u9152\u5e97", "navi_location": {"lng": 108.94414619947, "lat": 34.276062203676}, "type": "hotel", "detail_url": "http://api.map.baidu.com/place/detail?uid=a4e07b275e3a3fd84d5547f6&output=html&source=placeapi_v2", "price": "191.0", "overall_rating": "4.5", "service_rating": "4.5", "facility_rating": "4.3", "hygiene_rating": "4.5", "image_num": "100", "comment_num": "44", "favorite_num": "0", "checkin_num": "0", "children": []}}, {"name": "\u5efa\u82d1\u5927\u53a6", "location": {"lat": 34.261157, "lng": 108.94491}, "address": "\u897f\u5b89\u6731\u96c0\u95e8\u5185\u5357\u5e7f\u6d4e\u885738\u53f7", "province": "\u9655\u897f\u7701", "city": "\u897f\u5b89\u5e02", "area": "\u7891\u6797\u533a", "street_id": "fc7675242623ece34e776e4f", "telephone": "(029)87606868", "detail": 1, "uid": "fc7675242623ece34e776e4f", "detail_info": {"tag": "\u9152\u5e97;\u661f\u7ea7\u9152\u5e97", "navi_location": {"lng": 108.94537066983, "lat": 34.26108323068}, "type": "hotel", "detail_url": "http://api.map.baidu.com/place/detail?uid=fc7675242623ece34e776e4f&output=html&source=placeapi_v2", "price": "100.0", "overall_rating": "4.1", "service_rating": "4.3", "facility_rating": "4.2", "hygiene_rating": "4.5", "image_num": "100", "comment_num": "35", "favorite_num": "0", "checkin_num": "0", "children": []}}, {"name": "\u5bfc\u822a\u5bbe\u9986", "location": {"lat": 34.239048, "lng": 108.915993}, "address": "\u96c1\u5854\u533a\u5149\u534e\u8def1\u53f7\uff08\u8fd1\u9ad8\u65b0\u8def\uff09", "province": "\u9655\u897f\u7701", "city": "\u897f\u5b89\u5e02", "area": "\u96c1\u5854\u533a", "street_id": "8d96925c1970e85cc1f1cf79", "telephone": "(029)88786591", "detail": 1, "uid": "8d96925c1970e85cc1f1cf79", "detail_info": {"tag": "\u9152\u5e97;\u5176\u4ed6", "navi_location": {"lng": 108.91587170207, "lat": 34.238716902849}, "type": "hotel", "detail_url": "http://api.map.baidu.com/place/detail?uid=8d96925c1970e85cc1f1cf79&output=html&source=placeapi_v2", "price": "180.0", "overall_rating": "3.3", "service_rating": "3.8", "facility_rating": "2.6", "hygiene_rating": "3.0", "image_num": "100", "comment_num": "32", "favorite_num": "0", "checkin_num": "0", "children": []}}, {"name": "\u5168\u5b63\u9152\u5e97(\u897f\u5b89\u9ad8\u65b0\u8def\u5e97)", "location": {"lat": 34.232411, "lng": 108.908557}, "address": "\u9655\u897f\u7701\u897f\u5b89\u5e02\u96c1\u5854\u533a\u9ad8\u65b0\u533a\u9ad8\u65b0\u8def61\u53f7", "province": "\u9655\u897f\u7701", "city": "\u897f\u5b89\u5e02", "area": "\u96c1\u5854\u533a", "street_id": "bddb3104ef50f1f509a8d445", "telephone": "(029)88326622", "detail": 1, "uid": "bddb3104ef50f1f509a8d445", "detail_info": {"tag": "\u9152\u5e97;\u5feb\u6377\u9152\u5e97", "type": "hotel", "detail_url": "http://api.map.baidu.com/place/detail?uid=bddb3104ef50f1f509a8d445&output=html&source=placeapi_v2", "price": "270.0", "overall_rating": "4.8", "service_rating": "4.9", "facility_rating": "4.8", "hygiene_rating": "4.9", "image_num": "73", "comment_num": "41", "favorite_num": "0", "checkin_num": "0", "children": []}}, {"name": "\u9526\u6c5f\u4e4b\u661f\u9152\u5e97(\u897f\u5b89\u7389\u7965\u95e8\u5730\u94c1\u7ad9\u5e86\u9633\u5927\u53a6\u5e97)", "location": {"lat": 34.274871, "lng": 108.922479}, "address": "\u897f\u5b89\u83b2\u6e56\u533a\u5927\u5e86\u8def94\u53f7", "province": "\u9655\u897f\u7701", "city": "\u897f\u5b89\u5e02", "area": "\u83b2\u6e56\u533a", "street_id": "2331f1f745928f73eedfcaf3", "telephone": "(029)87377700", "detail": 1, "uid": "2331f1f745928f73eedfcaf3", "detail_info": {"tag": "\u9152\u5e97;\u5feb\u6377\u9152\u5e97", "navi_location": {"lng": 108.92248123279, "lat": 34.275017597924}, "type": "hotel", "detail_url": "http://api.map.baidu.com/place/detail?uid=2331f1f745928f73eedfcaf3&output=html&source=placeapi_v2", "price": "169.0", "overall_rating": "4.5", "service_rating": "4.6", "facility_rating": "4.4", "hygiene_rating": "4.5", "image_num": "100", "comment_num": "94", "favorite_num": "0", "checkin_num": "0", "children": []}}, {"name": "\u5929\u53f0\u5927\u9152\u5e97", "location": {"lat": 34.272829, "lng": 108.831065}, "address": "\u897f\u5b89\u5e02\u672a\u592e\u533a\u5929\u53f0\u8def\u5357\u6bb5b26\u53f7", "province": "\u9655\u897f\u7701", "city": "\u897f\u5b89\u5e02", "area": "\u672a\u592e\u533a", "street_id": "db1f39d49eab5576f4c59c93", "telephone": "(029)84529000", "detail": 1, "uid": "db1f39d49eab5576f4c59c93", "detail_info": {"tag": "\u9152\u5e97;\u5176\u4ed6", "navi_location": {"lng": 108.83167304692, "lat": 34.272666934953}, "type": "hotel", "detail_url": "http://api.map.baidu.com/place/detail?uid=db1f39d49eab5576f4c59c93&output=html&source=placeapi_v2", "price": "169.0", "overall_rating": "4.7", "service_rating": "3.9", "facility_rating": "4.0", "hygiene_rating": "4.4", "image_num": "55", "comment_num": "14", "favorite_num": "0", "checkin_num": "0", "children": []}}, {"name": "\u6c49\u90a6\u7cbe\u81f4\u9152\u5e97", "location": {"lat": 34.247728, "lng": 108.916276}, "address": "\u897f\u5b89\u83b2\u6e56\u533a\u52b3\u52a8\u5357\u8def10\u53f7\u6c49\u4e2d\u5927\u53a6", "province": "\u9655\u897f\u7701", "city": "\u897f\u5b89\u5e02", "area": "\u83b2\u6e56\u533a", "street_id": "918c6624e1b9284a4f3a5902", "telephone": "(029)68238555", "detail": 1, "uid": "918c6624e1b9284a4f3a5902", "detail_info": {"tag": "\u9152\u5e97;\u5176\u4ed6", "navi_location": {"lng": 108.91634135415, "lat": 34.247277779204}, "type": "hotel", "detail_url": "http://api.map.baidu.com/place/detail?uid=918c6624e1b9284a4f3a5902&output=html&source=placeapi_v2", "price": "233.0", "overall_rating": "4.4", "service_rating": "4.5", "facility_rating": "4.5", "hygiene_rating": "4.6", "image_num": "100", "comment_num": "46", "favorite_num": "0", "checkin_num": "0", "children": []}}, {"name": "\u9526\u6c5f\u4e4b\u661f\u9152\u5e97(\u897f\u5b89\u5357\u4e8c\u73af\u9ad8\u65b0\u5e97)", "location": {"lat": 34.243251, "lng": 108.918727}, "address": "\u9655\u897f\u7701\u897f\u5b89\u5e02\u96c1\u5854\u533a\u5357\u4e8c\u73af\u897f\u6bb5148\u53f7", "province": "\u9655\u897f\u7701", "city": "\u897f\u5b89\u5e02", "area": "\u96c1\u5854\u533a", "street_id": "606ab0d00f9bcb330e3dda53", "telephone": "(029)88490999", "detail": 1, "uid": "606ab0d00f9bcb330e3dda53", "detail_info": {"tag": "\u9152\u5e97;\u5feb\u6377\u9152\u5e97", "navi_location": {"lng": 108.9190780347, "lat": 34.243626091013}, "type": "hotel", "detail_url": "http://api.map.baidu.com/place/detail?uid=606ab0d00f9bcb330e3dda53&output=html&source=placeapi_v2", "price": "183.0", "overall_rating": "4.6", "service_rating": "4.8", "facility_rating": "4.5", "hygiene_rating": "4.8", "image_num": "100", "comment_num": "52", "favorite_num": "0", "checkin_num": "0", "children": []}}, {"name": "\u683c\u6797\u8c6a\u6cf0\u9152\u5e97(\u897f\u5b89\u897f\u95e8\u5e97)", "location": {"lat": 34.2684, "lng": 108.928789}, "address": "\u73af\u57ce\u897f\u8def\u5317\u6bb5210\u53f7(\u897f\u95e8\u5916\u5411\u5317200\u7c73\u8def\u897f)", "province": "\u9655\u897f\u7701", "city": "\u897f\u5b89\u5e02", "area": "\u83b2\u6e56\u533a", "street_id": "dbf4d6eec6d6c6336fa3ccca", "telephone": "(029)88612288", "detail": 1, "uid": "dbf4d6eec6d6c6336fa3ccca", "detail_info": {"tag": "\u9152\u5e97;\u5feb\u6377\u9152\u5e97", "navi_location": {"lng": 108.92898895316, "lat": 34.26850539912}, "type": "hotel", "detail_url": "http://api.map.baidu.com/place/detail?uid=dbf4d6eec6d6c6336fa3ccca&output=html&source=placeapi_v2", "price": "139.0", "overall_rating": "4.3", "service_rating": "4.2", "facility_rating": "4.1", "hygiene_rating": "4.2", "image_num": "100", "comment_num": "202", "favorite_num": "0", "checkin_num": "0", "children": []}}, {"name": "\u5929\u8fb0\u5927\u9152\u5e97", "location": {"lat": 34.275331, "lng": 108.879056}, "address": "\u9655\u897f\u7701\u897f\u5b89\u5e02\u83b2\u6e56\u533a\u6c49\u57ce\u8def707\u53f7", "province": "\u9655\u897f\u7701", "city": "\u897f\u5b89\u5e02", "area": "\u83b2\u6e56\u533a", "street_id": "14076dee236861ed02294f5b", "telephone": "(029)62659000", "detail": 1, "uid": "14076dee236861ed02294f5b", "detail_info": {"tag": "\u9152\u5e97;\u5176\u4ed6", "navi_location": {"lng": 108.87861763948, "lat": 34.275030188276}, "type": "hotel", "detail_url": "http://api.map.baidu.com/place/detail?uid=14076dee236861ed02294f5b&output=html&source=placeapi_v2", "price": "80.0", "overall_rating": "4.3", "service_rating": "3.8", "facility_rating": "3.8", "hygiene_rating": "4.0", "image_num": "100", "comment_num": "37", "favorite_num": "0", "checkin_num": "0", "children": []}}, {"name": "\u5982\u5bb6\u5feb\u6377\u9152\u5e97(\u897f\u5b89\u897f\u7a0d\u95e8\u5e97)", "location": {"lat": 34.264682, "lng": 108.906822}, "address": "\u6ca3\u9550\u4e1c\u8def190\u53f7\uff08\u6843\u56ed\u8def\u4e0e\u6ca3\u9550\u4e1c\u8def\u5341\u5b57\u897f\u5357\u89d2\uff09", "province": "\u9655\u897f\u7701", "city": "\u897f\u5b89\u5e02", "area": "\u83b2\u6e56\u533a", "street_id": "69fcd6df87b30236ca29154a", "telephone": "(029)88881199", "detail": 1, "uid": "69fcd6df87b30236ca29154a", "detail_info": {"tag": "\u9152\u5e97;\u5feb\u6377\u9152\u5e97", "navi_location": {"lng": 108.906699639, "lat": 34.264808606297}, "type": "hotel", "detail_url": "http://api.map.baidu.com/place/detail?uid=69fcd6df87b30236ca29154a&output=html&source=placeapi_v2", "price": "135.0", "overall_rating": "4.4", "service_rating": "4.4", "facility_rating": "4.3", "hygiene_rating": "4.4", "image_num": "100", "comment_num": "258", "favorite_num": "0", "checkin_num": "0", "children": []}}, {"name": "\u65b0\u90fd\u9152\u5e97", "location": {"lat": 34.179231, "lng": 108.887953}, "address": "\u897f\u5b89\u5e02\u957f\u5b89\u533a\u90ed\u675c\u5317\u885758\u53f7", "province": "\u9655\u897f\u7701", "city": "\u897f\u5b89\u5e02", "area": "\u957f\u5b89\u533a", "street_id": "990381962fa3a82c9ff779cc", "telephone": "(029)85671888", "detail": 1, "uid": "990381962fa3a82c9ff779cc", "detail_info": {"tag": "\u9152\u5e97;\u661f\u7ea7\u9152\u5e97", "navi_location": {"lng": 108.88801419179, "lat": 34.17929549068}, "type": "hotel", "detail_url": "http://api.map.baidu.com/place/detail?uid=990381962fa3a82c9ff779cc&output=html&source=placeapi_v2", "price": "99.0", "overall_rating": "4.6", "service_rating": "4.5", "facility_rating": "4.5", "hygiene_rating": "4.6", "image_num": "100", "comment_num": "46", "favorite_num": "0", "checkin_num": "0", "children": []}}, {"name": "\u9655\u897f\u79e6\u90fd\u5546\u52a1\u6709\u9650\u516c\u53f8", "location": {"lat": 34.273881, "lng": 108.929532}, "address": "\u83b2\u6e56\u533a\u73af\u57ce\u897f\u8def\u5317\u6bb555\u53f7(\u7389\u7965\u95e8\u65c1)", "province": "\u9655\u897f\u7701", "city": "\u897f\u5b89\u5e02", "area": "\u83b2\u6e56\u533a", "street_id": "dfc496b61fd318b68936ee43", "telephone": "(029)84692000", "detail": 1, "uid": "dfc496b61fd318b68936ee43", "detail_info": {"tag": "\u516c\u53f8\u4f01\u4e1a;\u516c\u53f8", "navi_location": {"lng": 108.92921772282, "lat": 34.273879050185}, "type": "hotel", "detail_url": "http://api.map.baidu.com/place/detail?uid=dfc496b61fd318b68936ee43&output=html&source=placeapi_v2", "price": "158.0", "overall_rating": "4.0", "service_rating": "4.1", "facility_rating": "3.8", "hygiene_rating": "4.1", "image_num": "100", "comment_num": "31", "favorite_num": "0", "checkin_num": "0", "children": []}}, {"name": "\u51ef\u66fc\u9152\u5e97(\u897f\u5b89\u949f\u9f13\u697c\u7c89\u5df7\u5e97)", "location": {"lat": 34.261889, "lng": 108.945917}, "address": "\u897f\u5b89\u5e02\u7891\u6797\u533a\u5357\u9662\u95e8\u7c89\u5df7\u4e00\u53f71\u5c42", "province": "\u9655\u897f\u7701", "city": "\u897f\u5b89\u5e02", "area": "\u7891\u6797\u533a", "street_id": "06d2dffd9834b9ef88f15d41", "telephone": "(029)87370879", "detail": 1, "uid": "06d2dffd9834b9ef88f15d41", "detail_info": {"tag": "\u9152\u5e97;\u5176\u4ed6", "navi_location": {"lng": 108.94578909784, "lat": 34.261779210414}, "type": "hotel", "detail_url": "http://api.map.baidu.com/place/detail?uid=06d2dffd9834b9ef88f15d41&output=html&source=placeapi_v2", "price": "80.0", "overall_rating": "3.9", "service_rating": "4.1", "facility_rating": "3.7", "hygiene_rating": "4.0", "image_num": "100", "comment_num": "164", "favorite_num": "0", "checkin_num": "0", "children": []}}, {"name": "\u5168\u5b63\u9152\u5e97(\u897f\u5b89\u9ad8\u65b0\u533a\u5e97)", "location": {"lat": 34.234547, "lng": 108.897}, "address": "\u9655\u897f\u7701\u897f\u5b89\u5e02\u96c1\u5854\u533a\u79d1\u6280\u4e00\u8def58\u53f7", "province": "\u9655\u897f\u7701", "city": "\u897f\u5b89\u5e02", "area": "\u96c1\u5854\u533a", "street_id": "424957ba160eb7774f3a594f", "telephone": "(029)88829090", "detail": 1, "uid": "424957ba160eb7774f3a594f", "detail_info": {"tag": "\u9152\u5e97;\u5feb\u6377\u9152\u5e97", "navi_location": {"lng": 108.89759446465, "lat": 34.234097066946}, "type": "hotel", "detail_url": "http://api.map.baidu.com/place/detail?uid=424957ba160eb7774f3a594f&output=html&source=placeapi_v2", "price": "279.0", "overall_rating": "4.7", "service_rating": "4.9", "facility_rating": "4.8", "hygiene_rating": "4.9", "image_num": "100", "comment_num": "41", "favorite_num": "0", "checkin_num": "0", "children": []}}, {"name": "\u897f\u5b89\u7f8e\u838e\u9152\u5e97", "location": {"lat": 34.255623, "lng": 108.950986}, "address": "\u73af\u57ce\u5357\u8def\u897f\u6bb516\u53f7", "province": "\u9655\u897f\u7701", "city": "\u897f\u5b89\u5e02", "area": "\u7891\u6797\u533a", "street_id": "9014ba10bf20295eed74f87a", "telephone": "(029)62659888", "detail": 1, "uid": "9014ba10bf20295eed74f87a", "detail_info": {"tag": "\u9152\u5e97;\u5176\u4ed6", "navi_location": {"lng": 108.9510847804, "lat": 34.255604982702}, "type": "hotel", "detail_url": "http://api.map.baidu.com/place/detail?uid=9014ba10bf20295eed74f87a&output=html&source=placeapi_v2", "price": "309.0", "overall_rating": "4.4", "service_rating": "4.3", "facility_rating": "4.3", "hygiene_rating": "4.4", "image_num": "100", "comment_num": "46", "favorite_num": "0", "checkin_num": "0", "children": []}}, {"name": "\u5982\u5bb6\u5feb\u6377\u9152\u5e97(\u79d1\u6280\u516d\u8def\u6c34\u6676\u5c9b\u5e97)", "location": {"lat": 34.215388, "lng": 108.89152}, "address": "\u9ad8\u65b0\u533a\u79d1\u6280\u4e03\u8def\u4ed8\u4e09\u53f7\uff08\u4e2d\u70df\u96c6\u56e2\u897f\u4fa7\uff09", "province": "\u9655\u897f\u7701", "city": "\u897f\u5b89\u5e02", "area": "\u96c1\u5854\u533a", "street_id": "bd88f78f9104189514c8f68e", "telephone": "(029)65676777", "detail": 1, "uid": "bd88f78f9104189514c8f68e", "detail_info": {"tag": "\u9152\u5e97;\u5feb\u6377\u9152\u5e97", "navi_location": {"lng": 108.89137919573, "lat": 34.215610465798}, "type": "hotel", "detail_url": "http://api.map.baidu.com/place/detail?uid=bd88f78f9104189514c8f68e&output=html&source=placeapi_v2", "price": "229.0", "overall_rating": "4.6", "service_rating": "4.5", "facility_rating": "4.5", "hygiene_rating": "4.6", "image_num": "75", "comment_num": "43", "favorite_num": "0", "checkin_num": "0", "children": []}}, {"name": "\u897f\u5b89\u9752\u67e0\u9152\u5e97", "location": {"lat": 34.1985, "lng": 108.884251}, "address": "\u9526\u4e1a\u8def32\u53f7\u9526\u4e1a\u65f6\u4ee3A2\u5ea71\u5c42", "province": "\u9655\u897f\u7701", "city": "\u897f\u5b89\u5e02", "area": "\u96c1\u5854\u533a", "street_id": "bdc8d643175bd66d901fc922", "telephone": "(029)82305050", "detail": 1, "uid": "bdc8d643175bd66d901fc922", "detail_info": {"tag": "\u9152\u5e97;\u5176\u4ed6", "navi_location": {"lng": 108.88343463929, "lat": 34.198790102016}, "type": "hotel", "detail_url": "http://api.map.baidu.com/place/detail?uid=bdc8d643175bd66d901fc922&output=html&source=placeapi_v2", "price": "80.0", "overall_rating": "4.2", "service_rating": "4.1", "facility_rating": "3.9", "hygiene_rating": "4.1", "image_num": "100", "comment_num": "90", "favorite_num": "0", "checkin_num": "0", "children": []}}, {"name": "\u5982\u5bb6\u5feb\u6377\u9152\u5e97(\u897f\u5b89\u949f\u697c\u5317\u5927\u8857\u5730\u94c1\u7ad9\u5e97)", "location": {"lat": 34.277102, "lng": 108.95139}, "address": "\u897f\u5b89\u5e02\u83b2\u6e56\u533a\u9752\u5e74\u8def16\u53f7", "province": "\u9655\u897f\u7701", "city": "\u897f\u5b89\u5e02", "area": "\u83b2\u6e56\u533a", "street_id": "7c9782c5fe1c917d7bf79639", "telephone": "(029)87250101,(029)87259999", "detail": 1, "uid": "36264a7c366b887d08ccdd95", "detail_info": {"tag": "\u9152\u5e97;\u5feb\u6377\u9152\u5e97", "navi_location": {"lng": 108.95142675093, "lat": 34.277371950941}, "type": "hotel", "detail_url": "http://api.map.baidu.com/place/detail?uid=36264a7c366b887d08ccdd95&output=html&source=placeapi_v2", "price": "90.0", "overall_rating": "4.5", "service_rating": "4.5", "facility_rating": "4.4", "hygiene_rating": "4.6", "image_num": "100", "comment_num": "49", "favorite_num": "0", "checkin_num": "0", "children": []}}, {"name": "\u6854\u5b50\u9152\u5e97(\u897f\u5b89\u9ad8\u65b0\u8def\u5e97)", "location": {"lat": 34.233853, "lng": 108.909396}, "address": "\u897f\u5b89\u5e02\u96c1\u5854\u533a\u9ad8\u65b0\u8def53\u53f7\u5c1a\u4e2d\u5fc321\u697c\uff08\u9ad8\u65b0\u4e00\u4e2d\u659c\u5bf9\u9762\uff09", "province": "\u9655\u897f\u7701", "city": "\u897f\u5b89\u5e02", "area": "\u96c1\u5854\u533a", "street_id": "603ac3738708f537c27da2cf", "telephone": "(029)89289888", "detail": 1, "uid": "603ac3738708f537c27da2cf", "detail_info": {"tag": "\u9152\u5e97;\u5feb\u6377\u9152\u5e97", "navi_location": {"lng": 108.90954241751, "lat": 34.233321092879}, "type": "hotel", "detail_url": "http://api.map.baidu.com/place/detail?uid=603ac3738708f537c27da2cf&output=html&source=placeapi_v2", "price": "288.0", "overall_rating": "4.8", "service_rating": "4.9", "facility_rating": "4.9", "hygiene_rating": "4.9", "image_num": "100", "comment_num": "38", "favorite_num": "0", "checkin_num": "0", "children": []}}, {"name": "\u8292\u679c\u9152\u5e97(\u7389\u7965\u95e8\u5e97)", "location": {"lat": 34.275371, "lng": 108.932185}, "address": "\u7389\u7965\u95e8\u91cc\u5357\u4fa7\u4e1c\u5357\u89d2\u5904\uff08\u83b2\u6e56\u8def206\u53f7\uff09", "province": "\u9655\u897f\u7701", "city": "\u897f\u5b89\u5e02", "area": "\u83b2\u6e56\u533a", "street_id": "bc5d272040ff0db4b11e3602", "telephone": "(029)68217614", "detail": 1, "uid": "bc5d272040ff0db4b11e3602", "detail_info": {"tag": "\u9152\u5e97;\u5176\u4ed6", "type": "hotel", "detail_url": "http://api.map.baidu.com/place/detail?uid=bc5d272040ff0db4b11e3602&output=html&source=placeapi_v2", "price": "169.0", "overall_rating": "4.6", "service_rating": "4.6", "facility_rating": "4.5", "hygiene_rating": "4.6", "image_num": "100", "comment_num": "66", "favorite_num": "0", "checkin_num": "0", "children": []}}, {"name": "\u897f\u5b89\u67e0\u6aac\u9152\u5e97(\u7389\u7965\u95e8\u5e97)", "location": {"lat": 34.274642, "lng": 108.922163}, "address": "\u83b2\u6e56\u533a\u5927\u5e86\u8def92\u53f7\uff08\u5927\u5e86\u8def\u5c0f\u5b66\u897f\u8fb9\uff09", "province": "\u9655\u897f\u7701", "city": "\u897f\u5b89\u5e02", "area": "\u83b2\u6e56\u533a", "street_id": "6262e90befac71c24e2fdf96", "telephone": "(029)62339999", "detail": 1, "uid": "6262e90befac71c24e2fdf96", "detail_info": {"tag": "\u9152\u5e97;\u5176\u4ed6", "navi_location": {"lng": 108.92197523616, "lat": 34.27500724389}, "type": "hotel", "detail_url": "http://api.map.baidu.com/place/detail?uid=6262e90befac71c24e2fdf96&output=html&source=placeapi_v2", "price": "250.0", "overall_rating": "4.7", "service_rating": "4.7", "facility_rating": "4.6", "hygiene_rating": "4.7", "image_num": "100", "comment_num": "89", "favorite_num": "0", "checkin_num": "0", "children": []}}, {"name": "\u6c49\u5ead\u9152\u5e97(\u897f\u5b89\u949f\u9f13\u697c\u56de\u6c11\u8857\u5e97)", "location": {"lat": 34.265703, "lng": 108.935544}, "address": "\u897f\u5927\u8857439\u53f7(\u513f\u7ae5\u533b\u9662\u6b63\u95e8\u5411\u5357200\u7c73\u540c\u4ec1\u5802\u836f\u5e97\u9662\u5185)", "province": "\u9655\u897f\u7701", "city": "\u897f\u5b89\u5e02", "area": "\u83b2\u6e56\u533a", "street_id": "073c2091be617a9ad42ce257", "telephone": "(029)87368899", "detail": 1, "uid": "073c2091be617a9ad42ce257", "detail_info": {"tag": "\u9152\u5e97;\u5feb\u6377\u9152\u5e97", "navi_location": {"lng": 108.93554449123, "lat": 34.265702690818}, "type": "hotel", "detail_url": "http://api.map.baidu.com/place/detail?uid=073c2091be617a9ad42ce257&output=html&source=placeapi_v2", "price": "264.0", "overall_rating": "4.7", "service_rating": "4.6", "facility_rating": "4.5", "hygiene_rating": "4.7", "image_num": "55", "comment_num": "37", "favorite_num": "0", "checkin_num": "0", "children": []}}, {"name": "\u897f\u5b89\u6a59\u5b50\u9152\u5e97", "location": {"lat": 34.205546, "lng": 108.902585}, "address": "\u9655\u897f\u7701\u897f\u5b89\u5e02\u96c1\u5854\u533a\u592a\u767d\u5357\u8def\u4e0e\u4e08\u516b\u8def\u5341\u5b57\u897f\u5317\u89d2\u897f\u9ad8\u65b0\u9ad8\u901f\u8def\u53e3(\u7eff\u5730\u7b14\u514b\u4ec510\u5206\u949f/\u9ad8\u65b0\u7ba1\u59d4\u4f1a\u4ec55\u5206\u949f)", "province": "\u9655\u897f\u7701", "city": "\u897f\u5b89\u5e02", "area": "\u96c1\u5854\u533a", "street_id": "42f39fec687586ce882fb553", "telephone": "(029)63358686", "detail": 1, "uid": "42f39fec687586ce882fb553", "detail_info": {"tag": "\u9152\u5e97;\u5176\u4ed6", "navi_location": {"lng": 108.90289540679, "lat": 34.205411392936}, "type": "hotel", "detail_url": "http://api.map.baidu.com/place/detail?uid=42f39fec687586ce882fb553&output=html&source=placeapi_v2", "price": "99.0", "overall_rating": "4.7", "service_rating": "4.7", "facility_rating": "4.6", "hygiene_rating": "4.7", "image_num": "100", "comment_num": "108", "favorite_num": "0", "checkin_num": "0", "children": []}}, {"name": "\u5168\u5b63\u9152\u5e97(\u897f\u5b89\u9ad8\u65b0\u533a\u5357\u4e8c\u73af\u5e97)", "location": {"lat": 34.250908, "lng": 108.904169}, "address": "\u4e8c\u73af\u5357\u8def\u897f\u6bb5395\u53f7\u4e9a\u7f8e\u4f1f\u535a\u5e7f\u573a1\u5c42", "province": "\u9655\u897f\u7701", "city": "\u897f\u5b89\u5e02", "area": "\u83b2\u6e56\u533a", "street_id": "b6b272735293a867b54f5469", "telephone": "(029)84110011", "detail": 1, "uid": "b6b272735293a867b54f5469", "detail_info": {"tag": "\u9152\u5e97;\u5feb\u6377\u9152\u5e97", "navi_location": {"lng": 108.90401521018, "lat": 34.250772584797}, "type": "hotel", "detail_url": "http://api.map.baidu.com/place/detail?uid=b6b272735293a867b54f5469&output=html&source=placeapi_v2", "price": "270.0", "overall_rating": "4.6", "service_rating": "4.8", "facility_rating": "4.7", "hygiene_rating": "4.8", "image_num": "100", "comment_num": "64", "favorite_num": "0", "checkin_num": "0", "children": []}}, {"name": "\u6c49\u90a6\u7985\u8336\u9152\u5e97", "location": {"lat": 34.210608, "lng": 108.922593}, "address": "\u897f\u5b89\u5e02\u96c1\u5854\u533a\u7535\u5b504\u8def75\u53f7", "province": "\u9655\u897f\u7701", "city": "\u897f\u5b89\u5e02", "area": "\u96c1\u5854\u533a", "street_id": "c483935fdaf65cf2a0acc487", "telephone": "(029)87948555", "detail": 1, "uid": "c483935fdaf65cf2a0acc487", "detail_info": {"tag": "\u9152\u5e97;\u5176\u4ed6", "navi_location": {"lng": 108.92208309031, "lat": 34.210824278282}, "type": "hotel", "detail_url": "http://api.map.baidu.com/place/detail?uid=c483935fdaf65cf2a0acc487&output=html&source=placeapi_v2", "price": "99.0", "overall_rating": "4.7", "service_rating": "4.7", "facility_rating": "4.7", "hygiene_rating": "4.8", "image_num": "90", "comment_num": "31", "favorite_num": "0", "checkin_num": "0", "children": []}}, {"name": "\u5982\u5bb6\u5feb\u6377\u9152\u5e97(\u897f\u5b89\u5357\u4e8c\u73af\u4eba\u624d\u5e02\u573a\u5e97)", "location": {"lat": 34.235207, "lng": 108.933898}, "address": "\u9655\u897f\u7701\u897f\u5b89\u5e02\u96c1\u5854\u533a\u6c38\u677e\u8def131\u53f7", "province": "\u9655\u897f\u7701", "city": "\u897f\u5b89\u5e02", "area": "\u96c1\u5854\u533a", "street_id": "d1923da378173853100daa75", "telephone": "(029)88880505", "detail": 1, "uid": "d1923da378173853100daa75", "detail_info": {"tag": "\u9152\u5e97;\u5feb\u6377\u9152\u5e97", "navi_location": {"lng": 108.93374527512, "lat": 34.235407371512}, "type": "hotel", "detail_url": "http://api.map.baidu.com/place/detail?uid=d1923da378173853100daa75&output=html&source=placeapi_v2", "price": "161.0", "overall_rating": "4.5", "service_rating": "4.6", "facility_rating": "4.5", "hygiene_rating": "4.6", "image_num": "100", "comment_num": "446", "favorite_num": "0", "checkin_num": "0", "children": []}}, {"name": "\u897f\u5b89\u52a0\u5229\u5229\u8fde\u9501\u9152\u5e97(\u7eff\u5730\u7b14\u514b\u4f1a\u5c55\u4e2d\u5fc3\u5e97)", "location": {"lat": 34.185316, "lng": 108.88564}, "address": "\u9655\u897f\u7701\u897f\u5b89\u5e02\u96c1\u5854\u533a\u9526\u4e1a\u4e09\u8def16\u53f7", "province": "\u9655\u897f\u7701", "city": "\u897f\u5b89\u5e02", "area": "\u96c1\u5854\u533a", "street_id": "06d2dffd96b0cfef88f15dc5", "telephone": "(029)89188700", "detail": 1, "uid": "06d2dffd96b0cfef88f15dc5", "detail_info": {"tag": "\u9152\u5e97;\u5feb\u6377\u9152\u5e97", "navi_location": {"lng": 108.8856404087, "lat": 34.185554843863}, "type": "hotel", "detail_url": "http://api.map.baidu.com/place/detail?uid=06d2dffd96b0cfef88f15dc5&output=html&source=placeapi_v2", "price": "80.0", "overall_rating": "4.4", "service_rating": "4.5", "facility_rating": "4.4", "hygiene_rating": "4.6", "image_num": "100", "comment_num": "70", "favorite_num": "0", "checkin_num": "0", "children": []}}, {"name": "7\u5929\u8fde\u9501\u9152\u5e97(\u897f\u5b89\u5357\u95e8\u5e97)", "location": {"lat": 34.254311, "lng": 108.949572}, "address": "\u897f\u5b89\u5e02\u7891\u6797\u533a\u632f\u5174\u8def95\u53f7(\u897f\u5b89\u5357\u5173\u533b\u9662\u5317\u4fa7)", "province": "\u9655\u897f\u7701", "city": "\u897f\u5b89\u5e02", "area": "\u7891\u6797\u533a", "street_id": "f1f5cac51301488136b06c40", "telephone": "(029)88406600", "detail": 1, "uid": "f1f5cac51301488136b06c40", "detail_info": {"tag": "\u9152\u5e97;\u5feb\u6377\u9152\u5e97", "navi_location": {"lng": 108.94936678458, "lat": 34.254339138467}, "type": "hotel", "detail_url": "http://api.map.baidu.com/place/detail?uid=f1f5cac51301488136b06c40&output=html&source=placeapi_v2", "price": "178.0", "overall_rating": "4.4", "service_rating": "4.6", "facility_rating": "4.4", "hygiene_rating": "4.6", "image_num": "100", "comment_num": "76", "favorite_num": "0", "checkin_num": "0", "children": []}}, {"name": "7\u5929\u8fde\u9501\u9152\u5e97(\u79d1\u6280\u8def\u5e97)", "location": {"lat": 34.235006, "lng": 108.914353}, "address": "\u79d1\u6280\u8def\u7532\u5b5726\u53f7\u65b0\u6d77\u5cb8\u5546\u52a1\u4e2d\u5fc38-12\u5c42", "province": "\u9655\u897f\u7701", "city": "\u897f\u5b89\u5e02", "area": "\u96c1\u5854\u533a", "street_id": "06d4f661c444c344f2193766", "telephone": "(029)88212382", "detail": 1, "uid": "06d4f661c444c344f2193766", "detail_info": {"tag": "\u9152\u5e97;\u5feb\u6377\u9152\u5e97", "navi_location": {"lng": 108.91435346425, "lat": 34.235005735212}, "type": "hotel", "detail_url": "http://api.map.baidu.com/place/detail?uid=06d4f661c444c344f2193766&output=html&source=placeapi_v2", "price": "149.0", "overall_rating": "4.2", "service_rating": "4.6", "facility_rating": "4.5", "hygiene_rating": "4.6", "image_num": "67", "comment_num": "46", "favorite_num": "0", "checkin_num": "0", "children": []}}, {"name": "\u91d1\u6d77\u5927\u9152\u5e97(\u949f\u697c\u5317\u5927\u8857\u56de\u6c11\u8857\u5e97)", "location": {"lat": 34.275657, "lng": 108.950053}, "address": "\u83b2\u6e56\u533a\u83b2\u6e56\u8def36\u53f7\uff08\u83b2\u6e56\u516c\u56ed\u65c1\uff09", "province": "\u9655\u897f\u7701", "city": "\u897f\u5b89\u5e02", "area": "\u83b2\u6e56\u533a", "street_id": "8eb48fa1cfbe2bbff32d837f", "telephone": "(029)87335505", "detail": 1, "uid": "8eb48fa1cfbe2bbff32d837f", "detail_info": {"tag": "\u9152\u5e97;\u5176\u4ed6", "navi_location": {"lng": 108.94994277269, "lat": 34.276026585253}, "type": "hotel", "detail_url": "http://api.map.baidu.com/place/detail?uid=8eb48fa1cfbe2bbff32d837f&output=html&source=placeapi_v2", "price": "98.0", "overall_rating": "3.5", "service_rating": "3.8", "facility_rating": "3.2", "hygiene_rating": "3.7", "image_num": "100", "comment_num": "72", "favorite_num": "0", "checkin_num": "0", "children": []}}, {"name": "\u661f\u7a0b\u9152\u5e97(\u897f\u5b89\u9ad8\u65b0\u533a\u5e97)", "location": {"lat": 34.222513, "lng": 108.899142}, "address": "\u79d1\u6280\u4e94\u8def3\u53f7\uff08\u9ad8\u65b0\u8def\u4e0e\u79d1\u6280\u4e94\u8def\u4ea4\u53c9\u53e3\u6a61\u6811\u661f\u5ea7C\u5ea7\u4e00\u697c\uff09", "province": "\u9655\u897f\u7701", "city": "\u897f\u5b89\u5e02", "area": "\u96c1\u5854\u533a", "street_id": "44d02bd2e90fc9a8132935fd", "telephone": "(029)81338888", "detail": 1, "uid": "44d02bd2e90fc9a8132935fd", "detail_info": {"tag": "\u9152\u5e97;\u5feb\u6377\u9152\u5e97", "navi_location": {"lng": 108.89898718314, "lat": 34.222581033078}, "type": "hotel", "detail_url": "http://api.map.baidu.com/place/detail?uid=44d02bd2e90fc9a8132935fd&output=html&source=placeapi_v2", "price": "249.0", "overall_rating": "4.3", "service_rating": "4.5", "facility_rating": "4.4", "hygiene_rating": "4.5", "image_num": "46", "comment_num": "33", "favorite_num": "0", "checkin_num": "0", "children": []}}, {"name": "\u6c49\u5ead\u9152\u5e97(\u897f\u5b89\u5c0f\u96c1\u5854\u5e97)", "location": {"lat": 34.247851, "lng": 108.944883}, "address": "\u7891\u6797\u533a\u53cb\u8c0a\u897f\u8def153-A\u53f7(\u6731\u96c0\u8def\u4e0e\u53cb\u8c0a\u897f\u8def\u5341\u5b57\u897f\u5317\u89d2\u8ddd\u79bb\u7701\u4eba\u6c11\u533b\u96621\u7ad9\u8def)", "province": "\u9655\u897f\u7701", "city": "\u897f\u5b89\u5e02", "area": "\u7891\u6797\u533a", "street_id": "bdbb34a3af9346a88505bf5d", "telephone": "(029)88416688", "detail": 1, "uid": "bdbb34a3af9346a88505bf5d", "detail_info": {"tag": "\u9152\u5e97;\u5feb\u6377\u9152\u5e97", "navi_location": {"lng": 108.9449805564, "lat": 34.247468843286}, "type": "hotel", "detail_url": "http://api.map.baidu.com/place/detail?uid=bdbb34a3af9346a88505bf5d&output=html&source=placeapi_v2", "price": "187.0", "overall_rating": "4.4", "service_rating": "4.3", "facility_rating": "4.2", "hygiene_rating": "4.4", "image_num": "96", "comment_num": "57", "favorite_num": "0", "checkin_num": "0", "children": []}}, {"name": "\u9655\u897f\u6676\u94bb\u9152\u5e97", "location": {"lat": 34.200325, "lng": 108.883994}, "address": "\u9526\u4e1a\u8def\u4e0e\u4e08\u516b\u4e09\u8def\u5341\u5b57\u4e1c\u5317\u89d2\u4e03\u514b\u62c9\u6676\u5ea71\u5c42", "province": "\u9655\u897f\u7701", "city": "\u897f\u5b89\u5e02", "area": "\u96c1\u5854\u533a", "street_id": "afde6ae6f734c89ef503b831", "telephone": "(029)68205566", "detail": 1, "uid": "afde6ae6f734c89ef503b831", "detail_info": {"tag": "\u9152\u5e97;\u5176\u4ed6", "navi_location": {"lng": 108.88393883302, "lat": 34.199811658215}, "type": "hotel", "detail_url": "http://api.map.baidu.com/place/detail?uid=afde6ae6f734c89ef503b831&output=html&source=placeapi_v2", "price": "230.0", "overall_rating": "4.1", "service_rating": "4.7", "facility_rating": "4.7", "hygiene_rating": "4.7", "image_num": "100", "comment_num": "49", "favorite_num": "0", "checkin_num": "0", "children": []}}, {"name": "\u9526\u6c5f\u4e4b\u661f\u9152\u5e97(\u9ad8\u65b0\u533a\u7535\u5b50\u57ce\u5e97)", "location": {"lat": 34.217407, "lng": 108.921316}, "address": "\u9655\u897f\u7701\u897f\u5b89\u5e02\u96c1\u5854\u533a\u7535\u5b50\u4e8c\u8def82\u53f7", "province": "\u9655\u897f\u7701", "city": "\u897f\u5b89\u5e02", "area": "\u96c1\u5854\u533a", "street_id": "14076dee25e26bed02294fcd", "telephone": "(029)88896699", "detail": 1, "uid": "14076dee25e26bed02294fcd", "detail_info": {"tag": "\u9152\u5e97;\u5feb\u6377\u9152\u5e97", "navi_location": {"lng": 108.92102381205, "lat": 34.217665793835}, "type": "hotel", "detail_url": "http://api.map.baidu.com/place/detail?uid=14076dee25e26bed02294fcd&output=html&source=placeapi_v2", "price": "139.0", "overall_rating": "4.4", "service_rating": "4.5", "facility_rating": "4.3", "hygiene_rating": "4.5", "image_num": "100", "comment_num": "120", "favorite_num": "0", "checkin_num": "0", "children": []}}, {"name": "\u946b\u6865\u56fd\u9645\u9152\u5e97", "location": {"lat": 34.263011, "lng": 108.847854}, "address": "\u9655\u897f\u7701\u897f\u5b89\u5e02\u672a\u592e\u533a\u897f\u4e09\u73af\u6606\u660e\u8def\u77f3\u6865\u7acb\u4ea4\u6b63\u5317300\u7c73", "province": "\u9655\u897f\u7701", "city": "\u897f\u5b89\u5e02", "area": "\u672a\u592e\u533a", "street_id": "de338a7d0b7f26572911d158", "telephone": "(029)89100777", "detail": 1, "uid": "de338a7d0b7f26572911d158", "detail_info": {"tag": "\u9152\u5e97;\u5176\u4ed6", "navi_location": {"lng": 108.84746888245, "lat": 34.262812142618}, "type": "hotel", "detail_url": "http://api.map.baidu.com/place/detail?uid=de338a7d0b7f26572911d158&output=html&source=placeapi_v2", "price": "278.0", "overall_rating": "4.5", "service_rating": "4.3", "facility_rating": "4.3", "hygiene_rating": "4.5", "image_num": "100", "comment_num": "32", "favorite_num": "0", "checkin_num": "0", "children": []}}, {"name": "\u6c49\u5ead\u9152\u5e97(\u897f\u4e8c\u73af\u571f\u95e8\u5e97)", "location": {"lat": 34.263166, "lng": 108.896745}, "address": "\u9655\u897f\u7701\u897f\u5b89\u5e02\u4e30\u9550\u4e1c\u8def42\u53f7", "province": "\u9655\u897f\u7701", "city": "\u897f\u5b89\u5e02", "area": "\u83b2\u6e56\u533a", "street_id": "04bdf4a39cf24e56354aae5d", "telephone": "(029)87956666", "detail": 1, "uid": "04bdf4a39cf24e56354aae5d", "detail_info": {"tag": "\u9152\u5e97;\u5feb\u6377\u9152\u5e97", "navi_location": {"lng": 108.89660249822, "lat": 34.263242808033}, "type": "hotel", "detail_url": "http://api.map.baidu.com/place/detail?uid=04bdf4a39cf24e56354aae5d&output=html&source=placeapi_v2", "price": "135.0", "overall_rating": "4.3", "service_rating": "4.5", "facility_rating": "4.3", "hygiene_rating": "4.4", "image_num": "100", "comment_num": "78", "favorite_num": "0", "checkin_num": "0", "children": []}}, {"name": "\u6c49\u5ead\u9152\u5e97(\u8f6f\u4ef6\u56ed\u5e97)", "location": {"lat": 34.228861, "lng": 108.879016}, "address": "\u897f\u5b89\u4e08\u516b\u5317\u8def238\u53f7\u73ab\u7470\u516c\u998611\u680b28\u5c42(\u4e08\u516b\u5317\u8def\u4e0e\u79d1\u6280\u4e09\u8def\u4e01\u5b57\u8def\u53e3)", "province": "\u9655\u897f\u7701", "city": "\u897f\u5b89\u5e02", "area": "\u96c1\u5854\u533a", "street_id": "2bfd6ecf2b6cdfebc62ba145", "telephone": "(029)88851122", "detail": 1, "uid": "2bfd6ecf2b6cdfebc62ba145", "detail_info": {"tag": "\u9152\u5e97;\u5feb\u6377\u9152\u5e97", "navi_location": {"lng": 108.87932476582, "lat": 34.228953055812}, "type": "hotel", "detail_url": "http://api.map.baidu.com/place/detail?uid=2bfd6ecf2b6cdfebc62ba145&output=html&source=placeapi_v2", "price": "180.0", "overall_rating": "4.2", "service_rating": "4.4", "facility_rating": "4.3", "hygiene_rating": "4.5", "image_num": "53", "comment_num": "16", "favorite_num": "0", "checkin_num": "0", "children": []}}, {"name": "IU\u9152\u5e97(\u897f\u5b89\u949f\u9f13\u697c\u5e7f\u573a\u5e97)", "location": {"lat": 34.264461, "lng": 108.949762}, "address": "\u897f\u5b89\u7891\u6797\u533a\u897f\u5927\u8857\u7af9\u7b06\u5e02\u5317\u53e3\u4e2d\u73af\u5e7f\u573aB\u5ea76\u30017\u697c", "province": "\u9655\u897f\u7701", "city": "\u897f\u5b89\u5e02", "area": "\u7891\u6797\u533a", "street_id": "382e6e5d5c43d26cb9df8f06", "telephone": "(029)87378777", "detail": 1, "uid": "382e6e5d5c43d26cb9df8f06", "detail_info": {"tag": "\u9152\u5e97;\u5feb\u6377\u9152\u5e97", "navi_location": {"lng": 108.94990594036, "lat": 34.264640405838}, "type": "hotel", "detail_url": "http://api.map.baidu.com/place/detail?uid=382e6e5d5c43d26cb9df8f06&output=html&source=placeapi_v2", "price": "284.0", "overall_rating": "4.5", "service_rating": "4.6", "facility_rating": "4.5", "hygiene_rating": "4.6", "image_num": "76", "comment_num": "40", "favorite_num": "0", "checkin_num": "0", "children": []}}, {"name": "\u9526\u6c5f\u4e4b\u661f\u9152\u5e97(\u5927\u5be8\u8def\u878d\u4fa8\u57ce\u5e97)", "location": {"lat": 34.250374, "lng": 108.88718}, "address": "\u9ad8\u65b0\u533a\u5927\u5be8\u8def2\u53f7\uff08\u5927\u5be8\u8def\u4e0e\u56e2\u7ed3\u5357\u8def\u5341\u5b57\u5411\u897f100\u7c73\u8def\u5357\uff09", "province": "\u9655\u897f\u7701", "city": "\u897f\u5b89\u5e02", "area": "\u96c1\u5854\u533a", "street_id": "afe69cf7ee2b966e882fb530", "telephone": "(029)88770088", "detail": 1, "uid": "afe69cf7ee2b966e882fb530", "detail_info": {"tag": "\u9152\u5e97;\u5feb\u6377\u9152\u5e97", "navi_location": {"lng": 108.88713641077, "lat": 34.250938577096}, "type": "hotel", "detail_url": "http://api.map.baidu.com/place/detail?uid=afe69cf7ee2b966e882fb530&output=html&source=placeapi_v2", "price": "179.0", "overall_rating": "4.5", "service_rating": "4.6", "facility_rating": "4.5", "hygiene_rating": "4.6", "image_num": "100", "comment_num": "95", "favorite_num": "0", "checkin_num": "0", "children": []}}, {"name": "\u5410\u54c8\u77f3\u6cb9\u5927\u53a6", "location": {"lat": 34.232814, "lng": 108.937574}, "address": "\u9655\u897f\u7701\u897f\u5b89\u5e02\u96c1\u5854\u533a\u5927\u83b2\u82b1\u6c60\u885719\u53f7", "province": "\u9655\u897f\u7701", "city": "\u897f\u5b89\u5e02", "area": "\u96c1\u5854\u533a", "street_id": "4ea3f2f1887353b3aecb6673", "telephone": "(029)62629666", "detail": 1, "uid": "4ea3f2f1887353b3aecb6673", "detail_info": {"tag": "\u9152\u5e97;\u661f\u7ea7\u9152\u5e97", "navi_location": {"lng": 108.93831902008, "lat": 34.232406846366}, "type": "hotel", "detail_url": "http://api.map.baidu.com/place/detail?uid=4ea3f2f1887353b3aecb6673&output=html&source=placeapi_v2", "price": "228.0", "overall_rating": "4.1", "service_rating": "4.4", "facility_rating": "4.2", "hygiene_rating": "4.5", "image_num": "100", "comment_num": "19", "favorite_num": "0", "checkin_num": "0", "children": []}}, {"name": "\u5982\u5bb6\u5feb\u6377\u9152\u5e97(\u897f\u5b89\u53cb\u8c0a\u897f\u8def\u897f\u5317\u5de5\u4e1a\u5927\u5b66\u5e97)", "location": {"lat": 34.246245, "lng": 108.92968}, "address": "\u897f\u5b89\u7891\u6797\u533a\u592a\u767d\u5317\u8def188\u53f7", "province": "\u9655\u897f\u7701", "city": "\u897f\u5b89\u5e02", "area": "\u7891\u6797\u533a", "street_id": "bb1d38e465c643540c0a70ca", "telephone": "(029)88881666", "detail": 1, "uid": "bb1d38e465c643540c0a70ca", "detail_info": {"tag": "\u9152\u5e97;\u5feb\u6377\u9152\u5e97", "navi_location": {"lng": 108.92989138369, "lat": 34.246287094583}, "type": "hotel", "detail_url": "http://api.map.baidu.com/place/detail?uid=bb1d38e465c643540c0a70ca&output=html&source=placeapi_v2", "price": "144.0", "overall_rating": "4.4", "service_rating": "4.5", "facility_rating": "4.4", "hygiene_rating": "4.5", "image_num": "100", "comment_num": "500", "favorite_num": "0", "checkin_num": "0", "children": []}}, {"name": "\u5982\u5bb6\u5feb\u6377\u9152\u5e97(\u897f\u5b89\u9ad8\u65b0\u533a\u79d1\u6280\u4e09\u8def\u5e97)", "location": {"lat": 34.228085, "lng": 108.897627}, "address": "\u897f\u5b89\u5e02\u9ad8\u65b0\u533a\u5510\u5ef6\u8def25\u53f7", "province": "\u9655\u897f\u7701", "city": "\u897f\u5b89\u5e02", "area": "\u96c1\u5854\u533a", "street_id": "9ee392b8e6b8e258bbbd634d", "telephone": "(029)88197878", "detail": 1, "uid": "9ee392b8e6b8e258bbbd634d", "detail_info": {"tag": "\u9152\u5e97;\u5feb\u6377\u9152\u5e97", "navi_location": {"lng": 108.89746881327, "lat": 34.228354619298}, "type": "hotel", "detail_url": "http://api.map.baidu.com/place/detail?uid=9ee392b8e6b8e258bbbd634d&output=html&source=placeapi_v2", "price": "70.0", "overall_rating": "4.3", "service_rating": "4.4", "facility_rating": "4.2", "hygiene_rating": "4.4", "image_num": "100", "comment_num": "64", "favorite_num": "0", "checkin_num": "0", "children": []}}, {"name": "\u6c49\u5ead\u9152\u5e97(\u5409\u7965\u8def\u5e97)", "location": {"lat": 34.229165, "lng": 108.930304}, "address": "\u5409\u7965\u8def31\u53f7", "province": "\u9655\u897f\u7701", "city": "\u897f\u5b89\u5e02", "area": "\u96c1\u5854\u533a", "street_id": "a25d2234139828f9acee7af9", "telephone": "(029)88890666", "detail": 1, "uid": "a25d2234139828f9acee7af9", "detail_info": {"tag": "\u9152\u5e97;\u5feb\u6377\u9152\u5e97", "navi_location": {"lng": 108.92981069699, "lat": 34.229326287982}, "type": "hotel", "detail_url": "http://api.map.baidu.com/place/detail?uid=a25d2234139828f9acee7af9&output=html&source=placeapi_v2", "price": "162.0", "overall_rating": "4.2", "service_rating": "4.5", "facility_rating": "4.3", "hygiene_rating": "4.5", "image_num": "100", "comment_num": "81", "favorite_num": "0", "checkin_num": "0", "children": []}}, {"name": "\u897f\u5b89\u4e2d\u6c5f\u4e4b\u65c5\u4e2d\u6c5f\u9152\u5e97", "location": {"lat": 34.239039, "lng": 108.879936}, "address": "\u9655\u897f\u7701\u897f\u5b89\u5e02\u96c1\u5854\u533a\u5510\u5174\u8def21\u53f7", "province": "\u9655\u897f\u7701", "city": "\u897f\u5b89\u5e02", "area": "\u96c1\u5854\u533a", "street_id": "b2d63bb89bc70468260bd0ec", "telephone": "(029)89587566", "detail": 1, "uid": "b2d63bb89bc70468260bd0ec", "detail_info": {"tag": "\u9152\u5e97;\u5176\u4ed6", "navi_location": {"lng": 108.87992802917, "lat": 34.238638285684}, "type": "hotel", "detail_url": "http://api.map.baidu.com/place/detail?uid=b2d63bb89bc70468260bd0ec&output=html&source=placeapi_v2", "price": "247.0", "overall_rating": "4.9", "service_rating": "4.8", "facility_rating": "4.8", "hygiene_rating": "4.9", "image_num": "100", "comment_num": "49", "favorite_num": "0", "checkin_num": "0", "children": []}}, {"name": "\u5982\u5bb6\u5feb\u6377\u9152\u5e97(\u897f\u5b89\u5982\u5bb6\u949f\u9f13\u697c\u5e7f\u573a\u5e97)", "location": {"lat": 34.26319, "lng": 108.94967}, "address": "\u897f\u5b89\u897f\u5927\u8857\u7af9\u7b06\u5e02116\u53f7", "province": "\u9655\u897f\u7701", "city": "\u897f\u5b89\u5e02", "area": "\u7891\u6797\u533a", "street_id": "f20bc8b89fe1c1a8b23c81dd", "telephone": "(029)87230088", "detail": 1, "uid": "f20bc8b89fe1c1a8b23c81dd", "detail_info": {"tag": "\u9152\u5e97;\u5feb\u6377\u9152\u5e97", "navi_location": {"lng": 108.94982675114, "lat": 34.263150812726}, "type": "hotel", "detail_url": "http://api.map.baidu.com/place/detail?uid=f20bc8b89fe1c1a8b23c81dd&output=html&source=placeapi_v2", "price": "90.0", "overall_rating": "4.4", "service_rating": "4.6", "facility_rating": "4.4", "hygiene_rating": "4.5", "image_num": "82", "comment_num": "38", "favorite_num": "0", "checkin_num": "0", "children": []}}, {"name": "7\u5929\u8fde\u9501\u9152\u5e97(\u897f\u5b89\u5c0f\u96c1\u5854\u5e97)", "location": {"lat": 34.247166, "lng": 108.950355}, "address": "\u897f\u5b89\u7891\u6797\u533a\u53cb\u8c0a\u897f\u8def46\u53f7", "province": "\u9655\u897f\u7701", "city": "\u897f\u5b89\u5e02", "area": "\u7891\u6797\u533a", "street_id": "1b2a5e53a4a460e4725e8082", "telephone": "(029)87816798", "detail": 1, "uid": "1b2a5e53a4a460e4725e8082", "detail_info": {"tag": "\u9152\u5e97;\u5feb\u6377\u9152\u5e97", "navi_location": {"lng": 108.95036058356, "lat": 34.247279636923}, "type": "hotel", "detail_url": "http://api.map.baidu.com/place/detail?uid=1b2a5e53a4a460e4725e8082&output=html&source=placeapi_v2", "price": "168.0", "overall_rating": "4.0", "service_rating": "4.3", "facility_rating": "4.0", "hygiene_rating": "4.2", "image_num": "100", "comment_num": "196", "favorite_num": "0", "checkin_num": "0", "children": []}}, {"name": "7\u5929\u8fde\u9501\u9152\u5e97(\u897f\u5b89\u533b\u5b66\u9662\u5e97)", "location": {"lat": 34.219973, "lng": 108.945883}, "address": "\u96c1\u5854\u533a\u6731\u96c0\u5927\u8857213\u53f7\u6d77\u5de2\u6d77\u9c9c\u65c1\uff08\u9633\u9633\u56fd\u9645\u5411\u5357300\u7c73\u8fd1\u516b\u91cc\u6751\u516c\u4ea4\u7ad9\uff09", "province": "\u9655\u897f\u7701", "city": "\u897f\u5b89\u5e02", "area": "\u96c1\u5854\u533a", "street_id": "5189cca5fab1579517948e6a", "telephone": "(029)85353377", "detail": 1, "uid": "5189cca5fab1579517948e6a", "detail_info": {"tag": "\u9152\u5e97;\u5feb\u6377\u9152\u5e97", "navi_location": {"lng": 108.9456304517, "lat": 34.220250950661}, "type": "hotel", "detail_url": "http://api.map.baidu.com/place/detail?uid=5189cca5fab1579517948e6a&output=html&source=placeapi_v2", "price": "159.0", "overall_rating": "4.6", "service_rating": "4.7", "facility_rating": "4.7", "hygiene_rating": "4.7", "image_num": "100", "comment_num": "167", "favorite_num": "0", "checkin_num": "0", "children": []}}, {"name": "\u7b80\u59ae\u82b1\u56ed\u9152\u5e97", "location": {"lat": 34.242373, "lng": 108.929294}, "address": "\u897f\u5b89\u7891\u6797\u533a\u592a\u767d\u5317\u8def6\u53f7", "province": "\u9655\u897f\u7701", "city": "\u897f\u5b89\u5e02", "area": "\u7891\u6797\u533a", "street_id": "8bcfbae4696fc2ceb5147f86", "telephone": "(029)89388300", "detail": 1, "uid": "8bcfbae4696fc2ceb5147f86", "detail_info": {"tag": "\u9152\u5e97;\u5176\u4ed6", "navi_location": {"lng": 108.92929900151, "lat": 34.242617464143}, "type": "hotel", "detail_url": "http://api.map.baidu.com/place/detail?uid=8bcfbae4696fc2ceb5147f86&output=html&source=placeapi_v2", "price": "138.0", "overall_rating": "4.5", "service_rating": "4.5", "facility_rating": "4.4", "hygiene_rating": "4.5", "image_num": "100", "comment_num": "40", "favorite_num": "0", "checkin_num": "0", "children": []}}, {"name": "\u597d\u5bb6\u5546\u52a1\u9152\u5e97(\u5370\u8c61\u57ce\u5e97)", "location": {"lat": 34.240758, "lng": 108.927561}, "address": "\u897f\u5b89\u5e02\u7891\u6797\u533a\u5357\u4e8c\u73af\u592a\u767d\u8def\u7acb\u4ea4\u897f\u5317\u89d2\u6021\u4e30\u57ce\u597d\u5bb6\u5546\u52a1\u9152\u5e97\u672a\u6765\u57ce1\u53f7\u697c", "province": "\u9655\u897f\u7701", "city": "\u897f\u5b89\u5e02", "area": "\u7891\u6797\u533a", "street_id": "5ebafe8dd0bc52ad8bdb7345", "telephone": "(029)81777388", "detail": 1, "uid": "5ebafe8dd0bc52ad8bdb7345", "detail_info": {"tag": "\u9152\u5e97;\u5176\u4ed6", "navi_location": {"lng": 108.92746161191, "lat": 34.240626914128}, "type": "hotel", "detail_url": "http://api.map.baidu.com/place/detail?uid=5ebafe8dd0bc52ad8bdb7345&output=html&source=placeapi_v2", "price": "79.0", "overall_rating": "4.2", "service_rating": "4.3", "facility_rating": "4.2", "hygiene_rating": "4.3", "image_num": "100", "comment_num": "432", "favorite_num": "0", "checkin_num": "0", "children": []}}, {"name": "\u4e3d\u90fd\u5546\u52a1\u9152\u5e97(\u4e08\u516b\u5317\u8def\u5e97)", "location": {"lat": 34.247157, "lng": 108.879423}, "address": "\u9ad8\u65b0\u533a\u4e08\u516b\u5317\u8def\u4e2d\u6bb512\u53f7\uff08\u79d1\u6280\u8def\u897f\u53e3\u5341\u5b57\u5411\u5317200\u7c73\u8def\u4e1c\uff09", "province": "\u9655\u897f\u7701", "city": "\u897f\u5b89\u5e02", "area": "\u96c1\u5854\u533a", "street_id": "b61c7d76f51d21ecd3ff2380", "telephone": "(029)81321166", "detail": 1, "uid": "b61c7d76f51d21ecd3ff2380", "detail_info": {"tag": "\u9152\u5e97;\u5176\u4ed6", "navi_location": {"lng": 108.87887677457, "lat": 34.246926638374}, "type": "hotel", "detail_url": "http://api.map.baidu.com/place/detail?uid=b61c7d76f51d21ecd3ff2380&output=html&source=placeapi_v2", "price": "149.0", "overall_rating": "4.4", "service_rating": "4.4", "facility_rating": "4.4", "hygiene_rating": "4.4", "image_num": "100", "comment_num": "181", "favorite_num": "0", "checkin_num": "0", "children": []}}, {"name": "\u683c\u6797\u8c6a\u6cf0\u9152\u5e97(\u897f\u5b89\u542b\u5149\u95e8\u5e97)", "location": {"lat": 34.254751, "lng": 108.939033}, "address": "\u897f\u5b89\u5e02\u7891\u6797\u533a\u542b\u5149\u5317\u8def155\u53f7\uff08\u534e\u5546\u62a5\u793e\u5bf9\u9762\uff09", "province": "\u9655\u897f\u7701", "city": "\u897f\u5b89\u5e02", "area": "\u7891\u6797\u533a", "street_id": "20447a4612fc64fb31f71dd1", "telephone": "(029)85423366", "detail": 1, "uid": "20447a4612fc64fb31f71dd1", "detail_info": {"tag": "\u9152\u5e97;\u5feb\u6377\u9152\u5e97", "navi_location": {"lng": 108.9389175296, "lat": 34.25489763582}, "type": "hotel", "detail_url": "http://api.map.baidu.com/place/detail?uid=20447a4612fc64fb31f71dd1&output=html&source=placeapi_v2", "price": "195.0", "overall_rating": "4.3", "service_rating": "4.1", "facility_rating": "3.8", "hygiene_rating": "4.1", "image_num": "100", "comment_num": "336", "favorite_num": "0", "checkin_num": "0", "children": []}}, {"name": "\u745e\u4e30\u7ea6\u5ba2\u9152\u5e97", "location": {"lat": 34.250478, "lng": 108.905586}, "address": "\u897f\u5b89\u5e02\u83b2\u6e56\u533a\u4e8c\u73af\u5357\u8def\u897f\u6bb5393", "province": "\u9655\u897f\u7701", "city": "\u897f\u5b89\u5e02", "area": "\u83b2\u6e56\u533a", "street_id": "ca57504cf048a4e21676435a", "telephone": "(029)88690999", "detail": 1, "uid": "05dd7d5f368d4518ad080f71", "detail_info": {"tag": "\u9152\u5e97;\u5176\u4ed6", "navi_location": {"lng": 108.90551326667, "lat": 34.250373190017}, "type": "hotel", "detail_url": "http://api.map.baidu.com/place/detail?uid=05dd7d5f368d4518ad080f71&output=html&source=placeapi_v2", "price": "99.0", "overall_rating": "4.4", "service_rating": "4.2", "facility_rating": "4.1", "hygiene_rating": "4.3", "image_num": "100", "comment_num": "72", "favorite_num": "0", "checkin_num": "0", "children": []}}, {"name": "\u6c49\u5ead\u9152\u5e97(\u897f\u5b89\u5317\u5927\u8857\u5341\u5b57\u9152\u5e97)", "location": {"lat": 34.276517, "lng": 108.95179}, "address": "\u9655\u897f\u7701\u897f\u5b89\u5e02\u83b2\u6e56\u533a\u83b2\u6e56\u8def25\u53f7", "province": "\u9655\u897f\u7701", "city": "\u897f\u5b89\u5e02", "area": "\u83b2\u6e56\u533a", "street_id": "08fc93dfbab6e5889b68b447", "telephone": "(029)87389922", "detail": 1, "uid": "08fc93dfbab6e5889b68b447", "detail_info": {"tag": "\u9152\u5e97;\u5feb\u6377\u9152\u5e97", "navi_location": {"lng": 108.9517315945, "lat": 34.276207923328}, "type": "hotel", "detail_url": "http://api.map.baidu.com/place/detail?uid=08fc93dfbab6e5889b68b447&output=html&source=placeapi_v2", "price": "297.0", "overall_rating": "4.4", "service_rating": "4.7", "facility_rating": "4.6", "hygiene_rating": "4.7", "image_num": "100", "comment_num": "75", "favorite_num": "0", "checkin_num": "0", "children": []}}, {"name": "\u6c49\u5ead\u9152\u5e97(\u9ad8\u65b0\u4e00\u8def\u5e97)", "location": {"lat": 34.240637, "lng": 108.910878}, "address": "\u897f\u5b89\u5e02\u9ad8\u65b0\u533a\u9ad8\u65b0\u4e00\u8def17\u53f7(\u5fd7\u8bda\u4e3d\u67cf\u9152\u5e97\u897f\u4fa7)", "province": "\u9655\u897f\u7701", "city": "\u897f\u5b89\u5e02", "area": "\u96c1\u5854\u533a", "street_id": "978b7843b3baa0ef5fbe8678", "telephone": "(029)88227788", "detail": 1, "uid": "978b7843b3baa0ef5fbe8678", "detail_info": {"tag": "\u9152\u5e97;\u5feb\u6377\u9152\u5e97", "navi_location": {"lng": 108.91071551108, "lat": 34.240391529854}, "type": "hotel", "detail_url": "http://api.map.baidu.com/place/detail?uid=978b7843b3baa0ef5fbe8678&output=html&source=placeapi_v2", "price": "171.0", "overall_rating": "4.1", "service_rating": "4.4", "facility_rating": "3.6", "hygiene_rating": "4.5", "image_num": "100", "comment_num": "71", "favorite_num": "0", "checkin_num": "0", "children": []}}, {"name": "\u9526\u6c5f\u4e4b\u661f\u9152\u5e97(\u897f\u5b89\u5c0f\u5be8\u5730\u94c1\u7ad9\u5e97)", "location": {"lat": 34.229348, "lng": 108.951274}, "address": "\u5c0f\u5be8\u897f\u8def15\u53f7\u534e\u96c1\u5927\u53a61\u5c42", "province": "\u9655\u897f\u7701", "city": "\u897f\u5b89\u5e02", "area": "\u96c1\u5854\u533a", "street_id": "d4034eb3725ad7efc0364452", "telephone": "(029)85265160", "detail": 1, "uid": "d4034eb3725ad7efc0364452", "detail_info": {"tag": "\u9152\u5e97;\u5feb\u6377\u9152\u5e97", "navi_location": {"lng": 108.95079270804, "lat": 34.229118663982}, "type": "hotel", "detail_url": "http://api.map.baidu.com/place/detail?uid=d4034eb3725ad7efc0364452&output=html&source=placeapi_v2", "price": "246.0", "overall_rating": "4.2", "service_rating": "4.5", "facility_rating": "4.2", "hygiene_rating": "4.4", "image_num": "100", "comment_num": "76", "favorite_num": "0", "checkin_num": "0", "children": []}}, {"name": "\u6c11\u822a\u5927\u9152\u5e97", "location": {"lat": 34.261386, "lng": 108.916122}, "address": "\u9655\u897f\u7701\u897f\u5b89\u5e02\u83b2\u6e56\u533a\u52b3\u52a8\u5357\u8def296\u53f7", "province": "\u9655\u897f\u7701", "city": "\u897f\u5b89\u5e02", "area": "\u83b2\u6e56\u533a", "street_id": "d5464cf82f58734efca778e1", "telephone": "(029)82123333", "detail": 1, "uid": "d5464cf82f58734efca778e1", "detail_info": {"tag": "\u9152\u5e97;\u5176\u4ed6", "type": "hotel", "detail_url": "http://api.map.baidu.com/place/detail?uid=d5464cf82f58734efca778e1&output=html&source=placeapi_v2", "price": "225.0", "overall_rating": "4.3", "service_rating": "4.3", "facility_rating": "4.2", "hygiene_rating": "4.4", "image_num": "100", "comment_num": "14", "favorite_num": "0", "checkin_num": "0", "children": []}}, {"name": "7\u5929\u8fde\u9501\u9152\u5e97(\u897f\u5b89\u9ad8\u65b0\u7535\u5b50\u57ce\u6b65\u884c\u8857\u5e97)", "location": {"lat": 34.217843, "lng": 108.919822}, "address": "\u897f\u5b89\u7535\u5b50\u4e8c\u8def\u897f\u90e8\u7535\u5b50\u5546\u57ce\u6b65\u884c\u8857\u5357\u53e3\uff08\u82cf\u5b81\u7535\u5668\u5bf9\u9762\uff09", "province": "\u9655\u897f\u7701", "city": "\u897f\u5b89\u5e02", "area": "\u96c1\u5854\u533a", "street_id": "25b78e7ccddb9f04c72ba151", "telephone": "(029)89110077", "detail": 1, "uid": "25b78e7ccddb9f04c72ba151", "detail_info": {"tag": "\u9152\u5e97;\u5feb\u6377\u9152\u5e97", "navi_location": {"lng": 108.91982016261, "lat": 34.217713119703}, "type": "hotel", "detail_url": "http://api.map.baidu.com/place/detail?uid=25b78e7ccddb9f04c72ba151&output=html&source=placeapi_v2", "price": "147.0", "overall_rating": "4.3", "service_rating": "4.6", "facility_rating": "4.6", "hygiene_rating": "4.6", "image_num": "100", "comment_num": "52", "favorite_num": "0", "checkin_num": "0", "children": []}}, {"name": "\u5982\u5bb6\u5feb\u6377\u9152\u5e97(\u897f\u5b89\u897f\u90e8\u5927\u9053\u9633\u5149\u57ce\u5e97)", "location": {"lat": 34.177192, "lng": 108.871118}, "address": "\u897f\u5b89\u9ad8\u65b0\u533a\u897f\u90e8\u5927\u9053\u4e0e\u535a\u58eb\u8def\u5341\u5b57\u897f\u5357\u89d2\u9633\u5149\u5929\u573024\u53f7\u697c", "province": "\u9655\u897f\u7701", "city": "\u897f\u5b89\u5e02", "area": "\u957f\u5b89\u533a", "street_id": "d5e00495c4a07a7443afe618", "telephone": "(029)82289966", "detail": 1, "uid": "d5e00495c4a07a7443afe618", "detail_info": {"tag": "\u9152\u5e97;\u5feb\u6377\u9152\u5e97", "navi_location": {"lng": 108.87127710996, "lat": 34.177212270147}, "type": "hotel", "detail_url": "http://api.map.baidu.com/place/detail?uid=d5e00495c4a07a7443afe618&output=html&source=placeapi_v2", "price": "237.0", "overall_rating": "4.6", "service_rating": "4.6", "facility_rating": "4.6", "hygiene_rating": "4.7", "image_num": "56", "comment_num": "50", "favorite_num": "0", "checkin_num": "0", "children": []}}, {"name": "\u897f\u5b89\u6606\u660e\u82b1\u56ed\u9152\u5e97", "location": {"lat": 34.257929, "lng": 108.883605}, "address": "\u96c1\u5854\u533a\u6606\u660e\u8def128\u53f7(\u6606\u660e\u8def\u4e0e\u6c11\u6d01\u8def\u4ea4\u53c9\u53e3\u4e1c\u5357\u4fa7)", "province": "\u9655\u897f\u7701", "city": "\u897f\u5b89\u5e02", "area": "\u96c1\u5854\u533a", "street_id": "629454037bebc28316c90528", "telephone": "(029)84287777", "detail": 1, "uid": "629454037bebc28316c90528", "detail_info": {"tag": "\u9152\u5e97;\u5176\u4ed6", "navi_location": {"lng": 108.88316052046, "lat": 34.258042498039}, "type": "hotel", "detail_url": "http://api.map.baidu.com/place/detail?uid=629454037bebc28316c90528&output=html&source=placeapi_v2", "price": "118.0", "overall_rating": "4.4", "service_rating": "4.5", "facility_rating": "4.5", "hygiene_rating": "4.7", "image_num": "100", "comment_num": "48", "favorite_num": "0", "checkin_num": "0", "children": []}}, {"name": "\u68a6\u5e7b\u897f\u897f\u91cc\u5bbe\u9986", "location": {"lat": 34.268552, "lng": 108.94551}, "address": "\u897f\u5b89\u83b2\u6e56\u533a\u5317\u5e7f\u6d4e\u8857144\u53f7", "province": "\u9655\u897f\u7701", "city": "\u897f\u5b89\u5e02", "area": "\u83b2\u6e56\u533a", "street_id": "fa14e6c5390a2bedf60e77f3", "telephone": "(029)87386855", "detail": 1, "uid": "fa14e6c5390a2bedf60e77f3", "detail_info": {"tag": "\u9152\u5e97;\u5176\u4ed6", "type": "hotel", "detail_url": "http://api.map.baidu.com/place/detail?uid=fa14e6c5390a2bedf60e77f3&output=html&source=placeapi_v2", "price": "251.0", "overall_rating": "4.6", "service_rating": "4.6", "facility_rating": "4.6", "hygiene_rating": "4.6", "image_num": "100", "comment_num": "30", "favorite_num": "0", "checkin_num": "0", "children": []}}, {"name": "\u897f\u5b89\u79e6\u57ce\u5c0f\u5df7\u5ba2\u6808", "location": {"lat": 34.269808, "lng": 108.941494}, "address": "\u897f\u5b89\u5e99\u540e\u8857\u897f\u4ed3\u8857\u5357\u5df733\u53f7", "province": "\u9655\u897f\u7701", "city": "\u897f\u5b89\u5e02", "area": "\u83b2\u6e56\u533a", "street_id": "d12f6a32fbebe158220220f4", "telephone": "(029)87324011", "detail": 1, "uid": "d12f6a32fbebe158220220f4", "detail_info": {"tag": "\u9152\u5e97;\u5176\u4ed6", "navi_location": {"lng": 108.94164138055, "lat": 34.269699365101}, "type": "hotel", "detail_url": "http://api.map.baidu.com/place/detail?uid=d12f6a32fbebe158220220f4&output=html&source=placeapi_v2", "price": "52.0", "overall_rating": "4.4", "service_rating": "4.3", "facility_rating": "4.1", "hygiene_rating": "4.1", "image_num": "100", "comment_num": "90", "favorite_num": "0", "checkin_num": "0", "children": []}}, {"name": "\u5982\u5bb6\u5feb\u6377\u9152\u5e97(\u897f\u5b89\u897f\u95e8\u5916\u7b2c\u4e00\u4e2d\u5b66\u5e97)", "location": {"lat": 34.270298, "lng": 108.9287}, "address": "\u897f\u5b89\u83b2\u6e56\u533a\u73af\u57ce\u897f\u8def272\u53f7", "province": "\u9655\u897f\u7701", "city": "\u897f\u5b89\u5e02", "area": "\u83b2\u6e56\u533a", "street_id": "fd4038474f4b076dd8d8918f", "telephone": "(029)89348800", "detail": 1, "uid": "fd4038474f4b076dd8d8918f", "detail_info": {"tag": "\u9152\u5e97;\u5feb\u6377\u9152\u5e97", "type": "hotel", "detail_url": "http://api.map.baidu.com/place/detail?uid=fd4038474f4b076dd8d8918f&output=html&source=placeapi_v2", "price": "144.0", "overall_rating": "4.4", "service_rating": "4.5", "facility_rating": "4.3", "hygiene_rating": "4.5", "image_num": "100", "comment_num": "84", "favorite_num": "0", "checkin_num": "0", "children": []}}, {"name": "\u5982\u5bb6\u5feb\u6377\u9152\u5e97(\u897f\u5b89\u949f\u9f13\u697c\u56de\u6c11\u8857\u5e97)", "location": {"lat": 34.265914, "lng": 108.942617}, "address": "\u897f\u5b89\u83b2\u6e56\u533a\u897f\u5927\u8857259\u53f7", "province": "\u9655\u897f\u7701", "city": "\u897f\u5b89\u5e02", "area": "\u83b2\u6e56\u533a", "street_id": "c3523bd910489046353a714f", "telephone": "(029)87373333", "detail": 1, "uid": "c3523bd910489046353a714f", "detail_info": {"tag": "\u9152\u5e97;\u5feb\u6377\u9152\u5e97", "type": "hotel", "detail_url": "http://api.map.baidu.com/place/detail?uid=c3523bd910489046353a714f&output=html&source=placeapi_v2", "price": "280.0", "overall_rating": "4.8", "service_rating": "4.7", "facility_rating": "4.6", "hygiene_rating": "4.7", "image_num": "69", "comment_num": "35", "favorite_num": "0", "checkin_num": "0", "children": []}}, {"name": "\u897f\u5b89\u9f99\u6eaa\u9152\u5e97(\u539f\u683c\u6797\u8c6a\u6cf0\u897f\u5b89\u5357\u95e8\u5e97)", "location": {"lat": 34.256077, "lng": 108.949254}, "address": "\u897f\u5b89\u5e02\u632f\u5174\u8def136\u53f7(\u5357\u95e8\u5916\u91d1\u82b1\u8c6a\u751f\u897f\u4fa7\u632f\u5174\u8def\u5411\u5357100\u7c73)", "province": "\u9655\u897f\u7701", "city": "\u897f\u5b89\u5e02", "area": "\u7891\u6797\u533a", "street_id": "850815e1950b748242e192a7", "telephone": "(029)88669909", "detail": 1, "uid": "850815e1950b748242e192a7", "detail_info": {"tag": "\u9152\u5e97;\u5176\u4ed6", "navi_location": {"lng": 108.94934639664, "lat": 34.25608642441}, "type": "hotel", "detail_url": "http://api.map.baidu.com/place/detail?uid=850815e1950b748242e192a7&output=html&source=placeapi_v2", "price": "60.0", "overall_rating": "4.2", "service_rating": "4.2", "facility_rating": "4.0", "hygiene_rating": "4.2", "image_num": "100", "comment_num": "356", "favorite_num": "0", "checkin_num": "0", "children": []}}, {"name": "\u897f\u5b89\u8054\u90a6\u4e2d\u822a\u5546\u52a1\u9152\u5e97", "location": {"lat": 34.262498, "lng": 108.950158}, "address": "\u5357\u5927\u8857\u897f\u6728\u5934\u5e0251\u53f7", "province": "\u9655\u897f\u7701", "city": "\u897f\u5b89\u5e02", "area": "\u7891\u6797\u533a", "street_id": "d305db1f99a20227932ca346", "telephone": "(029)87638888", "detail": 1, "uid": "d305db1f99a20227932ca346", "detail_info": {"tag": "\u9152\u5e97;\u5176\u4ed6", "navi_location": {"lng": 108.95011635765, "lat": 34.262249659291}, "type": "hotel", "detail_url": "http://api.map.baidu.com/place/detail?uid=d305db1f99a20227932ca346&output=html&source=placeapi_v2", "price": "187.0", "overall_rating": "4.2", "service_rating": "4.1", "facility_rating": "3.8", "hygiene_rating": "4.1", "image_num": "100", "comment_num": "49", "favorite_num": "0", "checkin_num": "0", "children": []}}, {"name": "\u5e03\u4e01\u9152\u5e97(\u949f\u9f13\u697c\u56de\u6c11\u8857\u767e\u76db\u5e97)", "location": {"lat": 34.269312, "lng": 108.941041}, "address": "\u9655\u897f\u7701\u897f\u5b89\u5e02\u83b2\u6e56\u533a\u5e99\u540e\u8857165\u53f7", "province": "\u9655\u897f\u7701", "city": "\u897f\u5b89\u5e02", "area": "\u83b2\u6e56\u533a", "street_id": "6fe820db492fac1beedfca90", "telephone": "(029)89628128", "detail": 1, "uid": "6fe820db492fac1beedfca90", "detail_info": {"tag": "\u9152\u5e97;\u5feb\u6377\u9152\u5e97", "type": "hotel", "detail_url": "http://api.map.baidu.com/place/detail?uid=6fe820db492fac1beedfca90&output=html&source=placeapi_v2", "price": "170.0", "overall_rating": "4.5", "service_rating": "4.7", "facility_rating": "4.5", "hygiene_rating": "4.6", "image_num": "40", "comment_num": "30", "favorite_num": "0", "checkin_num": "0", "children": []}}, {"name": "\u91d1\u8482\u4e07\u4eb3\u9152\u5e97", "location": {"lat": 34.216292, "lng": 108.926675}, "address": "\u96c1\u5854\u533a\u7535\u5b50\u6b63\u8857399\u53f7(\u7535\u5b50\u4e8c\u8def\u548c\u7535\u5b50\u6b63\u8857\u4e1c\u5357\u89d2)", "province": "\u9655\u897f\u7701", "city": "\u897f\u5b89\u5e02", "area": "\u96c1\u5854\u533a", "street_id": "1fd8a8ae509aa571ce04efe8", "telephone": "(029)88218666", "detail": 1, "uid": "b533ea4af8a183584f6d4653", "detail_info": {"tag": "\u9152\u5e97;\u5176\u4ed6", "navi_location": {"lng": 108.92673091224, "lat": 34.216370539359}, "type": "hotel", "detail_url": "http://api.map.baidu.com/place/detail?uid=b533ea4af8a183584f6d4653&output=html&source=placeapi_v2", "price": "206.0", "overall_rating": "4.4", "service_rating": "4.5", "facility_rating": "4.5", "hygiene_rating": "4.5", "image_num": "100", "comment_num": "108", "favorite_num": "0", "checkin_num": "0", "children": []}}, {"name": "\u5982\u5bb6\u5feb\u6377\u9152\u5e97(\u897f\u5b89\u83b2\u6e56\u8def\u56de\u574a\u7f8e\u98df\u8857\u5e97)", "location": {"lat": 34.276097, "lng": 108.940138}, "address": "\u9655\u897f\u7701\u897f\u5b89\u5e02\u83b2\u6e56\u533a\u83b2\u6e56\u8def121\u53f7\u5982\u5bb6\u5feb\u637f\u9152\u5e97", "province": "\u9655\u897f\u7701", "city": "\u897f\u5b89\u5e02", "area": "\u83b2\u6e56\u533a", "street_id": "bdc1c4c25c2593ae9f09f717", "telephone": "(029)87322999", "detail": 1, "uid": "b533ea4a8a41f5584f6d4673", "detail_info": {"tag": "\u9152\u5e97;\u5feb\u6377\u9152\u5e97", "navi_location": {"lng": 108.94004943138, "lat": 34.275920932424}, "type": "hotel", "detail_url": "http://api.map.baidu.com/place/detail?uid=b533ea4a8a41f5584f6d4673&output=html&source=placeapi_v2", "price": "184.0", "overall_rating": "4.5", "service_rating": "4.7", "facility_rating": "4.5", "hygiene_rating": "4.6", "image_num": "100", "comment_num": "139", "favorite_num": "0", "checkin_num": "0", "children": []}}, {"name": "\u897f\u5b89\u9526\u4e1a\u5546\u52a1\u9152\u5e97", "location": {"lat": 34.19695, "lng": 108.88391}, "address": "\u9526\u4e1a\u4e00\u8def34\u53f7\uff08\u8f6f\u4ef6\u56ed\u65c1\uff09", "province": "\u9655\u897f\u7701", "city": "\u897f\u5b89\u5e02", "area": "\u96c1\u5854\u533a", "street_id": "a0624affe6ab231479b55ce9", "telephone": "(029)68659666", "detail": 1, "uid": "a0624affe6ab231479b55ce9", "detail_info": {"tag": "\u9152\u5e97;\u5176\u4ed6", "navi_location": {"lng": 108.88391195751, "lat": 34.197264778326}, "type": "hotel", "detail_url": "http://api.map.baidu.com/place/detail?uid=a0624affe6ab231479b55ce9&output=html&source=placeapi_v2", "price": "120.0", "overall_rating": "4.5", "service_rating": "4.6", "facility_rating": "4.5", "hygiene_rating": "4.7", "image_num": "90", "comment_num": "35", "favorite_num": "0", "checkin_num": "0", "children": []}}, {"name": "\u6d77\u53cb\u9152\u5e97(\u5357\u95e8\u5e97)", "location": {"lat": 34.258493, "lng": 108.948394}, "address": "\u897f\u5b89\u5e02\u7891\u6797\u533a\u6e58\u5b50\u5e9970-71", "province": "\u9655\u897f\u7701", "city": "\u897f\u5b89\u5e02", "area": "\u7891\u6797\u533a", "street_id": "6e582d867f072bd81fe99966", "telephone": "(029)87289922", "detail": 1, "uid": "6e582d867f072bd81fe99966", "detail_info": {"tag": "\u9152\u5e97;\u5feb\u6377\u9152\u5e97", "navi_location": {"lng": 108.94832846648, "lat": 34.258643793441}, "type": "hotel", "detail_url": "http://api.map.baidu.com/place/detail?uid=6e582d867f072bd81fe99966&output=html&source=placeapi_v2", "price": "143.0", "overall_rating": "4.2", "service_rating": "4.3", "facility_rating": "4.0", "hygiene_rating": "4.3", "image_num": "100", "comment_num": "64", "favorite_num": "0", "checkin_num": "0", "children": []}}, {"name": "\u6c49\u5ead\u9152\u5e97(\u897f\u5b89\u79d1\u6280\u8def\u5e97)", "location": {"lat": 34.239803, "lng": 108.90807}, "address": "\u897f\u5b89\u5e02\u9ad8\u65b0\u533a\u5149\u5fb7\u8def6\u53f7\uff08\u91d1\u9e70\u5e7f\u573a\u5317\u4fa7\uff0c\u767e\u59d3\u53a8\u623f\u9662\u5185\u8ddd\u79bb\u897f\u5b89\u53e4\u57ce\u5899\u53ca\u949f\u9f13\u697c\u4ec55\u516c\u91cc\uff09", "province": "\u9655\u897f\u7701", "city": "\u897f\u5b89\u5e02", "area": "\u96c1\u5854\u533a", "street_id": "37038d9fd11c784d0482c210", "telephone": "(029)88212266", "detail": 1, "uid": "37038d9fd11c784d0482c210", "detail_info": {"tag": "\u9152\u5e97;\u5feb\u6377\u9152\u5e97", "navi_location": {"lng": 108.90764022325, "lat": 34.239652664085}, "type": "hotel", "detail_url": "http://api.map.baidu.com/place/detail?uid=37038d9fd11c784d0482c210&output=html&source=placeapi_v2", "price": "162.0", "overall_rating": "4.4", "service_rating": "4.6", "facility_rating": "4.6", "hygiene_rating": "4.7", "image_num": "72", "comment_num": "49", "favorite_num": "0", "checkin_num": "0", "children": []}}, {"name": "\u6c49\u5ead\u9152\u5e97(\u897f\u5b89\u79d1\u6280\u8def\u4e1c\u5e97)", "location": {"lat": 34.231295, "lng": 108.92092}, "address": "\u897f\u5b89\u96c1\u5854\u533a\u878d\u946b\u8def1\u53f7\u4e00\u697c", "province": "\u9655\u897f\u7701", "city": "\u897f\u5b89\u5e02", "area": "\u96c1\u5854\u533a", "street_id": "545d6a12ab47f1b3f4eafcd0", "telephone": "(029)88231122", "detail": 1, "uid": "545d6a12ab47f1b3f4eafcd0", "detail_info": {"tag": "\u9152\u5e97;\u5feb\u6377\u9152\u5e97", "type": "hotel", "detail_url": "http://api.map.baidu.com/place/detail?uid=545d6a12ab47f1b3f4eafcd0&output=html&source=placeapi_v2", "price": "162.0", "overall_rating": "4.4", "service_rating": "4.5", "facility_rating": "4.4", "hygiene_rating": "4.6", "image_num": "55", "comment_num": "30", "favorite_num": "0", "checkin_num": "0", "children": []}}, {"name": "\u897f\u5b89\u9038\u56ed\u7cbe\u54c1\u9152\u5e97\u949f\u697c\u56de\u6c11\u8857\u5e97", "location": {"lat": 34.272921, "lng": 108.94507}, "address": "\u897f\u5b89\u83b2\u6e56\u533a\u56de\u6c11\u8857\u6559\u573a\u95e82\u53f7\u83b2\u6e56\u516c\u56ed\u897f\u95e8", "province": "\u9655\u897f\u7701", "city": "\u897f\u5b89\u5e02", "area": "\u83b2\u6e56\u533a", "street_id": "e3d7a8e3add1f3d71f3894a3", "telephone": "13991152955", "detail": 1, "uid": "e3d7a8e3add1f3d71f3894a3", "detail_info": {"tag": "\u9152\u5e97;\u5176\u4ed6", "type": "hotel", "detail_url": "http://api.map.baidu.com/place/detail?uid=e3d7a8e3add1f3d71f3894a3&output=html&source=placeapi_v2", "price": "88.0", "overall_rating": "5.0", "service_rating": "5.0", "facility_rating": "5.0", "hygiene_rating": "5.0", "image_num": "23", "comment_num": "6", "favorite_num": "0", "checkin_num": "0", "children": []}}, {"name": "\u897f\u5b89\u5c45\u96c5\u9152\u5e97\u9526\u4e1a\u5e97", "location": {"lat": 34.198744, "lng": 108.88464}, "address": "\u897f\u5b89\u5e02\u9ad8\u65b0\u533a\u9526\u4e1a\u8def32\u53f7\u9526\u4e1a\u65f6\u4ee3A3", "province": "\u9655\u897f\u7701", "city": "\u897f\u5b89\u5e02", "area": "\u96c1\u5854\u533a", "street_id": "85ad46bbb91627fffa0cad3a", "telephone": "(029)81112926", "detail": 1, "uid": "aa4b1b3d8dcdaeac901fc96b", "detail_info": {"tag": "\u9152\u5e97;\u5176\u4ed6", "type": "hotel", "detail_url": "http://api.map.baidu.com/place/detail?uid=aa4b1b3d8dcdaeac901fc96b&output=html&source=placeapi_v2", "price": "79.0", "overall_rating": "4.4", "service_rating": "4.4", "facility_rating": "4.3", "hygiene_rating": "4.4", "image_num": "60", "comment_num": "42", "favorite_num": "0", "checkin_num": "0", "children": []}}, {"name": "\u8c6a\u6cf0\u9152\u5e97", "location": {"lat": 34.180893, "lng": 108.853751}, "address": "\u897f\u5b89\u957f\u5b89\u533a\u4e9a\u8fea\u8def88\u53f7", "province": "\u9655\u897f\u7701", "city": "\u897f\u5b89\u5e02", "area": "\u957f\u5b89\u533a", "street_id": "91cb24950ed9fa7878f7968a", "telephone": "(029)81111036", "detail": 1, "uid": "91cb24950ed9fa7878f7968a", "detail_info": {"tag": "\u9152\u5e97;\u5feb\u6377\u9152\u5e97", "type": "hotel", "detail_url": "http://api.map.baidu.com/place/detail?uid=91cb24950ed9fa7878f7968a&output=html&source=placeapi_v2", "price": "118.0", "overall_rating": "4.2", "service_rating": "4.2", "facility_rating": "4.2", "hygiene_rating": "4.4", "image_num": "3", "comment_num": "31", "favorite_num": "0", "checkin_num": "0", "children": []}}, {"name": "\u6210\u529f\u559c\u8c6a\u9152\u5e97(\u751c\u6c34\u4e95\u5e97)", "location": {"lat": 34.258297, "lng": 108.936366}, "address": "\u542b\u5149\u95e8\u91cc\u897f100\u7c73\u53cc\u4ec1\u5e9c\u4e0e\u897f\u751c\u6c34\u4e95\u8857\u8def\u53e3(\u4e34\u8fd1\u542b\u5149\u95e8\u548c\u897f\u95e8)", "province": "\u9655\u897f\u7701", "city": "\u897f\u5b89\u5e02", "area": "\u83b2\u6e56\u533a", "street_id": "9655e11e87ca573e400245d1", "telephone": "(029)87409234", "detail": 1, "uid": "9655e11e87ca573e400245d1", "detail_info": {"tag": "\u9152\u5e97;\u5176\u4ed6", "type": "hotel", "detail_url": "http://api.map.baidu.com/place/detail?uid=9655e11e87ca573e400245d1&output=html&source=placeapi_v2", "price": "118.0", "overall_rating": "4.5", "service_rating": "4.1", "facility_rating": "4.0", "hygiene_rating": "4.2", "image_num": "88", "comment_num": "30", "favorite_num": "0", "checkin_num": "0", "children": []}}, {"name": "\u6c49\u5ead\u9152\u5e97(\u897f\u5b89\u542b\u5149\u95e8\u897f\u5317\u5927\u5b66\u5e97)", "location": {"lat": 34.253098, "lng": 108.940765}, "address": "\u897f\u5b89\u7891\u6797\u533a\u542b\u5149\u8def\u5317\u6bb5\u90ae\u7535\u5317\u5df722\u53f7", "province": "\u9655\u897f\u7701", "city": "\u897f\u5b89\u5e02", "area": "\u7891\u6797\u533a", "street_id": "11ecd16f3e23d4f8f42310c8", "telephone": "(029)88880088", "detail": 1, "uid": "11ecd16f3e23d4f8f42310c8", "detail_info": {"tag": "\u9152\u5e97;\u5feb\u6377\u9152\u5e97", "navi_location": {"lng": 108.94036913381, "lat": 34.253267661067}, "type": "hotel", "detail_url": "http://api.map.baidu.com/place/detail?uid=11ecd16f3e23d4f8f42310c8&output=html&source=placeapi_v2", "price": "180.0", "overall_rating": "4.4", "service_rating": "0.0", "facility_rating": "4.4", "hygiene_rating": "4.5", "image_num": "47", "comment_num": "9", "favorite_num": "0", "checkin_num": "0", "children": []}}, {"name": "\u897f\u5b89\u5361\u68ee\u9152\u5e97(\u6731\u96c0\u8def\u5e97)", "location": {"lat": 34.231654, "lng": 108.94533}, "address": "\u96c1\u5854\u533a\u6731\u96c0\u5927\u8857272\u53f7(\u4e0e\u5174\u5584\u5bfa\u897f\u8857\u4ea4\u6c47\u5904)", "province": "\u9655\u897f\u7701", "city": "\u897f\u5b89\u5e02", "area": "\u96c1\u5854\u533a", "street_id": "fd776d0385c9a75b364aae29", "telephone": "(029)85235599", "detail": 1, "uid": "fd776d0385c9a75b364aae29", "detail_info": {"tag": "\u9152\u5e97;\u5176\u4ed6", "navi_location": {"lng": 108.94540223898, "lat": 34.231500155826}, "type": "hotel", "detail_url": "http://api.map.baidu.com/place/detail?uid=fd776d0385c9a75b364aae29&output=html&source=placeapi_v2", "price": "69.0", "overall_rating": "4.0", "service_rating": "3.9", "facility_rating": "3.7", "hygiene_rating": "3.8", "image_num": "100", "comment_num": "120", "favorite_num": "0", "checkin_num": "0", "children": []}}, {"name": "\u897f\u5b89\u5174\u9633\u9152\u5e97", "location": {"lat": 34.26277, "lng": 108.929015}, "address": "\u897f\u5b89\u5e02\u83b2\u6e56\u533a\u73af\u57ce\u897f\u8def\u5357\u6bb5\u516b\u4f73\u8def1\u53f7(\u897f\u95e8\u5916\u4eba\u4eba\u4e50\u8d85\u5e02\u5357200\u7c73)", "province": "\u9655\u897f\u7701", "city": "\u897f\u5b89\u5e02", "area": "\u83b2\u6e56\u533a", "street_id": "b196a2fbedfed4c560685873", "telephone": "(029)84586999", "detail": 1, "uid": "b196a2fbedfed4c560685873", "detail_info": {"tag": "\u9152\u5e97;\u5176\u4ed6", "navi_location": {"lng": 108.92884052704, "lat": 34.262897289403}, "type": "hotel", "detail_url": "http://api.map.baidu.com/place/detail?uid=b196a2fbedfed4c560685873&output=html&source=placeapi_v2", "price": "221.0", "overall_rating": "4.4", "service_rating": "4.5", "facility_rating": "4.4", "hygiene_rating": "4.5", "image_num": "100", "comment_num": "37", "favorite_num": "0", "checkin_num": "0", "children": []}}, {"name": "\u5e03\u4e01\u9152\u5e97(\u79d1\u6280\u8def\u5e97)", "location": {"lat": 34.230228, "lng": 108.915753}, "address": "\u9655\u897f\u7701\u897f\u5b89\u5e02\u96c1\u5854\u533a\u767d\u6c99\u8def3\u53f7", "province": "\u9655\u897f\u7701", "city": "\u897f\u5b89\u5e02", "area": "\u96c1\u5854\u533a", "street_id": "4eb3b5335d2a716c4302455b", "telephone": "(029)88237811", "detail": 1, "uid": "4eb3b5335d2a716c4302455b", "detail_info": {"tag": "\u9152\u5e97;\u5feb\u6377\u9152\u5e97", "navi_location": {"lng": 108.91595595234, "lat": 34.230349421603}, "type": "hotel", "detail_url": "http://api.map.baidu.com/place/detail?uid=4eb3b5335d2a716c4302455b&output=html&source=placeapi_v2", "price": "112.0", "overall_rating": "4.0", "service_rating": "4.4", "facility_rating": "4.2", "hygiene_rating": "4.4", "image_num": "100", "comment_num": "94", "favorite_num": "0", "checkin_num": "0", "children": []}}, {"name": "\u5982\u5bb6\u7cbe\u9009(\u897f\u5b89\u5357\u4e8c\u73af\u9ad8\u65b0\u56db\u8def\u5e97)", "location": {"lat": 34.245653, "lng": 108.905498}, "address": "\u9ad8\u65b0\u56db\u8def\u4e5d\u53f7\u5e7f\u573a\u5c45\u7136\u4e4b\u5bb6", "province": "\u9655\u897f\u7701", "city": "\u897f\u5b89\u5e02", "area": "\u96c1\u5854\u533a", "street_id": "34dbde7652cea1c3b320a8c2", "telephone": "(029)62958300-9", "detail": 1, "uid": "34dbde7652cea1c3b320a8c2", "detail_info": {"tag": "\u9152\u5e97;\u5feb\u6377\u9152\u5e97", "navi_location": {"lng": 108.90720997264, "lat": 34.245218475516}, "type": "hotel", "detail_url": "http://api.map.baidu.com/place/detail?uid=34dbde7652cea1c3b320a8c2&output=html&source=placeapi_v2", "price": "252.0", "overall_rating": "4.6", "service_rating": "4.7", "facility_rating": "4.7", "hygiene_rating": "4.8", "image_num": "85", "comment_num": "36", "favorite_num": "0", "checkin_num": "0", "children": []}}, {"name": "\u6b63\u79be\u5bbe\u9986", "location": {"lat": 34.249634, "lng": 108.924224}, "address": "\u53cb\u8c0a\u897f\u8def127\u53f7\u897f\u5317\u5de5\u4e1a\u5927\u5b66\u6821\u5185(\u8fd1\u52b3\u52a8\u5357\u8def)", "province": "\u9655\u897f\u7701", "city": "\u897f\u5b89\u5e02", "area": "\u7891\u6797\u533a", "street_id": "f4460918693fd073b11e3653", "telephone": "(029)88491957", "detail": 1, "uid": "f4460918693fd073b11e3653", "detail_info": {"tag": "\u9152\u5e97;\u5176\u4ed6", "navi_location": {"lng": 108.92442551356, "lat": 34.249354453741}, "type": "hotel", "detail_url": "http://api.map.baidu.com/place/detail?uid=f4460918693fd073b11e3653&output=html&source=placeapi_v2", "price": "178.0", "overall_rating": "4.0", "service_rating": "4.0", "facility_rating": "3.6", "hygiene_rating": "4.0", "image_num": "72", "comment_num": "30", "favorite_num": "0", "checkin_num": "0", "children": []}}, {"name": "\u5982\u5bb6\u5feb\u6377\u9152\u5e97(\u897f\u5b89\u7535\u5b50\u4e8c\u8def\u77f3\u6cb9\u5927\u5b66\u5e97)", "location": {"lat": 34.217637, "lng": 108.927747},