[{"name": "\u6d77\u5e95\u635e(\u9ad8\u79d1\u5e7f\u573a\u5e97)", "location": {"lat": 34.247938, "lng": 108.907563}, "address": "\u9ad8\u65b0\u533a\u9ad8\u65b0\u56db\u8def\u9ad8\u79d1\u5e7f\u573aC\u5ea73\u5c42", "province": "\u9655\u897f\u7701", "city": "\u897f\u5b89\u5e02", "area": "\u96c1\u5854\u533a", "street_id": "b9e5d0b8bd7dc6a580a12eba", "telephone": "(029)88362058", "detail": 1, "uid": "b9e5d0b8bd7dc6a580a12eba", "detail_info": {"tag": "\u7f8e\u98df;\u4e2d\u9910\u5385", "navi_location": {"lng": 108.90824844256, "lat": 34.248256263112}, "type": "cater", "detail_url": "http://api.map.baidu.com/place/detail?uid=b9e5d0b8bd7dc6a580a12eba&output=html&source=placeapi_v2", "price": "96.0", "overall_rating": "4.8", "comment_num": "200", "di_review_keyword": [], "children": []}}, {"name": "\u83b2\u82b1\u9910\u996e(\u9ad8\u65b0\u5e97)", "location": {"lat": 34.224543, "lng": 108.90354}, "address": "\u897f\u5b89\u9ad8\u65b0\u533a\u9ad8\u65b0\u8def\u5357\u6bb589\u53f7", "province": "\u9655\u897f\u7701", "city": "\u897f\u5b89\u5e02", "area": "\u96c1\u5854\u533a", "street_id": "6b1c1a40d081ca18e81e97ae", "telephone": "(029)88899999", "detail": 1, "uid": "6b1c1a40d081ca18e81e97ae", "detail_info": {"tag": "\u7f8e\u98df;\u4e2d\u9910\u5385", "navi_location": {"lng": 108.90344216493, "lat": 34.224540852936}, "type": "cater", "detail_url": "http://api.map.baidu.com/place/detail?uid=6b1c1a40d081ca18e81e97ae&output=html&source=placeapi_v2", "price": "76.0", "overall_rating": "4.3", "comment_num": "200", "di_review_keyword": [], "children": []}}, {"name": "\u767e\u59d3\u53a8\u623f(\u9ad8\u65b0\u5e97)", "location": {"lat": 34.23995, "lng": 108.908171}, "address": "\u96c1\u5854\u533a\u5149\u5fb7\u8def6\u53f7(\u4e1c\u9686\u5927\u53a6\u9644\u8fd1)", "province": "\u9655\u897f\u7701", "city": "\u897f\u5b89\u5e02", "area": "\u96c1\u5854\u533a", "street_id": "b1c556e854567015b42655cf", "telephone": "(029)88350333", "detail": 1, "uid": "b1c556e854567015b42655cf", "detail_info": {"tag": "\u7f8e\u98df;\u4e2d\u9910\u5385", "navi_location": {"lng": 108.90822491684, "lat": 34.240075320126}, "type": "cater", "detail_url": "http://api.map.baidu.com/place/detail?uid=b1c556e854567015b42655cf&output=html&source=placeapi_v2", "price": "59.0", "overall_rating": "4.5", "comment_num": "200", "di_review_keyword": [], "children": []}}, {"name": "\u82cf\u798f\u8bb0(\u7d2b\u8587\u81fb\u54c1\u5e97)", "location": {"lat": 34.243518, "lng": 108.886904}, "address": "\u79d1\u6280\u8def\u897f\u6bb5\u7d2b\u8587\u81fb\u54c119\u5e621\u5355\u51431\u5c4210103\u5ba4", "province": "\u9655\u897f\u7701", "city": "\u897f\u5b89\u5e02", "area": "\u96c1\u5854\u533a", "street_id": "c01a55aac77cdec69e95dee1", "telephone": "(029)62591188", "detail": 1, "uid": "c01a55aac77cdec69e95dee1", "detail_info": {"tag": "\u7f8e\u98df;\u4e2d\u9910\u5385", "navi_location": {"lng": 108.88683022064, "lat": 34.243255429985}, "type": "cater", "detail_url": "http://api.map.baidu.com/place/detail?uid=c01a55aac77cdec69e95dee1&output=html&source=placeapi_v2", "price": "44.5", "overall_rating": "4.6", "comment_num": "200", "di_review_keyword": [], "children": []}}, {"name": "\u5c0f\u6768\u70e4\u8089(\u70e4\u5bb4\u4f53\u9a8c\u9ad8\u65b0\u5e97)", "location": {"lat": 34.244381, "lng": 108.903484}, "address": "\u9ad8\u65b0\u56db\u8def15\u53f7", "province": "\u9655\u897f\u7701", "city": "\u897f\u5b89\u5e02", "area": "\u96c1\u5854\u533a", "street_id": "35debf298bc8205da6da3932", "telephone": "(029)68853222", "detail": 1, "uid": "35debf298bc8205da6da3932", "detail_info": {"tag": "\u7f8e\u98df;\u5176\u4ed6", "navi_location": {"lng": 108.90366464376, "lat": 34.244334635646}, "type": "cater", "detail_url": "http://api.map.baidu.com/place/detail?uid=35debf298bc8205da6da3932&output=html&source=placeapi_v2", "price": "69.0", "overall_rating": "3.6", "comment_num": "200", "di_review_keyword": [], "children": []}}, {"name": "\u897f\u5b89\u996d\u5e84(\u4e30\u767b\u8def\u5e97)", "location": {"lat": 34.264814, "lng": 108.905242}, "address": "\u9655\u897f\u7701\u897f\u5b89\u5e02\u83b2\u6e56\u533a\u4e30\u9550\u4e1c\u8def30\u53f7\u559c\u6765\u767b\u4e1c\u90bb", "province": "\u9655\u897f\u7701", "city": "\u897f\u5b89\u5e02", "area": "\u83b2\u6e56\u533a", "street_id": "c7eca12bc04f5d2ee015f9e9", "telephone": "(029)84295780", "detail": 1, "uid": "c7eca12bc04f5d2ee015f9e9", "detail_info": {"tag": "\u7f8e\u98df;\u4e2d\u9910\u5385", "navi_location": {"lng": 108.90524122293, "lat": 34.264966387664}, "type": "cater", "detail_url": "http://api.map.baidu.com/place/detail?uid=c7eca12bc04f5d2ee015f9e9&output=html&source=placeapi_v2", "price": "93.0", "overall_rating": "4.3", "comment_num": "200", "di_review_keyword": [], "children": []}}, {"name": "\u82cf\u798f\u8bb0(\u9ad8\u65b0\u5e97)", "location": {"lat": 34.247419, "lng": 108.907888}, "address": "\u9ad8\u65b0\u533a\u9ad8\u65b0\u4e09\u8def2\u53f7\u6d77\u4f73\u4e91\u9876\u5546\u4f4f\u697c1\u5c42", "province": "\u9655\u897f\u7701", "city": "\u897f\u5b89\u5e02", "area": "\u96c1\u5854\u533a", "street_id": "9415d3b15b5925ebb04c49cd", "telephone": "(029)81881899", "detail": 1, "uid": "9415d3b15b5925ebb04c49cd", "detail_info": {"tag": "\u7f8e\u98df;\u4e2d\u9910\u5385", "navi_location": {"lng": 108.90803577142, "lat": 34.247463767433}, "type": "cater", "detail_url": "http://api.map.baidu.com/place/detail?uid=9415d3b15b5925ebb04c49cd&output=html&source=placeapi_v2", "price": "48.0", "overall_rating": "4.4", "comment_num": "200", "di_review_keyword": [], "children": []}}, {"name": "\u5916\u5a46\u5370\u8c61(\u9ad8\u65b0\u5e97)", "location": {"lat": 34.230889, "lng": 108.906731}, "address": "\u9ad8\u65b0\u8def\u73af\u4e9a\u82b1\u56ed5\u53f7\uff08\u8fd1\u9ad8\u65b0\u4e00\u4e2d\uff09", "province": "\u9655\u897f\u7701", "city": "\u897f\u5b89\u5e02", "area": "\u96c1\u5854\u533a", "street_id": "cc788fde8cc6a69389fc06ed", "telephone": "4000206600", "detail": 1, "uid": "cc788fde8cc6a69389fc06ed", "detail_info": {"tag": "\u7f8e\u98df;\u4e2d\u9910\u5385", "navi_location": {"lng": 108.90692187259, "lat": 34.230908158496}, "type": "cater", "detail_url": "http://api.map.baidu.com/place/detail?uid=cc788fde8cc6a69389fc06ed&output=html&source=placeapi_v2", "price": "59.0", "overall_rating": "4.2", "comment_num": "200", "di_review_keyword": [], "children": []}}, {"name": "\u5916\u5a46\u5370\u8c61(\u9526\u4e1a\u8def\u5e97)", "location": {"lat": 34.199211, "lng": 108.881727}, "address": "\u9526\u4e1a\u8def36\u53f7\u76c8\u6a3e\u56fd\u96453\u697c\uff08\u7eff\u5730\u4e16\u7eaa\u57ce\u5bf9\u9762\uff09", "province": "\u9655\u897f\u7701", "city": "\u897f\u5b89\u5e02", "area": "\u96c1\u5854\u533a", "street_id": "dfb466b21af38cf9ebe582d4", "telephone": "(029)81100066", "detail": 1, "uid": "dfb466b21af38cf9ebe582d4", "detail_info": {"tag": "\u7f8e\u98df;\u4e2d\u9910\u5385", "navi_location": {"lng": 108.88201414339, "lat": 34.198786220798}, "type": "cater", "detail_url": "http://api.map.baidu.com/place/detail?uid=dfb466b21af38cf9ebe582d4&output=html&source=placeapi_v2", "price": "56.0", "overall_rating": "4.6", "comment_num": "200", "di_review_keyword": [], "children": []}}, {"name": "\u82cf\u798f\u8bb0(\u535a\u6587\u8def\u5e97)", "location": {"lat": 34.233777, "lng": 108.913068}, "address": "\u9ad8\u65b0\u533a\u79d1\u6280\u8def\u4e2d\u6bb526\u53f7\u8d28\u68c0\u5927\u53a61-2\u697c(\u535a\u6587\u8def\u53e3)", "province": "\u9655\u897f\u7701", "city": "\u897f\u5b89\u5e02", "area": "\u96c1\u5854\u533a", "street_id": "edd64ce1382c67883fe23132", "telephone": "(029)68576000,(029)68576555", "detail": 1, "uid": "edd64ce1382c67883fe23132", "detail_info": {"tag": "\u7f8e\u98df;\u4e2d\u9910\u5385", "navi_location": {"lng": 108.91329085866, "lat": 34.233788279684}, "type": "cater", "detail_url": "http://api.map.baidu.com/place/detail?uid=edd64ce1382c67883fe23132&output=html&source=placeapi_v2", "price": "41.0", "overall_rating": "4.7", "comment_num": "200", "di_review_keyword": [], "children": []}}, {"name": "\u76db\u8fd0\u6dae\u70e4\u81ea\u52a9\u9910\u5385(\u7535\u5b50\u6b63\u8857\u5e97)", "location": {"lat": 34.204651, "lng": 108.925323}, "address": "\u7535\u5b50\u6b63\u8857\u4e0e\u4e08\u516b\u4e1c\u8def\u5341\u5b57\u8def\u897f\u5317\u89d2\uff08\u6c11\u751f\u767e\u8d273\u697c\uff09", "province": "\u9655\u897f\u7701", "city": "\u897f\u5b89\u5e02", "area": "\u96c1\u5854\u533a", "street_id": "bbc2194d966ab8f5f82d6179", "telephone": "(029)89568136", "detail": 1, "uid": "bbc2194d966ab8f5f82d6179", "detail_info": {"tag": "\u7f8e\u98df;\u5916\u56fd\u9910\u5385", "type": "cater", "detail_url": "http://api.map.baidu.com/place/detail?uid=bbc2194d966ab8f5f82d6179&output=html&source=placeapi_v2", "price": "52.0", "overall_rating": "4.6", "comment_num": "200", "di_review_keyword": [], "children": []}}, {"name": "\u674e\u8bb0\u6405\u56e2(\u4e30\u5e86\u516c\u56ed\u5e97)", "location": {"lat": 34.253132, "lng": 108.900842}, "address": "\u4e30\u767b\u5357\u8def2\u53f7\uff08\u4e30\u5e86\u516c\u56ed\u897f\u95e8\u5bf9\u9762\u4f1f\u57fa\u5927\u53a62F\uff09", "province": "\u9655\u897f\u7701", "city": "\u897f\u5b89\u5e02", "area": "\u83b2\u6e56\u533a", "street_id": "f213e9898022c6d10d0e6b76", "telephone": "(029)89507777", "detail": 1, "uid": "db9f79142563d4e21e5800f3", "detail_info": {"tag": "\u7f8e\u98df;\u4e2d\u9910\u5385", "navi_location": {"lng": 108.90129748208, "lat": 34.253093584217}, "type": "cater", "detail_url": "http://api.map.baidu.com/place/detail?uid=db9f79142563d4e21e5800f3&output=html&source=placeapi_v2", "price": "47.0", "overall_rating": "4.3", "comment_num": "200", "di_review_keyword": [], "children": []}}, {"name": "\u767e\u59d3\u53a8\u623f(\u4e16\u5bb6\u661f\u57ce\u5e97)", "location": {"lat": 34.197689, "lng": 108.938083}, "address": "\u9655\u897f\u7701\u897f\u5b89\u5e02\u96c1\u5854\u533a\u4e1c\u4eea\u8def\u5357\u6bb5\u4e16\u5bb6\u661f\u57ceA28\u53f7", "province": "\u9655\u897f\u7701", "city": "\u897f\u5b89\u5e02", "area": "\u96c1\u5854\u533a", "street_id": "435d7aeaf305a42c5abbbc0a", "telephone": "(029)88334211", "detail": 1, "uid": "435d7aeaf305a42c5abbbc0a", "detail_info": {"tag": "\u7f8e\u98df;\u4e2d\u9910\u5385", "navi_location": {"lng": 108.93810121154, "lat": 34.197643146266}, "type": "cater", "detail_url": "http://api.map.baidu.com/place/detail?uid=435d7aeaf305a42c5abbbc0a&output=html&source=placeapi_v2", "price": "38.0", "overall_rating": "4.2", "comment_num": "200", "di_review_keyword": [], "children": []}}, {"name": "\u946b\u534e\u5e9c(\u7eff\u5730\u4e16\u7eaa\u57ce\u5e97)", "location": {"lat": 34.200836, "lng": 108.882511}, "address": "\u9655\u897f\u7701\u897f\u5b89\u5e02\u9ad8\u65b0\u533a\u7eff\u5730\u4e16\u7eaa\u57ce1\u53f7(\u4e08\u516b\u4e09\u8def\u4e0e\u9526\u4e1a\u8def\u5341\u5b57\u4ee5\u5317)", "province": "\u9655\u897f\u7701", "city": "\u897f\u5b89\u5e02", "area": "\u96c1\u5854\u533a", "street_id": "22e11407a3f5dfadd4b74e9c", "telephone": "(029)68910001", "detail": 1, "uid": "22e11407a3f5dfadd4b74e9c", "detail_info": {"tag": "\u7f8e\u98df;\u4e2d\u9910\u5385", "navi_location": {"lng": 108.8821185247, "lat": 34.20074213127}, "type": "cater", "detail_url": "http://api.map.baidu.com/place/detail?uid=22e11407a3f5dfadd4b74e9c&output=html&source=placeapi_v2", "price": "356.0", "overall_rating": "4.4", "comment_num": "132", "di_review_keyword": [], "children": []}}, {"name": "\u5c0f\u6768\u70e4\u8089\u5168\u56fd\u8fde\u9501\u6731\u96c0\u8def\u793a\u8303\u5e97", "location": {"lat": 34.234611, "lng": 108.94594}, "address": "\u6731\u96c0\u5927\u8857517\u53f7(\u5357\u4e8c\u73af\u4e0e\u6731\u96c0\u8def\u53e3\u5357\u4fa7)", "province": "\u9655\u897f\u7701", "city": "\u897f\u5b89\u5e02", "area": "\u96c1\u5854\u533a", "street_id": "fa7da3e80bd60e7b42d63e32", "telephone": "(029)85262455", "detail": 1, "uid": "fa7da3e80bd60e7b42d63e32", "detail_info": {"tag": "\u7f8e\u98df;\u5176\u4ed6", "navi_location": {"lng": 108.94571025805, "lat": 34.234610014273}, "type": "cater", "detail_url": "http://api.map.baidu.com/place/detail?uid=fa7da3e80bd60e7b42d63e32&output=html&source=placeapi_v2", "price": "53.0", "overall_rating": "4.6", "comment_num": "200", "di_review_keyword": [], "children": []}}, {"name": "\u83b2\u82b1\u9910\u996e(\u6731\u96c0\u5e97)", "location": {"lat": 34.237664, "lng": 108.946169}, "address": "\u6731\u96c0\u8def\u4e2d\u6bb51\u53f7\u897f\u5b89\u7687\u51a0\u5047\u65e5\u9152\u5e972\u5c42", "province": "\u9655\u897f\u7701", "city": "\u897f\u5b89\u5e02", "area": "\u7891\u6797\u533a", "street_id": "09961cee2541c37ed23ce341", "telephone": "(029)88993333,(029)89325526", "detail": 1, "uid": "09961cee2541c37ed23ce341", "detail_info": {"tag": "\u7f8e\u98df;\u4e2d\u9910\u5385", "navi_location": {"lng": 108.94610936621, "lat": 34.237581058752}, "type": "cater", "detail_url": "http://api.map.baidu.com/place/detail?uid=09961cee2541c37ed23ce341&output=html&source=placeapi_v2", "price": "105.0", "overall_rating": "4.6", "comment_num": "95", "di_review_keyword": [], "children": []}}, {"name": "\u5927\u53a8\u5c0f\u9986(\u4e08\u516b\u4e09\u8def\u5e97)", "location": {"lat": 34.201565, "lng": 108.883281}, "address": "\u9526\u4e1a\u8def\u7eff\u5730\u4e16\u7eaa\u57ce\u9955\u754c\u54c1\u5473\u5df7103\u53f7", "province": "\u9655\u897f\u7701", "city": "\u897f\u5b89\u5e02", "area": "\u96c1\u5854\u533a", "street_id": "8561698af77e8c2ac17da234", "telephone": "(029)68729377", "detail": 1, "uid": "8561698af77e8c2ac17da234", "detail_info": {"tag": "\u7f8e\u98df;\u4e2d\u9910\u5385", "navi_location": {"lng": 108.88332767176, "lat": 34.201782971135}, "type": "cater", "detail_url": "http://api.map.baidu.com/place/detail?uid=8561698af77e8c2ac17da234&output=html&source=placeapi_v2", "price": "35.0", "overall_rating": "4.3", "comment_num": "200", "di_review_keyword": [], "children": []}}, {"name": "\u4ee3\u8d2d \u7eff\u8336(\u897f\u5b89\u738b\u5e9c\u4e95\u5e97)", "location": {"lat": 34.252942, "lng": 108.95174}, "address": "\u897f\u5b89\u5e02\u7891\u6797\u533a\u5357\u5173\u6b63\u885788\u53f7\u738b\u5e9c\u4e95\u767e\u8d27F5", "province": "\u9655\u897f\u7701", "city": "\u897f\u5b89\u5e02", "area": "\u7891\u6797\u533a", "street_id": "9b2e3479769e77cece04efa2", "telephone": "(029)89651578", "detail": 1, "uid": "9b2e3479769e77cece04efa2", "detail_info": {"tag": "\u7f8e\u98df;\u4e2d\u9910\u5385", "navi_location": {"lng": 108.95318652334, "lat": 34.252579290488}, "indoor_floor": "F5", "type": "cater", "detail_url": "http://api.map.baidu.com/place/detail?uid=9b2e3479769e77cece04efa2&output=html&source=placeapi_v2", "price": "62.0", "overall_rating": "4.5", "comment_num": "188", "children": []}}, {"name": "\u5916\u5a46\u5370\u8c61(\u5510\u5ef6\u8def\u5e97)", "location": {"lat": 34.239676, "lng": 108.896717}, "address": "\u897f\u5b89\u9ad8\u65b0\u533a\u5510\u5ef6\u8def3\u53f7\u5510\u5ef6\u56fd\u9645\u4e2d\u5fc35\u697c(\u8fd1\u535c\u8702\u83b2\u82b1)", "province": "\u9655\u897f\u7701", "city": "\u897f\u5b89\u5e02", "area": "\u96c1\u5854\u533a", "street_id": "f2f15ffbce921891631c6777", "telephone": "(029)88785755", "detail": 1, "uid": "f2f15ffbce921891631c6777", "detail_info": {"tag": "\u7f8e\u98df;\u4e2d\u9910\u5385", "type": "cater", "detail_url": "http://api.map.baidu.com/place/detail?uid=f2f15ffbce921891631c6777&output=html&source=placeapi_v2", "price": "57.0", "overall_rating": "4.7", "comment_num": "200", "di_review_keyword": [], "children": []}}, {"name": "\u4eba\u4eba\u5c45(\u52b3\u52a8\u8def\u5e97)", "location": {"lat": 34.247252, "lng": 108.917821}, "address": "\u7891\u6797\u533a\u53cb\u8c0a\u897f\u8def127\u53f7\u897f\u5317\u5de5\u4e1a\u5927\u5b66\u5357\u95e8\uff08\u8fd1\u52b3\u52a8\u5357\u8def\uff09", "province": "\u9655\u897f\u7701", "city": "\u897f\u5b89\u5e02", "area": "\u7891\u6797\u533a", "street_id": "7fd72311ee883e865cbe861d", "telephone": "(029)88485100,(029)88485200", "detail": 1, "uid": "7fd72311ee883e865cbe861d", "detail_info": {"tag": "\u7f8e\u98df;\u4e2d\u9910\u5385", "navi_location": {"lng": 108.91789018287, "lat": 34.246934098524}, "type": "cater", "detail_url": "http://api.map.baidu.com/place/detail?uid=7fd72311ee883e865cbe861d&output=html&source=placeapi_v2", "price": "50.0", "overall_rating": "4.1", "comment_num": "181", "di_review_keyword": [], "children": []}}, {"name": "\u5916\u5a46\u5370\u8c61(\u897f\u5de5\u5927\u5e97)", "location": {"lat": 34.246479, "lng": 108.923631}, "address": "\u897f\u5b89\u5e02\u7891\u6797\u533a\u53cb\u8c0a\u897f\u8def\u767d\u5e99\u8def\u5341\u5b57\u4e1c\u5357\u89d2\u4eba\u4eba\u4e502\u697c", "province": "\u9655\u897f\u7701", "city": "\u897f\u5b89\u5e02", "area": "\u7891\u6797\u533a", "street_id": "2ba7481eaa820a20c3364433", "telephone": "(029)88481722", "detail": 1, "uid": "2ba7481eaa820a20c3364433", "detail_info": {"tag": "\u7f8e\u98df;\u4e2d\u9910\u5385", "navi_location": {"lng": 108.92344934292, "lat": 34.246525728435}, "type": "cater", "detail_url": "http://api.map.baidu.com/place/detail?uid=2ba7481eaa820a20c3364433&output=html&source=placeapi_v2", "price": "44.0", "overall_rating": "4.1", "comment_num": "200", "di_review_keyword": [], "children": []}}, {"name": "\u5927\u53a8\u5c0f\u9986(\u4e1c\u4eea\u8def\u5e97)", "location": {"lat": 34.197083, "lng": 108.933907}, "address": "\u516c\u4ea4\u8f66\u7ad9\u4e16\u5bb6\u661f\u57ce\u7ec8\u70b9\u7ad9(\u957f\u5b89\u897f\u8def\u4e0e\u4e1c\u4eea\u8def\u5341\u5b57\u897f\u5357\u89d2)", "province": "\u9655\u897f\u7701", "city": "\u897f\u5b89\u5e02", "area": "\u96c1\u5854\u533a", "street_id": "11655e5e76ce734246572621", "telephone": "(029)68782233", "detail": 1, "uid": "11655e5e76ce734246572621", "detail_info": {"tag": "\u7f8e\u98df;\u4e2d\u9910\u5385", "navi_location": {"lng": 108.93450937558, "lat": 34.197359391877}, "type": "cater", "detail_url": "http://api.map.baidu.com/place/detail?uid=11655e5e76ce734246572621&output=html&source=placeapi_v2", "price": "65.0", "overall_rating": "4.4", "comment_num": "200", "di_review_keyword": [], "children": []}}, {"name": "\u5916\u5a46\u5370\u8c61(\u542b\u5149\u8def\u5e97)", "location": {"lat": 34.239652, "lng": 108.938857}, "address": "\u542b\u5149\u5317\u8def23\u53f7\u4e5d\u9526\u53f0\u5317\u533a3\u697c", "province": "\u9655\u897f\u7701", "city": "\u897f\u5b89\u5e02", "area": "\u7891\u6797\u533a", "street_id": "fb2cbe942d5ab9782fb908d4", "telephone": "(029)89351817", "detail": 1, "uid": "fb2cbe942d5ab9782fb908d4", "detail_info": {"tag": "\u7f8e\u98df;\u4e2d\u9910\u5385", "type": "cater", "detail_url": "http://api.map.baidu.com/place/detail?uid=fb2cbe942d5ab9782fb908d4&output=html&source=placeapi_v2", "price": "62.0", "overall_rating": "4.8", "comment_num": "200", "di_review_keyword": [], "children": []}}, {"name": "\u5916\u5a46\u5370\u8c61(\u4e30\u5e86\u5e97)", "location": {"lat": 34.252338, "lng": 108.907944}, "address": "\u6843\u56ed\u5357\u8def19\u53f7(\u4e30\u5e86\u516c\u56ed\u4e1c\u95e8\u5bf9\u9762)", "province": "\u9655\u897f\u7701", "city": "\u897f\u5b89\u5e02", "area": "\u83b2\u6e56\u533a", "street_id": "7c5e480b3b7212adadb22a1a", "telephone": "(029)88700333", "detail": 1, "uid": "7c5e480b3b7212adadb22a1a", "detail_info": {"tag": "\u7f8e\u98df;\u4e2d\u9910\u5385", "navi_location": {"lng": 108.90780280936, "lat": 34.252337818699}, "type": "cater", "detail_url": "http://api.map.baidu.com/place/detail?uid=7c5e480b3b7212adadb22a1a&output=html&source=placeapi_v2", "price": "53.0", "overall_rating": "4.8", "comment_num": "192", "di_review_keyword": [], "children": []}}, {"name": "\u83dc\u5ba2\u00b7\u9655\u83dc", "location": {"lat": 34.258673, "lng": 108.941971}, "address": "\u9655\u897f\u7701\u897f\u5b89\u5e02\u7891\u6797\u533a\u5c0f\u5357\u95e8\u91cc\u5341\u5b57\u897f\u5317\u89d2\u5411\u897f10\u7c73\u62a5\u6069\u5bfa\u88573\u53f7", "province": "\u9655\u897f\u7701", "city": "\u897f\u5b89\u5e02", "area": "\u7891\u6797\u533a", "street_id": "6f6721d0b56be858c51e5182", "telephone": "(029)87624022", "detail": 1, "uid": "6f6721d0b56be858c51e5182", "detail_info": {"tag": "\u7f8e\u98df;\u4e2d\u9910\u5385", "navi_location": {"lng": 108.94213544858, "lat": 34.258511446201}, "type": "cater", "detail_url": "http://api.map.baidu.com/place/detail?uid=6f6721d0b56be858c51e5182&output=html&source=placeapi_v2", "price": "47.0", "overall_rating": "4.7", "comment_num": "179", "di_review_keyword": [], "children": []}}, {"name": "\u771f\u7231\u4e2d\u56fd\u9910\u9986(\u6731\u96c0\u5927\u8857\u5e97)", "location": {"lat": 34.242945, "lng": 108.945246}, "address": "\u6731\u96c0\u5927\u8857\u4e2d\u6bb538\u53f7\uff08\u5c0f\u96c1\u5854\u897f\u95e8\u5bf9\u9762\uff09", "province": "\u9655\u897f\u7701", "city": "\u897f\u5b89\u5e02", "area": "\u7891\u6797\u533a", "street_id": "c66a1b95c047d44c744ff127", "telephone": "(029)88401234", "detail": 1, "uid": "c66a1b95c047d44c744ff127", "detail_info": {"tag": "\u7f8e\u98df;\u4e2d\u9910\u5385", "navi_location": {"lng": 108.94522223832, "lat": 34.243546132983}, "type": "cater", "detail_url": "http://api.map.baidu.com/place/detail?uid=c66a1b95c047d44c744ff127&output=html&source=placeapi_v2", "price": "121.0", "overall_rating": "4.4", "comment_num": "122", "di_review_keyword": [], "children": []}}, {"name": "\u82cf\u6d59\u4f1a\u9986(\u9ad8\u65b0\u8def\u5e97)", "location": {"lat": 34.245582, "lng": 108.913146}, "address": "\u9655\u897f\u7701\u897f\u5b89\u5e02\u96c1\u5854\u533a\u9ad8\u65b0\u4e00\u8def2\u53f7\u56fd\u5bb6\u5f00\u53d1\u94f6\u884c\u5927\u53a6\u697c\u4e0b", "province": "\u9655\u897f\u7701", "city": "\u897f\u5b89\u5e02", "area": "\u96c1\u5854\u533a", "street_id": "1cea15a940f1f3dc07fef5db", "telephone": "(029)88322222", "detail": 1, "uid": "1cea15a940f1f3dc07fef5db", "detail_info": {"tag": "\u7f8e\u98df;\u4e2d\u9910\u5385", "navi_location": {"lng": 108.91314712978, "lat": 34.246046336046}, "type": "cater", "detail_url": "http://api.map.baidu.com/place/detail?uid=1cea15a940f1f3dc07fef5db&output=html&source=placeapi_v2", "price": "103.0", "overall_rating": "4.3", "groupon_num": "2", "comment_num": "200", "di_review_keyword": [], "children": []}}, {"name": "\u6bd4\u683c\u6bd4\u8428(\u57ce\u5e02\u7687\u51a0\u5e97)", "location": {"lat": 34.24407, "lng": 108.903334}, "address": "\u897f\u5b89\u5e02\u96c1\u5854\u533a\u57ce\u5e02\u7687\u51a0\u5e95\u5546\u4e09\u5c4210301\u5ba4", "province": "\u9655\u897f\u7701", "city": "\u897f\u5b89\u5e02", "area": "\u96c1\u5854\u533a", "street_id": "bba87388c61326b9bca822ce", "telephone": "(029)62631100,(029)62631122", "detail": 1, "uid": "bba87388c61326b9bca822ce", "detail_info": {"tag": "\u7f8e\u98df;\u5916\u56fd\u9910\u5385", "navi_location": {"lng": 108.90345059732, "lat": 34.244014263858}, "type": "cater", "detail_url": "http://api.map.baidu.com/place/detail?uid=bba87388c61326b9bca822ce&output=html&source=placeapi_v2", "price": "49.0", "overall_rating": "4.4", "comment_num": "200", "di_review_keyword": [], "children": []}}, {"name": "\u6e29\u5dde\u98ce\u5473\u7f8e\u98df(\u56db\u5e9c\u8857\u5e97)", "location": {"lat": 34.260669, "lng": 108.939328}, "address": "\u9655\u897f\u7701\u897f\u5b89\u5e02\u83b2\u6e56\u533a\u542b\u5149\u95e8\u91cc\u751c\u6c34\u4e95\u8857\u51b0\u7a96\u5df7\u5c0f\u533a2\u53f7\u697c\u5e95\u5546", "province": "\u9655\u897f\u7701", "city": "\u897f\u5b89\u5e02", "area": "\u83b2\u6e56\u533a", "street_id": "12dc3b0ec50ef5ce58f6be08", "telephone": "15909203971", "detail": 1, "uid": "12dc3b0ec50ef5ce58f6be08", "detail_info": {"tag": "\u7f8e\u98df;\u4e2d\u9910\u5385", "navi_location": {"lng": 108.93933221617, "lat": 34.260516196104}, "type": "cater", "detail_url": "http://api.map.baidu.com/place/detail?uid=12dc3b0ec50ef5ce58f6be08&output=html&source=placeapi_v2", "price": "57.0", "overall_rating": "4.6", "comment_num": "200", "di_review_keyword": [], "children": []}}, {"name": "\u5317\u4eac\u8001\u94fa\u70e4\u9e2d(\u5fa1\u94fa\u5e97)", "location": {"lat": 34.256619, "lng": 108.934449}, "address": "\u9655\u897f\u7701\u897f\u5b89\u5e02\u7891\u6797\u533a\u73af\u57ce\u5357\u8def\u897f\u6bb5202\u53f7(\u8fd1\u897f\u5317\u5927\u5b66\u5317\u95e8)", "province": "\u9655\u897f\u7701", "city": "\u897f\u5b89\u5e02", "area": "\u7891\u6797\u533a", "street_id": "dffd631c60bf15a538221cd0", "telephone": "(029)88421888", "detail": 1, "uid": "dffd631c60bf15a538221cd0", "detail_info": {"tag": "\u7f8e\u98df;\u4e2d\u9910\u5385", "navi_location": {"lng": 108.93437038077, "lat": 34.256767101333}, "type": "cater", "detail_url": "http://api.map.baidu.com/place/detail?uid=dffd631c60bf15a538221cd0&output=html&source=placeapi_v2", "price": "89.0", "overall_rating": "4.3", "comment_num": "200", "di_review_keyword": [], "children": []}}, {"name": "\u8fa3\u5bb4\u706b\u9505(\u542b\u5149\u95e8\u5e97)", "location": {"lat": 34.256713, "lng": 108.940405}, "address": "\u897f\u5b89\u5e02\u7891\u6797\u533a\u73af\u57ce\u5357\u8def\u897f\u6bb545\u53f7", "province": "\u9655\u897f\u7701", "city": "\u897f\u5b89\u5e02", "area": "\u7891\u6797\u533a", "street_id": "ca3a030e4a2152a82bd7abc2", "telephone": "(029)85266889", "detail": 1, "uid": "ca3a030e4a2152a82bd7abc2", "detail_info": {"tag": "\u7f8e\u98df;\u4e2d\u9910\u5385", "navi_location": {"lng": 108.9404018501, "lat": 34.256833491638}, "type": "cater", "detail_url": "http://api.map.baidu.com/place/detail?uid=ca3a030e4a2152a82bd7abc2&output=html&source=placeapi_v2", "price": "90.0", "overall_rating": "4.7", "comment_num": "200", "di_review_keyword": [], "children": []}}, {"name": "\u6bd4\u683c\u6bd4\u8428(\u5409\u7965\u6751\u5e97)", "location": {"lat": 34.229139, "lng": 108.937624}, "address": "\u5409\u7965\u6751\u79cb\u6797\u516c\u53f82\u5c42", "province": "\u9655\u897f\u7701", "city": "\u897f\u5b89\u5e02", "area": "\u96c1\u5854\u533a", "street_id": "6113ef772f6af70d8e772757", "telephone": "(029)63683130,(029)63683129", "detail": 1, "uid": "6113ef772f6af70d8e772757", "detail_info": {"tag": "\u7f8e\u98df;\u5916\u56fd\u9910\u5385", "type": "cater", "detail_url": "http://api.map.baidu.com/place/detail?uid=6113ef772f6af70d8e772757&output=html&source=placeapi_v2", "price": "49.0", "overall_rating": "4.8", "comment_num": "200", "di_review_keyword": [], "children": []}}, {"name": "\u771f\u7231\u4e2d\u56fd\u9910\u9986(\u73af\u57ce\u897f\u82d1\u5e97)", "location": {"lat": 34.267631, "lng": 108.930103}, "address": "\u897f\u95e8\u5916\u5317\u4fa7\u73af\u57ce\u897f\u82d1\u5185", "province": "\u9655\u897f\u7701", "city": "\u897f\u5b89\u5e02", "area": "\u83b2\u6e56\u533a", "street_id": "1020060f667be5bf1994c690", "telephone": "(029)87951234", "detail": 1, "uid": "1020060f667be5bf1994c690", "detail_info": {"tag": "\u7f8e\u98df;\u4e2d\u9910\u5385", "navi_location": {"lng": 108.92934875955, "lat": 34.267898312592}, "type": "cater", "detail_url": "http://api.map.baidu.com/place/detail?uid=1020060f667be5bf1994c690&output=html&source=placeapi_v2", "price": "130.0", "overall_rating": "4.4", "comment_num": "103", "di_review_keyword": [], "children": []}}, {"name": "\u8001\u4e07\u5174", "location": {"lat": 34.24007, "lng": 108.934568}, "address": "\u9655\u897f\u7701\u897f\u5b89\u5e02\u7891\u6797\u533a\u5174\u5316\u5df7\u51ef\u65cb\u57ce6\u53f7\u5e95\u5546", "province": "\u9655\u897f\u7701", "city": "\u897f\u5b89\u5e02", "area": "\u7891\u6797\u533a", "street_id": "9cfbd26becb9b92c16c9052a", "telephone": "(029)89326876", "detail": 1, "uid": "9cfbd26becb9b92c16c9052a", "detail_info": {"tag": "\u7f8e\u98df;\u4e2d\u9910\u5385", "navi_location": {"lng": 108.93472442813, "lat": 34.240167468702}, "type": "cater", "detail_url": "http://api.map.baidu.com/place/detail?uid=9cfbd26becb9b92c16c9052a&output=html&source=placeapi_v2", "price": "62.0", "overall_rating": "4.8", "comment_num": "200", "di_review_keyword": [], "children": []}}, {"name": "\u9526\u7fd4\u709d\u9505\u57ce(\u6731\u96c0\u8def\u5e97)", "location": {"lat": 34.208384, "lng": 108.945025}, "address": "\u897f\u5b89\u5e02\u6731\u96c0\u5927\u8857\u5357\u6bb550\u53f7\u957f\u6c5f\u4e30\u6cfd\u56edA\u5ea7\u4e00\u3001\u4e8c\u5c42", "province": "\u9655\u897f\u7701", "city": "\u897f\u5b89\u5e02", "area": "\u96c1\u5854\u533a", "street_id": "905bd74e7327f7b55e0d02a6", "telephone": "(029)85402288,(029)85402299", "detail": 1, "uid": "905bd74e7327f7b55e0d02a6", "detail_info": {"tag": "\u7f8e\u98df;\u4e2d\u9910\u5385", "navi_location": {"lng": 108.9453622015, "lat": 34.208489707126}, "type": "cater", "detail_url": "http://api.map.baidu.com/place/detail?uid=905bd74e7327f7b55e0d02a6&output=html&source=placeapi_v2", "price": "55.0", "overall_rating": "4.5", "groupon_num": "2", "comment_num": "200", "di_review_keyword": [], "children": []}}, {"name": "\u5927\u53a8\u5c0f\u9986(\u53cb\u8c0a\u8def\u5e97)", "location": {"lat": 34.246845, "lng": 108.940754}, "address": "\u53cb\u8c0a\u8def\u9ec4\u96c1\u6751\u5341\u5b57\u4e1c\u5357\u89d2\u534e\u8c6a\u4e3d\u66762\u697c(\u516c\u52a1\u5458\u5927\u53a6\u6b63\u5bf9\u9762)", "province": "\u9655\u897f\u7701", "city": "\u897f\u5b89\u5e02", "area": "\u7891\u6797\u533a", "street_id": "709b72dbbc45943307fef5de", "telephone": "(029)85397203", "detail": 1, "uid": "709b72dbbc45943307fef5de", "detail_info": {"tag": "\u7f8e\u98df;\u4e2d\u9910\u5385", "navi_location": {"lng": 108.94059036311, "lat": 34.247098221644}, "type": "cater", "detail_url": "http://api.map.baidu.com/place/detail?uid=709b72dbbc45943307fef5de&output=html&source=placeapi_v2", "price": "48.0", "overall_rating": "4.2", "comment_num": "164", "di_review_keyword": [], "children": []}}, {"name": "\u4eba\u4eba\u5c45(\u56db\u5e9c\u8857\u5e97)", "location": {"lat": 34.2616, "lng": 108.942313}, "address": "\u9655\u897f\u7701\u897f\u5b89\u5e02\u7891\u6797\u533a\u56db\u5e9c\u885778\u53f7", "province": "\u9655\u897f\u7701", "city": "\u897f\u5b89\u5e02", "area": "\u7891\u6797\u533a", "street_id": "0523a1410a2fb404b23c811d", "telephone": "(029)87620166", "detail": 1, "uid": "0523a1410a2fb404b23c811d", "detail_info": {"tag": "\u7f8e\u98df;\u4e2d\u9910\u5385", "navi_location": {"lng": 108.94241400144, "lat": 34.261599460917}, "type": "cater", "detail_url": "http://api.map.baidu.com/place/detail?uid=0523a1410a2fb404b23c811d&output=html&source=placeapi_v2", "price": "47.0", "overall_rating": "4.5", "comment_num": "117", "di_review_keyword": [], "children": []}}, {"name": "\u6912\u9999\u706b\u8fa3", "location": {"lat": 34.221444, "lng": 108.908017}, "address": "\u79d1\u6280\u56db\u8def\u7518\u5bb6\u5be8\u4e1c\u4e8c\u639234\u53f71\u5c42", "province": "\u9655\u897f\u7701", "city": "\u897f\u5b89\u5e02", "area": "\u96c1\u5854\u533a", "street_id": "3f9372f798fc2660e81e9771", "telephone": "(029)88608640", "detail": 1, "uid": "3f9372f798fc2660e81e9771", "detail_info": {"tag": "\u7f8e\u98df;\u4e2d\u9910\u5385", "navi_location": {"lng": 108.90795039737, "lat": 34.221413527548}, "type": "cater", "detail_url": "http://api.map.baidu.com/place/detail?uid=3f9372f798fc2660e81e9771&output=html&source=placeapi_v2", "price": "55.0", "overall_rating": "4.4", "comment_num": "200", "di_review_keyword": [], "children": []}}, {"name": "\u8001\u57ce\u5173\u814a\u6c41\u8089\u5939\u998d(\u9ad8\u65b0\u8def\u5e97)", "location": {"lat": 34.238302, "lng": 108.911198}, "address": "\u9ad8\u65b0\u533a\u9ad8\u65b0\u8def52\u53f7\u9ad8\u79d1\u5927\u53a6\u4e00\u5c421-2\u5ba4", "province": "\u9655\u897f\u7701", "city": "\u897f\u5b89\u5e02", "area": "\u96c1\u5854\u533a", "street_id": "20e4a9bc0e587051fa42b2f0", "telephone": "(029)88324731", "detail": 1, "uid": "20e4a9bc0e587051fa42b2f0", "detail_info": {"tag": "\u7f8e\u98df;\u5c0f\u5403\u5feb\u9910\u5e97", "navi_location": {"lng": 108.91111875593, "lat": 34.238172289871}, "type": "cater", "detail_url": "http://api.map.baidu.com/place/detail?uid=20e4a9bc0e587051fa42b2f0&output=html&source=placeapi_v2", "price": "15.0", "overall_rating": "4.2", "comment_num": "173", "di_review_keyword": [], "children": []}}, {"name": "Helen's\u897f\u9910\u5427", "location": {"lat": 34.229174, "lng": 108.937105}, "address": "\u897f\u5b89\u96c1\u5854\u533a\u5409\u7965\u8def21\u53f7\u79cb\u6797\u5546\u53a6\u897f20\u7c73\u5409\u7965\u5c0f\u5b662\u697c", "province": "\u9655\u897f\u7701", "city": "\u897f\u5b89\u5e02", "area": "\u96c1\u5854\u533a", "street_id": "fe19a7a6af59ff462906cee1", "telephone": "(029)88257912", "detail": 1, "uid": "fe19a7a6af59ff462906cee1", "detail_info": {"tag": "\u7f8e\u98df;\u5916\u56fd\u9910\u5385", "navi_location": {"lng": 108.93733240216, "lat": 34.228992637963}, "type": "cater", "detail_url": "http://api.map.baidu.com/place/detail?uid=fe19a7a6af59ff462906cee1&output=html&source=placeapi_v2", "price": "57.5", "overall_rating": "4.4", "comment_num": "142", "di_review_keyword": [], "children": []}}, {"name": "\u529b\u90a6\u827a\u672f\u6e2f", "location": {"lat": 34.239744, "lng": 108.906523}, "address": "\u897f\u5b89\u9ad8\u65b0\u533a\u9ad8\u65b0\u4e8c\u8def18\u53f7", "province": "\u9655\u897f\u7701", "city": "\u897f\u5b89\u5e02", "area": "\u96c1\u5854\u533a", "street_id": "cde9e2c7a6c0baade91e9794", "detail": 1, "uid": "cde9e2c7a6c0baade91e9794", "detail_info": {"tag": "\u8d2d\u7269;\u5546\u94fa", "navi_location": {"lng": 108.90673678662, "lat": 34.239552317899}, "type": "cater", "detail_url": "http://api.map.baidu.com/place/detail?uid=cde9e2c7a6c0baade91e9794&output=html&source=placeapi_v2", "price": "48.0", "overall_rating": "4.2", "comment_num": "94", "di_review_keyword": [], "children": []}}, {"name": "\u559c\u591a\u5c4b", "location": {"lat": 34.264789, "lng": 108.949065}, "address": "\u897f\u5b89\u5e02\u7891\u6797\u533a\u897f\u5927\u885748\u53f7\u94f6\u6cf0\u767e\u8d27F7", "province": "\u9655\u897f\u7701", "city": "\u897f\u5b89\u5e02", "area": "\u7891\u6797\u533a", "street_id": "65636b188edae86b2cb17ee5", "telephone": "(029)85258800,(029)87258091", "detail": 1, "uid": "65636b188edae86b2cb17ee5", "detail_info": {"tag": "\u7f8e\u98df;\u5916\u56fd\u9910\u5385", "navi_location": {"lng": 108.94991468447, "lat": 34.264791484598}, "indoor_floor": "F7", "type": "cater", "detail_url": "http://api.map.baidu.com/place/detail?uid=65636b188edae86b2cb17ee5&output=html&source=placeapi_v2", "price": "157.0", "overall_rating": "3.9", "groupon_num": "1", "comment_num": "200", "di_review_keyword": [], "children": []}}, {"name": "2068\u9999\u8fa3\u867e(\u5317\u5c71\u95e8\u5e97)", "location": {"lat": 34.210534, "lng": 108.926337}, "address": "\u7535\u5b50\u6b63\u8857231\u53f7", "province": "\u9655\u897f\u7701", "city": "\u897f\u5b89\u5e02", "area": "\u96c1\u5854\u533a", "street_id": "805253c170cafacfd62ce229", "telephone": "(029)88852068", "detail": 1, "uid": "805253c170cafacfd62ce229", "detail_info": {"tag": "\u7f8e\u98df;\u4e2d\u9910\u5385", "navi_location": {"lng": 108.92622051391, "lat": 34.210531149482}, "type": "cater", "detail_url": "http://api.map.baidu.com/place/detail?uid=805253c170cafacfd62ce229&output=html&source=placeapi_v2", "price": "58.0", "overall_rating": "4.4", "comment_num": "200", "di_review_keyword": [], "children": []}}, {"name": "\u9648\u4e09\u5a03\u6ce1\u59dc\u9e21(\u6c34\u53f8\u5e97)", "location": {"lat": 34.256408, "lng": 108.930282}, "address": "\u897f\u5b89\u7891\u6797\u533a\u592a\u767d\u5317\u8def279\u53f7\u897f\u5317\u5927\u5b66\u7efc\u5408\u670d\u52a1\u697c1\u53f7\u697c(\u8fd1\u9f0e\u73cd\u6e90)", "province": "\u9655\u897f\u7701", "city": "\u897f\u5b89\u5e02", "area": "\u7891\u6797\u533a", "street_id": "3c0ea7c525102a85fbf0cbc8", "telephone": "(029)88304058", "detail": 1, "uid": "3c0ea7c525102a85fbf0cbc8", "detail_info": {"tag": "\u7f8e\u98df;\u4e2d\u9910\u5385", "navi_location": {"lng": 108.93004460586, "lat": 34.256155897824}, "type": "cater", "detail_url": "http://api.map.baidu.com/place/detail?uid=3c0ea7c525102a85fbf0cbc8&output=html&source=placeapi_v2", "price": "59.0", "overall_rating": "4.4", "comment_num": "173", "di_review_keyword": [], "children": []}}, {"name": "\u7eff\u8309\u8389(\u9ad8\u79d1\u5927\u53a6\u5e97)", "location": {"lat": 34.239187, "lng": 108.911109}, "address": "\u9ad8\u65b0\u8def\u9ad8\u79d1\u5927\u53a6\u526f\u697c1\u697c(\u8fd1\u4e16\u7eaa\u91d1\u82b1\u540e\u95e8)", "province": "\u9655\u897f\u7701", "city": "\u897f\u5b89\u5e02", "area": "\u96c1\u5854\u533a", "street_id": "3a0fbba857e8e4589ee32158", "telephone": "(029)81883339", "detail": 1, "uid": "3a0fbba857e8e4589ee32158", "detail_info": {"tag": "\u7f8e\u98df;\u5916\u56fd\u9910\u5385", "navi_location": {"lng": 108.91088392181, "lat": 34.239122334521}, "type": "cater", "detail_url": "http://api.map.baidu.com/place/detail?uid=3a0fbba857e8e4589ee32158&output=html&source=placeapi_v2", "price": "175.0", "overall_rating": "4.6", "comment_num": "200", "di_review_keyword": [], "children": []}}, {"name": "\u540d\u7f8a\u5929\u4e0b\u9655\u5317\u6a2a\u5c71\u94c1\u9505\u7096\u7f8a\u8089", "location": {"lat": 34.230704, "lng": 108.911597}, "address": "\u535a\u6587\u8def39\u53f7", "province": "\u9655\u897f\u7701", "city": "\u897f\u5b89\u5e02", "area": "\u96c1\u5854\u533a", "street_id": "870a6c5782a3786b17c8f672", "telephone": "(029)84507777", "detail": 1, "uid": "870a6c5782a3786b17c8f672", "detail_info": {"tag": "\u7f8e\u98df;\u4e2d\u9910\u5385", "navi_location": {"lng": 108.9113834695, "lat": 34.230797998975}, "type": "cater", "detail_url": "http://api.map.baidu.com/place/detail?uid=870a6c5782a3786b17c8f672&output=html&source=placeapi_v2", "price": "72.0", "overall_rating": "4.4", "comment_num": "200", "di_review_keyword": [], "children": []}}, {"name": "\u674e\u60f3\u5927\u867e\u706b\u9505\u82b1\u56ed(\u5927\u5b66\u5357\u8def\u5e97)", "location": {"lat": 34.252154, "lng": 108.930233}, "address": "\u9655\u897f\u7701\u897f\u5b89\u5e02\u7891\u6797\u533a\u5927\u5b66\u5357\u8def\u4e0e\u592a\u767d\u5317\u8def\u4ea4\u53e3\u4e1c\u5317\u89d2", "province": "\u9655\u897f\u7701", "city": "\u897f\u5b89\u5e02", "area": "\u7891\u6797\u533a", "street_id": "68b1c65f902968f8dc1e5243", "telephone": "(029)89569833", "detail": 1, "uid": "68b1c65f902968f8dc1e5243", "detail_info": {"tag": "\u7f8e\u98df;\u4e2d\u9910\u5385", "navi_location": {"lng": 108.93009660338, "lat": 34.252169710338}, "type": "cater", "detail_url": "http://api.map.baidu.com/place/detail?uid=68b1c65f902968f8dc1e5243&output=html&source=placeapi_v2", "price": "42.0", "overall_rating": "4.4", "comment_num": "200", "di_review_keyword": [], "children": []}}, {"name": "\u6e05\u771f\u53e4\u57ce\u597d\u4e00\u9505\u7f8a\u874e\u5b50\u706b\u9505", "location": {"lat": 34.263034, "lng": 108.945723}, "address": "\u5357\u5e7f\u6d4e\u885779\u53f7(\u4e94\u5473\u5341\u5b57\u5411\u531750\u7c73)", "province": "\u9655\u897f\u7701", "city": "\u897f\u5b89\u5e02", "area": "\u7891\u6797\u533a", "street_id": "e08c0e4963d9a9c3354aaee0", "telephone": "(029)88444255", "detail": 1, "uid": "e08c0e4963d9a9c3354aaee0", "detail_info": {"tag": "\u7f8e\u98df;\u4e2d\u9910\u5385", "type": "cater", "detail_url": "http://api.map.baidu.com/place/detail?uid=e08c0e4963d9a9c3354aaee0&output=html&source=placeapi_v2", "price": "67.0", "overall_rating": "4.6", "comment_num": "174", "di_review_keyword": [], "children": []}}, {"name": "\u5fb7\u6cf0\u697c", "location": {"lat": 34.276224, "lng": 108.943809}, "address": "\u9655\u897f\u7701\u897f\u5b89\u5e02\u83b2\u6e56\u533a\u83b2\u6e56\u8def\u4e2d\u6bb5107\u53f7(\u8fd1\u7ea2\u6e56\u8857\u7ad9)\u6559\u80b2\u5bbe\u99862\u697c", "province": "\u9655\u897f\u7701", "city": "\u897f\u5b89\u5e02", "area": "\u83b2\u6e56\u533a", "street_id": "435d7aea315462485abbbcf9", "telephone": "(029)63372221", "detail": 1, "uid": "435d7aea315462485abbbcf9", "detail_info": {"tag": "\u7f8e\u98df;\u4e2d\u9910\u5385", "navi_location": {"lng": 108.94378004116, "lat": 34.276042390848}, "type": "cater", "detail_url": "http://api.map.baidu.com/place/detail?uid=435d7aea315462485abbbcf9&output=html&source=placeapi_v2", "price": "55.0", "overall_rating": "3.6", "comment_num": "200", "di_review_keyword": [], "children": []}}, {"name": "\u585e\u62c9\u7ef4(\u9ad8\u65b0\u5e97)", "location": {"lat": 34.242038, "lng": 108.914702}, "address": "\u9655\u897f\u7701\u897f\u5b89\u5e02\u9ad8\u65b0\u533a\u9ad8\u65b0\u8def25\u53f7\u7cdc\u5bb6\u6865\u5c0f\u533a\u5317\u4fa7", "province": "\u9655\u897f\u7701", "city": "\u897f\u5b89\u5e02", "area": "\u96c1\u5854\u533a", "street_id": "fa835ce20a7fcdafe912e4fa", "telephone": "(029)88789718", "detail": 1, "uid": "fa835ce20a7fcdafe912e4fa", "detail_info": {"tag": "\u7f8e\u98df;\u4e2d\u9910\u5385", "type": "cater", "detail_url": "http://api.map.baidu.com/place/detail?uid=fa835ce20a7fcdafe912e4fa&output=html&source=placeapi_v2", "price": "27.0", "overall_rating": "4.2", "groupon_num": "1", "comment_num": "200", "di_review_keyword": [], "children": []}}, {"name": "\u6625\u6765\u548c(\u6c49\u57ce\u5357\u8def\u5e97)", "location": {"lat": 34.274404, "lng": 108.878198}, "address": "\u6c49\u57ce\u5357\u8def304\u53f7\uff08\u6c49\u57ce\u8def\u4e0e\u5927\u5e86\u8def\u4ea4\u53c9\u53e3\u5357\u884c50\u7c73\u8def\u897f\u8fd1611\u8def\u8d77\u70b9\uff09", "province": "\u9655\u897f\u7701", "city": "\u897f\u5b89\u5e02", "area": "\u83b2\u6e56\u533a", "street_id": "fd007c5e64071f75a9f729ec", "telephone": "(029)84618488", "detail": 1, "uid": "fd007c5e64071f75a9f729ec", "detail_info": {"tag": "\u7f8e\u98df;\u4e2d\u9910\u5385", "navi_location": {"lng": 108.87848352966, "lat": 34.274354658147}, "type": "cater", "detail_url": "http://api.map.baidu.com/place/detail?uid=fd007c5e64071f75a9f729ec&output=html&source=placeapi_v2", "price": "44.0", "overall_rating": "4.4", "comment_num": "199", "di_review_keyword": [], "children": []}}, {"name": "\u9ebb\u8fa3\u5c0f\u4e09", "location": {"lat": 34.258158, "lng": 108.944946}, "address": "\u7891\u6797\u533a\u6731\u96c0\u95e8\u91cc\u4e0a\u5c9b\u5496\u5561\u65c1\u8fb9\u897f\u987a\u57ce\u5df7\u518520\u7c73\u7b2c\u4e00\u6237\u4e09\u697c(\u8fd1\u6731\u96c0\u95e8)", "province": "\u9655\u897f\u7701", "city": "\u897f\u5b89\u5e02", "area": "\u7891\u6797\u533a", "street_id": "2594fa255986cbe113293537", "telephone": "(029)81545460,13709223720", "detail": 1, "uid": "2594fa255986cbe113293537", "detail_info": {"tag": "\u7f8e\u98df;\u4e2d\u9910\u5385", "navi_location": {"lng": 108.9449446161, "lat": 34.258141876007}, "type": "cater", "detail_url": "http://api.map.baidu.com/place/detail?uid=2594fa255986cbe113293537&output=html&source=placeapi_v2", "price": "85.0", "overall_rating": "4.3", "comment_num": "200", "di_review_keyword": [], "children": []}}, {"name": "\u82cf\u6d59\u4f1a\u9986(\u5927\u5e86\u8def\u5e97)", "location": {"lat": 34.274552, "lng": 108.897138}, "address": "\u5927\u5e86\u8def136\u53f7\u897f\u4e8c\u73af\u7acb\u4ea4\u897f\u5357\u89d2(\u5927\u571f\u95e8\u675156\u53f7)", "province": "\u9655\u897f\u7701", "city": "\u897f\u5b89\u5e02", "area": "\u83b2\u6e56\u533a", "street_id": "aa40108b660b2e0cc5effbdb", "telephone": "(029)84201111,(029)84202222", "detail": 1, "uid": "aa40108b660b2e0cc5effbdb", "detail_info": {"tag": "\u7f8e\u98df;\u4e2d\u9910\u5385", "navi_location": {"lng": 108.89712030846, "lat": 34.274825709004}, "type": "cater", "detail_url": "http://api.map.baidu.com/place/detail?uid=aa40108b660b2e0cc5effbdb&output=html&source=placeapi_v2", "price": "101.0", "overall_rating": "4.3", "comment_num": "200", "di_review_keyword": [], "children": []}}, {"name": "\u5317\u4eac\u8001\u94fa(\u9ad8\u65b0\u5e97)", "location": {"lat": 34.244742, "lng": 108.888691}, "address": "\u9655\u897f\u7701\u897f\u5b89\u5e02\u96c1\u5854\u533a\u56e2\u7ed3\u5357\u8def239\u53f7(\u7d2b\u8587\u81fb\u54c1\u4e1c\u95e8\u5bf9\u9762)", "province": "\u9655\u897f\u7701", "city": "\u897f\u5b89\u5e02", "area": "\u96c1\u5854\u533a", "street_id": "680fb7036b2d02858ab988b6", "telephone": "(029)68810888", "detail": 1, "uid": "680fb7036b2d02858ab988b6", "detail_info": {"tag": "\u7f8e\u98df;\u4e2d\u9910\u5385", "navi_location": {"lng": 108.88850709921, "lat": 34.244748360608}, "type": "cater", "detail_url": "http://api.map.baidu.com/place/detail?uid=680fb7036b2d02858ab988b6&output=html&source=placeapi_v2", "price": "77.0", "overall_rating": "4.4", "comment_num": "200", "di_review_keyword": [], "children": []}}, {"name": "\u7eb3\u5bb6\u697c(\u4e60\u6b66\u56ed\u5e97)", "location": {"lat": 34.279326, "lng": 108.937332}, "address": "\u897f\u5b89\u5e02\u83b2\u6e56\u533a\u4e60\u6b66\u56ed8", "province": "\u9655\u897f\u7701", "city": "\u897f\u5b89\u5e02", "area": "\u83b2\u6e56\u533a", "street_id": "17b4802f7c1c5ae9081cc79c", "telephone": "(029)87332365", "detail": 1, "uid": "17b4802f7c1c5ae9081cc79c", "detail_info": {"tag": "\u7f8e\u98df;\u4e2d\u9910\u5385", "type": "cater", "detail_url": "http://api.map.baidu.com/place/detail?uid=17b4802f7c1c5ae9081cc79c&output=html&source=placeapi_v2", "price": "48.0", "overall_rating": "4.6", "groupon_num": "1", "comment_num": "170", "di_review_keyword": [], "children": []}}, {"name": "\u6625\u6765\u548c(\u56e2\u7ed3\u5357\u8def\u5e97)", "location": {"lat": 34.265374, "lng": 108.887476}, "address": "\u4e30\u9550\u897f\u8def55\u53f7(\u56e2\u7ed3\u5357\u8def\u4e0e\u4e30\u9550\u897f\u8def\u4ea4\u53c9\u53e3\u897f\u5317\u89d2)", "province": "\u9655\u897f\u7701", "city": "\u897f\u5b89\u5e02", "area": "\u83b2\u6e56\u533a", "street_id": "923ffd00515273aed82f28ec", "telephone": "(029)84296083", "detail": 1, "uid": "923ffd00515273aed82f28ec", "detail_info": {"tag": "\u7f8e\u98df;\u4e2d\u9910\u5385", "navi_location": {"lng": 108.88758135496, "lat": 34.265269128849}, "type": "cater", "detail_url": "http://api.map.baidu.com/place/detail?uid=923ffd00515273aed82f28ec&output=html&source=placeapi_v2", "price": "45.0", "overall_rating": "4.0", "comment_num": "175", "di_review_keyword": [], "children": []}}, {"name": "\u5c0f\u767d\u9ca8(\u897f\u5b89\u9ad8\u65b0\u5e97)", "location": {"lat": 34.252701, "lng": 108.897316}, "address": "\u9ad8\u65b0\u533a\u5510\u5ef6\u8def\u53171\u53f7\u83b1\u5b89\u9038\u5883\u53173\u697c", "province": "\u9655\u897f\u7701", "city": "\u897f\u5b89\u5e02", "area": "\u96c1\u5854\u533a", "street_id": "13961893e9bade9aa5c756ab", "telephone": "(029)88444777", "detail": 1, "uid": "13961893e9bade9aa5c756ab", "detail_info": {"tag": "\u7f8e\u98df;\u4e2d\u9910\u5385", "navi_location": {"lng": 108.89713227838, "lat": 34.252839449198}, "type": "cater", "detail_url": "http://api.map.baidu.com/place/detail?uid=13961893e9bade9aa5c756ab&output=html&source=placeapi_v2", "price": "50.0", "overall_rating": "4.3", "comment_num": "104", "di_review_keyword": [], "children": []}}, {"name": "\u9a6c\u6d2a\u5c0f\u7092\u6ce1\u998d\u9986", "location": {"lat": 34.272994, "lng": 108.947975}, "address": "\u897f\u5b89\u83b2\u6e56\u533a\u7ea2\u57e0\u885746\u53f7(\u8fd1\u83b2\u6e56\u533a\u533a\u59d4)", "province": "\u9655\u897f\u7701", "city": "\u897f\u5b89\u5e02", "area": "\u83b2\u6e56\u533a", "street_id": "4ce10ce67fa889b8441a3277", "telephone": "13359185583", "detail": 1, "uid": "4ce10ce67fa889b8441a3277", "detail_info": {"tag": "\u7f8e\u98df;\u4e2d\u9910\u5385", "navi_location": {"lng": 108.94797479731, "lat": 34.2731415707}, "type": "cater", "detail_url": "http://api.map.baidu.com/place/detail?uid=4ce10ce67fa889b8441a3277&output=html&source=placeapi_v2", "price": "27.0", "overall_rating": "4.5", "comment_num": "200", "di_review_keyword": [], "children": []}}, {"name": "\u5f90\u8bb0\u6d77\u9c9c(\u660e\u5fb7\u95e8\u5e97)", "location": {"lat": 34.212633, "lng": 108.946236}, "address": "\u96c1\u5854\u533a\u6731\u96c0\u5927\u885719\u53f7\u5357\u65b9\u661f\u5ea7D\u5ea7(\u6768\u5bb6\u6751\u897f\u53e3\uff0c\u5317\u4fa7)", "province": "\u9655\u897f\u7701", "city": "\u897f\u5b89\u5e02", "area": "\u96c1\u5854\u533a", "street_id": "a80278bf49f2685478f796cf", "telephone": "(029)85225599", "detail": 1, "uid": "a80278bf49f2685478f796cf", "detail_info": {"tag": "\u7f8e\u98df;\u4e2d\u9910\u5385", "navi_location": {"lng": 108.94571836347, "lat": 34.212466303942}, "type": "cater", "detail_url": "http://api.map.baidu.com/place/detail?uid=a80278bf49f2685478f796cf&output=html&source=placeapi_v2", "price": "238.0", "overall_rating": "4.3", "comment_num": "142", "di_review_keyword": [], "children": []}}, {"name": "\u7eb8\u5305\u9c7c", "location": {"lat": 34.213957, "lng": 108.922612}, "address": "\u7535\u5b50\u4e09\u8def\u4e2d\u6bb5106\u53f7\uff08\u897f\u4eac\u793e\u533a\u4e1c\u533a\u5bf9\u9762\uff09", "province": "\u9655\u897f\u7701", "city": "\u897f\u5b89\u5e02", "area": "\u96c1\u5854\u533a", "street_id": "fb22e98cbb858b60fbf0cb41", "telephone": "18066611103", "detail": 1, "uid": "fb22e98cbb858b60fbf0cb41", "detail_info": {"tag": "\u7f8e\u98df;\u4e2d\u9910\u5385", "type": "cater", "detail_url": "http://api.map.baidu.com/place/detail?uid=fb22e98cbb858b60fbf0cb41&output=html&source=placeapi_v2", "price": "42.0", "overall_rating": "4.2", "comment_num": "200", "di_review_keyword": [], "children": []}}, {"name": "\u9ebb\u8fa3\u7a7a\u95f4(\u897f\u7a0d\u95e8\u5e97)", "location": {"lat": 34.264536, "lng": 108.915848}, "address": "\u897f\u7a0d\u95e8\u5341\u5b57\u897f\u5357\u89d2\u67e0\u6aac\u5bab\u820d2\u5c42(\u5f00\u5143\u5546\u57ce\u897f\u65fa\u5e97)", "province": "\u9655\u897f\u7701", "city": "\u897f\u5b89\u5e02", "area": "\u83b2\u6e56\u533a", "street_id": "0d32c15976e46aa04e6d46fd", "telephone": "(029)88777680", "detail": 1, "uid": "0d32c15976e46aa04e6d46fd", "detail_info": {"tag": "\u7f8e\u98df;\u4e2d\u9910\u5385", "navi_location": {"lng": 108.91624628379, "lat": 34.264679904597}, "type": "cater", "detail_url": "http://api.map.baidu.com/place/detail?uid=0d32c15976e46aa04e6d46fd&output=html&source=placeapi_v2", "price": "104.0", "overall_rating": "4.6", "comment_num": "200", "di_review_keyword": [], "children": []}}, {"name": "\u8c6a\u5ba2\u6765(\u51ef\u5fb7\u5e7f\u573a\u5e97)", "location": {"lat": 34.23529, "lng": 108.94245}, "address": "\u897f\u5b89\u5e02\u96c1\u5854\u533a\u4e8c\u73af\u5357\u8def\u897f\u6bb564\u53f7\u51ef\u5fb7\u5e7f\u573a\u65b0\u5730\u57ceF3", "province": "\u9655\u897f\u7701", "city": "\u897f\u5b89\u5e02", "area": "\u96c1\u5854\u533a", "street_id": "a817bcb8ee1a5548081cc775", "telephone": "(029)88665141", "detail": 1, "uid": "a817bcb8ee1a5548081cc775", "detail_info": {"tag": "\u7f8e\u98df;\u5916\u56fd\u9910\u5385", "navi_location": {"lng": 108.94284448112, "lat": 34.235823853554}, "indoor_floor": "F3", "type": "cater", "detail_url": "http://api.map.baidu.com/place/detail?uid=a817bcb8ee1a5548081cc775&output=html&source=placeapi_v2", "price": "64.0", "overall_rating": "4.5", "comment_num": "200", "di_review_keyword": [], "children": []}}, {"name": "\u5c0f\u516d\u6c64\u5305(\u4e2d\u8d38\u5e97)", "location": {"lat": 34.247665, "lng": 108.951174}, "address": "\u4e2d\u8d38\u5e7f\u573a6\u53f7\u697c1\u5c42", "province": "\u9655\u897f\u7701", "city": "\u897f\u5b89\u5e02", "area": "\u7891\u6797\u533a", "street_id": "4a991b71ace3fe9cacee7a9f", "telephone": "(029)63350064", "detail": 1, "uid": "4a991b71ace3fe9cacee7a9f", "detail_info": {"tag": "\u7f8e\u98df;\u5c0f\u5403\u5feb\u9910\u5e97", "navi_location": {"lng": 108.95127121562, "lat": 34.247583128976}, "type": "cater", "detail_url": "http://api.map.baidu.com/place/detail?uid=4a991b71ace3fe9cacee7a9f&output=html&source=placeapi_v2", "price": "41.0", "overall_rating": "4.5", "comment_num": "200", "di_review_keyword": [], "children": []}}, {"name": "\u5317\u4eac\u4e9a\u8fb0\u6dae\u70e4(\u7535\u5b50\u6b63\u8857\u5e97)", "location": {"lat": 34.212911, "lng": 108.925844}, "address": "\u7535\u5b50\u6b63\u8857\u5317\u5c71\u95e8\u51ef\u60a6\u534e\u5ead4\u53f7\u5546\u94fa\u4e8c\u5c42", "province": "\u9655\u897f\u7701", "city": "\u897f\u5b89\u5e02", "area": "\u96c1\u5854\u533a", "street_id": "cc9a7914d0a7387bd12dd65b", "telephone": "(029)88863639", "detail": 1, "uid": "cc9a7914d0a7387bd12dd65b", "detail_info": {"tag": "\u7f8e\u98df;\u4e2d\u9910\u5385", "type": "cater", "detail_url": "http://api.map.baidu.com/place/detail?uid=cc9a7914d0a7387bd12dd65b&output=html&source=placeapi_v2", "price": "39.0", "overall_rating": "4.3", "comment_num": "200", "di_review_keyword": [], "children": []}}, {"name": "\u5927\u81ea\u5728\u706b\u9505(\u4e30\u767b\u8def\u5e97)", "location": {"lat": 34.253151, "lng": 108.90107}, "address": "\u897f\u5b89\u5e02\u83b2\u6e56\u533a\u4e30\u767b\u5357\u8def2\u53f7\u4f1f\u57fa\u5927\u53a61\u5c42", "province": "\u9655\u897f\u7701", "city": "\u897f\u5b89\u5e02", "area": "\u83b2\u6e56\u533a", "street_id": "5e9eedf9f0e4bb433a13fd93", "telephone": "(029)84222888", "detail": 1, "uid": "5e9eedf9f0e4bb433a13fd93", "detail_info": {"tag": "\u7f8e\u98df;\u4e2d\u9910\u5385", "navi_location": {"lng": 108.901300442, "lat": 34.253150555909}, "type": "cater", "detail_url": "http://api.map.baidu.com/place/detail?uid=5e9eedf9f0e4bb433a13fd93&output=html&source=placeapi_v2", "price": "93.0", "overall_rating": "4.1", "comment_num": "200", "di_review_keyword": [], "children": []}}, {"name": "\u5fc5\u80dc\u5ba2(\u9ad8\u65b0\u9910\u5385)", "location": {"lat": 34.237672, "lng": 108.9105}, "address": "\u897f\u5b89\u5e02\u96c1\u5854\u533a\u79d1\u6280\u8def33\u53f7\u4e16\u7eaa\u91d1\u82b1F1", "province": "\u9655\u897f\u7701", "city": "\u897f\u5b89\u5e02", "area": "\u96c1\u5854\u533a", "street_id": "befdb29277b478f886154199", "telephone": "(029)62961181", "detail": 1, "uid": "befdb29277b478f886154199", "detail_info": {"tag": "\u7f8e\u98df;\u5c0f\u5403\u5feb\u9910\u5e97", "navi_location": {"lng": 108.91021889276, "lat": 34.237239084437}, "indoor_floor": "F1", "type": "cater", "detail_url": "http://api.map.baidu.com/place/detail?uid=befdb29277b478f886154199&output=html&source=placeapi_v2", "price": "66.0", "overall_rating": "4.7", "comment_num": "200", "di_review_keyword": [], "children": []}}, {"name": "\u9876\u9876\u9999(\u6843\u56ed\u5357\u8def\u5e97)", "location": {"lat": 34.253515, "lng": 108.907952}, "address": "\u9655\u897f\u7701\u897f\u5b89\u5e02\u83b2\u6e56\u533a\u6843\u56ed\u5357\u8def19\u53f7\u897f\u6e2f\u56fd\u9645\u82b1\u56ed(\u8fd1\u4e30\u5e86\u516c\u56ed)", "province": "\u9655\u897f\u7701", "city": "\u897f\u5b89\u5e02", "area": "\u83b2\u6e56\u533a", "street_id": "56f2f696bd5171990aa8d465", "telephone": "(029)88890329", "detail": 1, "uid": "56f2f696bd5171990aa8d465", "detail_info": {"tag": "\u7f8e\u98df;\u4e2d\u9910\u5385", "navi_location": {"lng": 108.90779992041, "lat": 34.25347753556}, "type": "cater", "detail_url": "http://api.map.baidu.com/place/detail?uid=56f2f696bd5171990aa8d465&output=html&source=placeapi_v2", "price": "44.0", "overall_rating": "4.3", "comment_num": "146", "di_review_keyword": [], "children": []}}, {"name": "\u805a\u5174\u697c\u6ce1\u998d\u9986(\u6731\u96c0\u5927\u8857\u5e97)", "location": {"lat": 34.218145, "lng": 108.94632}, "address": "\u9752\u677e\u8def41E", "province": "\u9655\u897f\u7701", "city": "\u897f\u5b89\u5e02", "area": "\u96c1\u5854\u533a", "street_id": "29e5ad407ff15d68213bf234", "telephone": "15829614123", "detail": 1, "uid": "29e5ad407ff15d68213bf234", "detail_info": {"tag": "\u7f8e\u98df;\u4e2d\u9910\u5385", "type": "cater", "detail_url": "http://api.map.baidu.com/place/detail?uid=29e5ad407ff15d68213bf234&output=html&source=placeapi_v2", "price": "20.0", "overall_rating": "4.6", "comment_num": "146", "di_review_keyword": [], "children": []}}, {"name": "\u7af9\u56ed\u6751\u706b\u9505(\u7535\u5b50\u57ce\u5e97)", "location": {"lat": 34.210037, "lng": 108.926583}, "address": "\u897f\u5b89\u96c1\u5854\u533a\u7535\u5b50\u6b63\u8857229\u53f7", "province": "\u9655\u897f\u7701", "city": "\u897f\u5b89\u5e02", "area": "\u96c1\u5854\u533a", "street_id": "3f9337d61caee6aaf72310d0", "telephone": "(029)88233300,(029)88218532", "detail": 1, "uid": "3f9337d61caee6aaf72310d0", "detail_info": {"tag": "\u7f8e\u98df;\u4e2d\u9910\u5385", "navi_location": {"lng": 108.92622302378, "lat": 34.210042294015}, "type": "cater", "detail_url": "http://api.map.baidu.com/place/detail?uid=3f9337d61caee6aaf72310d0&output=html&source=placeapi_v2", "price": "75.0", "overall_rating": "4.5", "comment_num": "200", "di_review_keyword": [], "children": []}}, {"name": "\u6597\u725b\u58eb\u725b\u6392\u9986(\u9ad8\u65b0\u5e97)", "location": {"lat": 34.238573, "lng": 108.909798}, "address": "\u897f\u5b89\u5e02\u96c1\u5854\u533a\u79d1\u6280\u8def33\u53f7\u4e16\u7eaa\u91d1\u82b1F3", "province": "\u9655\u897f\u7701", "city": "\u897f\u5b89\u5e02", "area": "\u96c1\u5854\u533a", "street_id": "c879fa019c525a53c909f057", "telephone": "(029)62962626", "detail": 1, "uid": "c879fa019c525a53c909f057", "detail_info": {"tag": "\u7f8e\u98df;\u5916\u56fd\u9910\u5385", "navi_location": {"lng": 108.90984404604, "lat": 34.238916879973}, "indoor_floor": "F3", "type": "cater", "detail_url": "http://api.map.baidu.com/place/detail?uid=c879fa019c525a53c909f057&output=html&source=placeapi_v2", "price": "107.0", "overall_rating": "4.0", "comment_num": "197", "di_review_keyword": [], "children": []}}, {"name": "\u4fcf\u6c5f\u5357(\u897f\u5b89\u6797\u51ef\u5e97)", "location": {"lat": 34.238132, "lng": 108.906743}, "address": "\u9ad8\u65b0\u533a\u79d1\u6280\u8def38\u53f7\u6797\u51ef\u56fd\u9645\u5927\u53a63-5\u697c", "province": "\u9655\u897f\u7701", "city": "\u897f\u5b89\u5e02", "area": "\u96c1\u5854\u533a", "street_id": "3f826ed3994f1c5fd1f49e47", "telephone": "(029)88855757", "detail": 1, "uid": "3f826ed3994f1c5fd1f49e47", "detail_info": {"tag": "\u7f8e\u98df;\u4e2d\u9910\u5385", "navi_location": {"lng": 108.90658949955, "lat": 34.237929212321}, "type": "cater", "detail_url": "http://api.map.baidu.com/place/detail?uid=3f826ed3994f1c5fd1f49e47&output=html&source=placeapi_v2", "price": "142.5", "overall_rating": "4.9", "comment_num": "200", "di_review_keyword": [], "children": []}}, {"name": "\u5c0f\u6768\u70e4\u8089(\u897f\u8377\u5e97)", "location": {"lat": 34.24126, "lng": 108.934459}, "address": "\u9655\u897f\u7701\u897f\u5b89\u5e02\u7891\u6797\u533a\u52b3\u536b\u8def\u897f\u8377\u7f8e\u98df\u5546\u4e1a\u88573-4-5\u53f7\u697c\u4e8c\u5c422004\u53f7\u5546\u94fa", "province": "\u9655\u897f\u7701", "city": "\u897f\u5b89\u5e02", "area": "\u7891\u6797\u533a", "street_id": "37d60a46de0447791f1d11ed", "telephone": "(029)68886035", "detail": 1, "uid": "37d60a46de0447791f1d11ed", "detail_info": {"tag": "\u7f8e\u98df;\u5176\u4ed6", "navi_location": {"lng": 108.93464439539, "lat": 34.241521595394}, "type": "cater", "detail_url": "http://api.map.baidu.com/place/detail?uid=37d60a46de0447791f1d11ed&output=html&source=placeapi_v2", "price": "51.0", "overall_rating": "4.6", "comment_num": "200", "di_review_keyword": [], "children": []}}, {"name": "\u6cb8\u817e\u9c7c\u5e84", "location": {"lat": 34.23891, "lng": 108.879806}, "address": "\u9ad8\u65b0\u533a\u4e08\u516b\u5317\u8def\u548c\u5510\u5174\u8def\u4ea4\u6c47\u5904\u57ce\u5e02\u98ce\u666f\u90fd\u5e02\u5370\u8c6116\u53f7\u697c601\u5ba4", "province": "\u9655\u897f\u7701", "city": "\u897f\u5b89\u5e02", "area": "\u96c1\u5854\u533a", "street_id": "5b99bcbd57b35edc471a326e", "telephone": "(029)89587599", "detail": 1, "uid": "5b99bcbd57b35edc471a326e", "detail_info": {"tag": "\u7f8e\u98df;\u4e2d\u9910\u5385", "navi_location": {"lng": 108.88004866441, "lat": 34.238632267057}, "type": "cater", "detail_url": "http://api.map.baidu.com/place/detail?uid=5b99bcbd57b35edc471a326e&output=html&source=placeapi_v2", "price": "68.0", "overall_rating": "4.0", "comment_num": "103", "di_review_keyword": [], "children": []}}, {"name": "\u514b\u62c9\u62c9(\u9633\u5149\u57ce\u5e97)", "location": {"lat": 34.176947, "lng": 108.875261}, "address": "\u897f\u90e8\u5927\u9053\u4e0e\u535a\u58eb\u8def\u5341\u5b57\u897f\u5357\u89d2\u9633\u5149\u57ce\u4e00\u697c", "province": "\u9655\u897f\u7701", "city": "\u897f\u5b89\u5e02", "area": "\u957f\u5b89\u533a", "street_id": "d68d0392b6792f6f077ce8b0", "telephone": "(029)81025600", "detail": 1, "uid": "d68d0392b6792f6f077ce8b0", "detail_info": {"tag": "\u7f8e\u98df;\u5916\u56fd\u9910\u5385", "type": "cater", "detail_url": "http://api.map.baidu.com/place/detail?uid=d68d0392b6792f6f077ce8b0&output=html&source=placeapi_v2", "price": "79.0", "overall_rating": "4.4", "groupon_num": "2", "comment_num": "123", "di_review_keyword": [], "children": []}}, {"name": "\u5434\u94ed\u706b\u9505(\u79d1\u6280\u8def\u897f\u53e3\u5e97)", "location": {"lat": 34.243575, "lng": 108.880252}, "address": "\u9655\u897f\u7701\u897f\u5b89\u5e02\u96c1\u5854\u533a\u534e\u6da6\u4e07\u5bb6\u79d1\u6280\u8def\u5e973\u5c42", "province": "\u9655\u897f\u7701", "city": "\u897f\u5b89\u5e02", "area": "\u96c1\u5854\u533a", "street_id": "d4a9a038eef4f51fe8e582fb", "telephone": "(029)82225225", "detail": 1, "uid": "d4a9a038eef4f51fe8e582fb", "detail_info": {"tag": "\u7f8e\u98df;\u4e2d\u9910\u5385", "navi_location": {"lng": 108.88064348998, "lat": 34.243534917236}, "type": "cater", "detail_url": "http://api.map.baidu.com/place/detail?uid=d4a9a038eef4f51fe8e582fb&output=html&source=placeapi_v2", "price": "60.0", "overall_rating": "4.4", "comment_num": "200", "di_review_keyword": [], "children": []}}, {"name": "\u4f17\u5bb6\u706f\u706b\u714e\u997c\u5e84(\u79d1\u6280\u8def\u5e97)", "location": {"lat": 34.232657, "lng": 108.917171}, "address": "\u96c1\u5854\u533a\u79d1\u6280\u8def10\u53f7", "province": "\u9655\u897f\u7701", "city": "\u897f\u5b89\u5e02", "area": "\u96c1\u5854\u533a", "street_id": "86955a858b52831ce31103ae", "telephone": "(029)88240699", "detail": 1, "uid": "86955a858b52831ce31103ae", "detail_info": {"tag": "\u7f8e\u98df;\u4e2d\u9910\u5385", "navi_location": {"lng": 108.91709742646, "lat": 34.232770294303}, "type": "cater", "detail_url": "http://api.map.baidu.com/place/detail?uid=86955a858b52831ce31103ae&output=html&source=placeapi_v2", "price": "37.0", "overall_rating": "4.6", "comment_num": "112", "di_review_keyword": [], "children": []}}, {"name": "\u5f64\u5fb7\u83b1\u706b\u9505(\u7acb\u65b0\u5e97)", "location": {"lat": 34.276482, "lng": 108.949088}, "address": "\u897f\u5b89\u5e02\u83b2\u6e56\u533a\u6109\u666f\u534e\u5ead1022\u53f7", "province": "\u9655\u897f\u7701", "city": "\u897f\u5b89\u5e02", "area": "\u83b2\u6e56\u533a", "street_id": "637df60a4c671a6b40afe672", "telephone": "18729084575", "detail": 1, "uid": "637df60a4c671a6b40afe672", "detail_info": {"tag": "\u7f8e\u98df;\u4e2d\u9910\u5385", "navi_location": {"lng": 108.94920454073, "lat": 34.276492022118}, "type": "cater", "detail_url": "http://api.map.baidu.com/place/detail?uid=637df60a4c671a6b40afe672&output=html&source=placeapi_v2", "price": "51.0", "overall_rating": "4.6", "comment_num": "156", "di_review_keyword": [], "children": []}}, {"name": "\u697c\u5170\u53e4\u4e3d(\u9ad8\u65b0\u5e97)", "location": {"lat": 34.243936, "lng": 108.895621}, "address": "\u5510\u5ef6\u8def168\u53f7\u5510\u5ef6\u4e2d\u5fc3\u57ceB1\u5c422\u53f7", "province": "\u9655\u897f\u7701", "city": "\u897f\u5b89\u5e02", "area": "\u96c1\u5854\u533a", "street_id": "80f6eebd0d787c2af4b916d0", "telephone": "(029)88690342", "detail": 1, "uid": "80f6eebd0d787c2af4b916d0", "detail_info": {"tag": "\u7f8e\u98df;\u4e2d\u9910\u5385", "type": "cater", "detail_url": "http://api.map.baidu.com/place/detail?uid=80f6eebd0d787c2af4b916d0&output=html&source=placeapi_v2", "price": "51.5", "overall_rating": "4.2", "comment_num": "200", "di_review_keyword": [], "children": []}}, {"name": "\u5feb\u9890\u574a(\u5927\u5be8\u8def\u5e97)", "location": {"lat": 34.251345, "lng": 108.884118}, "address": "\u897f\u5b89\u5e02\u96c1\u5854\u533a\u5927\u5be8\u8def19\u53f7\u6676\u946b\u5546\u4e1a\u5e7f\u573a4\u5c42", "province": "\u9655\u897f\u7701", "city": "\u897f\u5b89\u5e02", "area": "\u96c1\u5854\u533a", "street_id": "f353957e05e0bf780a5cb378", "telephone": "(029)88510011", "detail": 1, "uid": "f353957e05e0bf780a5cb378", "detail_info": {"tag": "\u7f8e\u98df;\u4e2d\u9910\u5385", "navi_location": {"lng": 108.88379050571, "lat": 34.251141516507}, "type": "cater", "detail_url": "http://api.map.baidu.com/place/detail?uid=f353957e05e0bf780a5cb378&output=html&source=placeapi_v2", "price": "53.0", "overall_rating": "4.5", "comment_num": "197", "di_review_keyword": [], "children": []}}, {"name": "\u5317\u4eac\u8001\u94fa\u70e4\u9e2d(\u9526\u94fa\u5e97)", "location": {"lat": 34.228502, "lng": 108.945824}, "address": "\u96c1\u5854\u533a\u6731\u96c0\u5927\u8857399\u53f7\uff08\u5b50\u5348\u8def\u5341\u5b57\u4e1c\u5357\u4fa7\uff09", "province": "\u9655\u897f\u7701", "city": "\u897f\u5b89\u5e02", "area": "\u96c1\u5854\u533a", "street_id": "7388dffd41f47af2d3ff23d0", "telephone": "(029)62212888", "detail": 1, "uid": "7388dffd41f47af2d3ff23d0", "detail_info": {"tag": "\u7f8e\u98df;\u4e2d\u9910\u5385", "navi_location": {"lng": 108.94566004906, "lat": 34.228497815283}, "type": "cater", "detail_url": "http://api.map.baidu.com/place/detail?uid=7388dffd41f47af2d3ff23d0&output=html&source=placeapi_v2", "price": "87.0", "overall_rating": "4.3", "comment_num": "200", "di_review_keyword": [], "children": []}}, {"name": "\u798f\u8302\u6e90\u9655\u5317\u94c1\u9505\u7f8a\u8089(\u9ad8\u65b0\u5e97)", "location": {"lat": 34.223287, "lng": 108.902918}, "address": "\u9ad8\u65b0\u8def108\u53f7\u67ab\u6797\u7eff\u6d32\u5c0f\u533a\u5317\u95e8A9\u516c\u9986\u5546\u4e1a2\u5c42", "province": "\u9655\u897f\u7701", "city": "\u897f\u5b89\u5e02", "area": "\u96c1\u5854\u533a", "street_id": "465878f89340cc6471455b82", "telephone": "(029)89199898,18710313355", "detail": 1, "uid": "465878f89340cc6471455b82", "detail_info": {"tag": "\u7f8e\u98df;\u4e2d\u9910\u5385", "type": "cater", "detail_url": "http://api.map.baidu.com/place/detail?uid=465878f89340cc6471455b82&output=html&source=placeapi_v2", "price": "100.0", "overall_rating": "4.1", "comment_num": "200", "di_review_keyword": [], "children": []}}, {"name": "\u5c71\u897f\u4f1a\u9986(\u9ad8\u65b0\u4e8c\u8def)", "location": {"lat": 34.24579, "lng": 108.910441}, "address": "\u9ad8\u65b0\u4e8c\u8def2\u53f7\u5c71\u897f\u8bc1\u5238\u5927\u53a61\u5c42", "province": "\u9655\u897f\u7701", "city": "\u897f\u5b89\u5e02", "area": "\u96c1\u5854\u533a", "street_id": "3dde5c16e4c9c21e2b201aae", "telephone": "(029)62338888,18602957888", "detail": 1, "uid": "3dde5c16e4c9c21e2b201aae", "detail_info": {"tag": "\u7f8e\u98df;\u4e2d\u9910\u5385", "navi_location": {"lng": 108.91076178729, "lat": 34.245643612388}, "type": "cater", "detail_url": "http://api.map.baidu.com/place/detail?uid=3dde5c16e4c9c21e2b201aae&output=html&source=placeapi_v2", "price": "50.0", "overall_rating": "4.1", "comment_num": "96", "di_review_keyword": [], "children": []}}, {"name": "\u738b\u5e9c\u81fb\u54c1\u706b\u9505(\u4e08\u516b\u4e1c\u8def\u5e97)", "location": {"lat": 34.202124, "lng": 108.934457}, "address": "\u96c1\u5854\u533a\u4e08\u516b\u4e1c\u8def8\u53f7\uff0c\u4e08\u516b\u4e1c\u8def\u4e0e\u4e1c\u4eea\u8def\u5341\u5b57\u5357\u8d70200\u7c73\u8def\u897f\uff08\u901a\u4fe1\u5b66\u9662\u798f\u5229\u533a\uff09", "province": "\u9655\u897f\u7701", "city": "\u897f\u5b89\u5e02", "area": "\u96c1\u5854\u533a", "street_id": "a5097bfaa77cd47af03cba78", "telephone": "(029)68953333", "detail": 1, "uid": "a5097bfaa77cd47af03cba78", "detail_info": {"tag": "\u7f8e\u98df;\u4e2d\u9910\u5385", "navi_location": {"lng": 108.93463721614, "lat": 34.202130915022}, "type": "cater", "detail_url": "http://api.map.baidu.com/place/detail?uid=a5097bfaa77cd47af03cba78&output=html&source=placeapi_v2", "price": "67.0", "overall_rating": "4.5", "comment_num": "200", "di_review_keyword": [], "children": []}}, {"name": "\u86d0\u86d0\u706b\u9505(\u5409\u7965\u8def)", "location": {"lat": 34.229, "lng": 108.930561}, "address": "\u897f\u5b89\u5e02\u96c1\u5854\u533a\u5409\u7965\u8def127", "province": "\u9655\u897f\u7701", "city": "\u897f\u5b89\u5e02", "area": "\u96c1\u5854\u533a", "street_id": "0a15c7ecdfd890e5ed74f8c5", "telephone": "(029)88210218", "detail": 1, "uid": "0a15c7ecdfd890e5ed74f8c5", "detail_info": {"tag": "\u7f8e\u98df;\u4e2d\u9910\u5385", "navi_location": {"lng": 108.93053462433, "lat": 34.228927412284}, "type": "cater", "detail_url": "http://api.map.baidu.com/place/detail?uid=0a15c7ecdfd890e5ed74f8c5&output=html&source=placeapi_v2", "price": "71.0", "overall_rating": "4.7", "comment_num": "200", "di_review_keyword": [], "children": []}}, {"name": "\u4e0a\u6d77\u4eba\u5bb6(\u542b\u5149\u8def\u5e97)", "location": {"lat": 34.255157, "lng": 108.93846}, "address": "\u9655\u897f\u7701\u897f\u5b89\u5e02\u57ce\u5357\u542b\u5149\u5317\u8def160\u53f7\uff08\u542b\u5149\u95e8\u5916\u5411\u5357100\u7c73\uff09", "province": "\u9655\u897f\u7701", "city": "\u897f\u5b89\u5e02", "area": "\u7891\u6797\u533a", "street_id": "dd8fd658446731afc0f1cf81", "telephone": "(029)85227777,(029)85226777", "detail": 1, "uid": "dd8fd658446731afc0f1cf81", "detail_info": {"tag": "\u7f8e\u98df;\u4e2d\u9910\u5385", "navi_location": {"lng": 108.9385900128, "lat": 34.255219958947}, "type": "cater", "detail_url": "http://api.map.baidu.com/place/detail?uid=dd8fd658446731afc0f1cf81&output=html&source=placeapi_v2", "price": "108.0", "overall_rating": "4.4", "comment_num": "137", "di_review_keyword": [], "children": []}}, {"name": "\u80e1\u6768\u6797\u9910\u5385", "location": {"lat": 34.238007, "lng": 108.917161}, "address": "\u5149\u534e\u8def72\u53f7\uff08\u8fd1\u9ad8\u65b0\u8def\uff0c\u5bfc\u822a\u533b\u9662\u65c1\uff09", "province": "\u9655\u897f\u7701", "city": "\u897f\u5b89\u5e02", "area": "\u96c1\u5854\u533a", "street_id": "5211d2194cc703417dc876dd", "telephone": "(029)88243402", "detail": 1, "uid": "5211d2194cc703417dc876dd", "detail_info": {"tag": "\u7f8e\u98df;\u4e2d\u9910\u5385", "navi_location": {"lng": 108.91729730123, "lat": 34.238048587511}, "type": "cater", "detail_url": "http://api.map.baidu.com/place/detail?uid=5211d2194cc703417dc876dd&output=html&source=placeapi_v2", "price": "44.5", "overall_rating": "4.2", "comment_num": "200", "di_review_keyword": [], "children": []}}, {"name": "\u9876\u9876\u9999(\u660e\u5fb7\u95e8\u5e97)", "location": {"lat": 34.213788, "lng": 108.945232}, "address": "\u6731\u96c0\u5927\u885760\u53f7\u660e\u5fb7\u95e8\u5929\u4f26\u660e\u73e0\u5927\u53a6\u4e00\u3001\u4e8c\u5c42", "province": "\u9655\u897f\u7701", "city": "\u897f\u5b89\u5e02", "area": "\u96c1\u5854\u533a", "street_id": "beabdbf4588a78987069d37c", "telephone": "4006185880", "detail": 1, "uid": "beabdbf4588a78987069d37c", "detail_info": {"tag": "\u7f8e\u98df;\u4e2d\u9910\u5385", "navi_location": {"lng": 108.94539117724, "lat": 34.213790674164}, "type": "cater", "detail_url": "http://api.map.baidu.com/place/detail?uid=beabdbf4588a78987069d37c&output=html&source=placeapi_v2", "price": "40.0", "overall_rating": "4.4", "comment_num": "200", "di_review_keyword": [], "children": []}}, {"name": "\u84b2\u57ce\u6c34\u76c6\u7f8a\u8089", "location": {"lat": 34.217777, "lng": 108.891283}, "address": "\u79d1\u6280\u516d\u8def\u6570\u5b57\u7a7a\u95f41\u697c10107\u95f4", "province": "\u9655\u897f\u7701", "city": "\u897f\u5b89\u5e02", "area": "\u96c1\u5854\u533a", "street_id": "34b4d68dcd75495adc1e5214", "telephone": "13319251330", "detail": 1, "uid": "34b4d68dcd75495adc1e5214", "detail_info": {"tag": "\u7f8e\u98df;\u4e2d\u9910\u5385", "navi_location": {"lng": 108.89128260363, "lat": 34.21773022592}, "type": "cater", "detail_url": "http://api.map.baidu.com/place/detail?uid=34b4d68dcd75495adc1e5214&output=html&source=placeapi_v2", "price": "25.0", "overall_rating": "4.1", "comment_num": "128", "di_review_keyword": [], "children": []}}, {"name": "\u5bbd\u809a\u8336\u80b4", "location": {"lat": 34.229927, "lng": 108.919572}, "address": "\u897f\u5b89\u5e02\u96c1\u5854\u533a\u878d\u946b\u8def6\u53f73\u5e621\u5355\u514310201\u5ba4", "province": "\u9655\u897f\u7701", "city": "\u897f\u5b89\u5e02", "area": "\u96c1\u5854\u533a", "street_id": "88430f7bd6ddf7b94307c1e2", "telephone": "(029)88601515", "detail": 1, "uid": "88430f7bd6ddf7b94307c1e2", "detail_info": {"tag": "\u7f8e\u98df;\u4e2d\u9910\u5385", "navi_location": {"lng": 108.91977662444, "lat": 34.229826221999}, "type": "cater", "detail_url": "http://api.map.baidu.com/place/detail?uid=88430f7bd6ddf7b94307c1e2&output=html&source=placeapi_v2", "price": "102.0", "overall_rating": "5.0", "comment_num": "200", "di_review_keyword": [], "children": []}}, {"name": "\u5b50\u5348\u8def\u5f20\u8bb0\u8089\u5939\u998d(\u6c38\u677e\u8def\u5e97)", "location": {"lat": 34.22864, "lng": 108.945963}, "address": "\u9655\u897f\u7701\u897f\u5b89\u5e02\u96c1\u5854\u533a\u6731\u96c0\u5927\u8857\u5b50\u5348\u8def\u4ec0\u5b57\u4e1c\u5357\u89d2", "province": "\u9655\u897f\u7701", "city": "\u897f\u5b89\u5e02", "area": "\u96c1\u5854\u533a", "street_id": "101bc61b76dbe1bac42ba1de", "telephone": "(029)85391737", "detail": 1, "uid": "101bc61b76dbe1bac42ba1de", "detail_info": {"tag": "\u7f8e\u98df;\u5c0f\u5403\u5feb\u9910\u5e97", "type": "cater", "detail_url": "http://api.map.baidu.com/place/detail?uid=101bc61b76dbe1bac42ba1de&output=html&source=placeapi_v2", "price": "15.5", "overall_rating": "4.3", "comment_num": "200", "di_review_keyword": [], "children": []}}, {"name": "\u8881\u8bb0\u4e32\u4e32\u9999(\u4e08\u516b\u8def\u5e97)", "location": {"lat": 34.237644, "lng": 108.879626}, "address": "\u9ad8\u65b0\u533a\u4e08\u516b\u5317\u8def\u548c\u5510\u5174\u8def\u4e01\u5b57\u8def\u53e3\u4e1c\u5357\u89d2\uff08\u5229\u541b\u660e\u5929\u4e00\u5c42\u5546\u94fa\uff09", "province": "\u9655\u897f\u7701", "city": "\u897f\u5b89\u5e02", "area": "\u96c1\u5854\u533a", "street_id": "3c34363d5c7a59454afc8d4b", "telephone": "(029)89526678", "detail": 1, "uid": "3c34363d5c7a59454afc8d4b", "detail_info": {"tag": "\u7f8e\u98df;\u4e2d\u9910\u5385", "navi_location": {"lng": 108.87931691822, "lat": 34.237618584667}, "type": "cater", "detail_url": "http://api.map.baidu.com/place/detail?uid=3c34363d5c7a59454afc8d4b&output=html&source=placeapi_v2", "price": "57.0", "overall_rating": "4.4", "comment_num": "200", "di_review_keyword": [], "children": []}}, {"name": "\u8c6a\u4eab\u6765(\u5e7f\u6d4e\u8857\u5e97)", "location": {"lat": 34.262696, "lng": 108.945824}, "address": "\u5357\u5e7f\u6d4e\u885777\u53f7\u5e7f\u6d4e\u5c0f\u533a8\u53f7\u697c1\u697c", "province": "\u9655\u897f\u7701", "city": "\u897f\u5b89\u5e02", "area": "\u7891\u6797\u533a", "street_id": "504d6113c8d001aa46572611", "telephone": "(029)87627389", "detail": 1, "uid": "504d6113c8d001aa46572611", "detail_info": {"tag": "\u7f8e\u98df;\u5916\u56fd\u9910\u5385", "type": "cater", "detail_url": "http://api.map.baidu.com/place/detail?uid=504d6113c8d001aa46572611&output=html&source=placeapi_v2", "price": "56.0", "overall_rating": "4.3", "comment_num": "200", "di_review_keyword": [], "children": []}}, {"name": "\u6c5f\u6d77\u80a5\u725b(\u6843\u56ed\u5357\u8def\u5e97)", "location": {"lat": 34.256876, "lng": 108.907451}, "address": "\u6843\u56ed\u5357\u8def38\u53f7\uff08\u8fd1\u9526\u56ed\u5c0f\u533a\uff09", "province": "\u9655\u897f\u7701", "city": "\u897f\u5b89\u5e02", "area": "\u83b2\u6e56\u533a", "street_id": "e3ac8683227613ba25d2bba5", "telephone": "(029)84316000", "detail": 1, "uid": "e3ac8683227613ba25d2bba5", "detail_info": {"tag": "\u7f8e\u98df;\u4e2d\u9910\u5385", "navi_location": {"lng": 108.90764832687, "lat": 34.256603554678}, "type": "cater", "detail_url": "http://api.map.baidu.com/place/detail?uid=e3ac8683227613ba25d2bba5&output=html&source=placeapi_v2", "price": "53.0", "overall_rating": "4.3", "comment_num": "200", "di_review_keyword": [], "children": []}}, {"name": "\u6881\u8bb0\u83dc\u9986(\u5357\u98ce\u5927\u53a61\u5e97)", "location": {"lat": 34.248147, "lng": 108.878508}, "address": "\u4e08\u516b\u5317\u8def7\u53f7\u5357\u98ce\u5927\u53a61\u5c42", "province": "\u9655\u897f\u7701", "city": "\u897f\u5b89\u5e02", "area": "\u96c1\u5854\u533a", "street_id": "56f2f696bd2a71990aa8d4d0", "detail": 1, "uid": "56f2f696bd2a71990aa8d4d0", "detail_info": {"tag": "\u7f8e\u98df;\u4e2d\u9910\u5385", "navi_location": {"lng": 108.8787088121, "lat": 34.24852554786}, "type": "cater", "detail_url": "http://api.map.baidu.com/place/detail?uid=56f2f696bd2a71990aa8d4d0&output=html&source=placeapi_v2", "price": "42.0", "overall_rating": "4.5", "comment_num": "200", "di_review_keyword": [], "children": []}}, {"name": "\u5927\u9f99\u71da\u706b\u9505(\u9ad8\u65b0\u5e97)", "location": {"lat": 34.241661, "lng": 108.912056}, "address": "\u9ad8\u65b0\u4e00\u8def13\u53f7\u548c\u9890\u9152\u5e971\u5c42", "province": "\u9655\u897f\u7701", "city": "\u897f\u5b89\u5e02", "area": "\u96c1\u5854\u533a", "street_id": "e00133ea512edde6f942b279", "telephone": "(029)84505588", "detail": 1, "uid": "e00133ea512edde6f942b279", "detail_info": {"tag": "\u7f8e\u98df;\u4e2d\u9910\u5385", "navi_location": {"lng": 108.91223085816, "lat": 34.241883424585}, "type": "cater", "detail_url": "http://api.map.baidu.com/place/detail?uid=e00133ea512edde6f942b279&output=html&source=placeapi_v2", "price": "106.0", "overall_rating": "4.4", "groupon_num": "1", "comment_num": "200", "di_review_keyword": [], "children": []}}, {"name": "\u4e09\u59d0\u59b9\u9753\u996dNO.1", "location": {"lat": 34.218001, "lng": 108.931134}, "address": "\u897f\u5b89\u96c1\u5854\u533a\u7535\u5b50\u4e8c\u8def56\u53f7\u56fd\u665f\u5927\u53a61\u697c", "province": "\u9655\u897f\u7701", "city": "\u897f\u5b89\u5e02", "area": "\u96c1\u5854\u533a", "street_id": "2b9dd4bd9ead674843ab9af5", "telephone": "(029)88239195", "detail": 1, "uid": "2b9dd4bd9ead674843ab9af5", "detail_info": {"tag": "\u7f8e\u98df;\u4e2d\u9910\u5385", "navi_location": {"lng": 108.93120051395, "lat": 34.217887388233}, "type": "cater", "detail_url": "http://api.map.baidu.com/place/detail?uid=2b9dd4bd9ead674843ab9af5&output=html&source=placeapi_v2", "price": "30.0", "overall_rating": "4.1", "comment_num": "110", "di_review_keyword": [], "children": []}}, {"name": "\u8c6a\u4eab\u6765(\u897f\u5173\u5e97)", "location": {"lat": 34.264952, "lng": 108.92695}, "address": "\u897f\u5173\u6b63\u885758\u53f7\u82f1\u8fbe\u5927\u53a61\u697c", "province": "\u9655\u897f\u7701", "city": "\u897f\u5b89\u5e02", "area": "\u83b2\u6e56\u533a", "street_id": "3f9337d61fe1e7aaf7231011", "telephone": "(029)88624330", "detail": 1, "uid": "3f9337d61fe1e7aaf7231011", "detail_info": {"tag": "\u7f8e\u98df;\u5916\u56fd\u9910\u5385", "navi_location": {"lng": 108.92690850095, "lat": 34.265051231596}, "type": "cater", "detail_url": "http://api.map.baidu.com/place/detail?uid=3f9337d61fe1e7aaf7231011&output=html&source=placeapi_v2", "price": "53.0", "overall_rating": "4.6", "comment_num": "200", "di_review_keyword": [], "children": []}}, {"name": "\u6f84\u57ce\u6c34\u76c6\u7f8a\u8089(\u5149\u534e\u8def\u5e97)", "location": {"lat": 34.233824, "lng": 108.927871}, "address": "\u5c0f\u5be8\u8def\u8857\u9053\u592a\u767d\u5357\u8def317\u53f7\u4e1c", "province": "\u9655\u897f\u7701", "city": "\u897f\u5b89\u5e02", "area": "\u96c1\u5854\u533a", "street_id": "0aff7bb7353ce7a31ce999b0", "telephone": "15353503170", "detail": 1, "uid": "0aff7bb7353ce7a31ce999b0", "detail_info": {"tag": "\u7f8e\u98df;\u4e2d\u9910\u5385", "navi_location": {"lng": 108.92769161405, "lat": 34.23353990389}, "type": "cater", "detail_url": "http://api.map.baidu.com/place/detail?uid=0aff7bb7353ce7a31ce999b0&output=html&source=placeapi_v2", "price": "40.0", "overall_rating": "4.6", "comment_num": "111", "di_review_keyword": [], "children": []}}, {"name": "\u56db\u5b63\u604b(\u897f\u5e02\u57ce\u5e97)", "location": {"lat": 34.25105, "lng": 108.915931}, "address": "\u9655\u897f\u7701\u897f\u5b89\u5e02\u83b2\u6e56\u533a\u52b3\u52a8\u5357\u8def118\u53f7\u897f\u5e02\u57ce\u8d2d\u7269\u4e2d\u5fc34\u5c42", "province": "\u9655\u897f\u7701", "city": "\u897f\u5b89\u5e02", "area": "\u83b2\u6e56\u533a", "street_id": "eb90e25c31f4df980b1cc7cc", "telephone": "(029)84353388", "detail": 1, "uid": "a4609a6f0526491d16a19000", "detail_info": {"tag": "\u7f8e\u98df;\u4e2d\u9910\u5385", "navi_location": {"lng": 108.91586539057, "lat": 34.250272706862}, "type": "cater", "detail_url": "http://api.map.baidu.com/place/detail?uid=a4609a6f0526491d16a19000&output=html&source=placeapi_v2", "price": "82.0", "overall_rating": "4.0", "comment_num": "200", "di_review_keyword": [], "children": []}}, {"name": "\u767d\u9e7f\u539f\u732a\u8e44\u574a(\u897f\u5357\u57ce\u89d2\u5e97)", "location": {"lat": 34.256354, "lng": 108.9304}, "address": "\u592a\u767d\u5317\u8def279\u53f7", "province": "\u9655\u897f\u7701", "city": "\u897f\u5b89\u5e02", "area": "\u7891\u6797\u533a", "street_id": "606ab0d01b29bf330e3ddadd", "telephone": "(029)68636666", "detail": 1, "uid": "606ab0d01b29bf330e3ddadd", "detail_info": {"tag": "\u7f8e\u98df;\u4e2d\u9910\u5385", "navi_location": {"lng": 108.93042237387, "lat": 34.256502953566}, "type": "cater", "detail_url": "http://api.map.baidu.com/place/detail?uid=606ab0d01b29bf330e3ddadd&output=html&source=placeapi_v2", "price": "39.0", "overall_rating": "3.6", "comment_num": "200", "di_review_keyword": [], "children": []}}, {"name": "\u4e1c\u6ee9\u6c34\u76c6\u7f8a\u8089\u5e84(\u5510\u5174\u8def\u5206\u5e97)", "location": {"lat": 34.238812, "lng": 108.882934}, "address": "\u9ad8\u65b0\u533a\u5510\u5174\u8def13\u53f7\u4e00\u5c42", "province": "\u9655\u897f\u7701", "city": "\u897f\u5b89\u5e02", "area": "\u96c1\u5854\u533a", "street_id": "04bdf4a392783c56354aae2b", "telephone": "18149023040", "detail": 1, "uid": "04bdf4a392783c56354aae2b", "detail_info": {"tag": "\u7f8e\u98df;\u4e2d\u9910\u5385", "navi_location": {"lng": 108.88292932268, "lat": 34.238594439581}, "type": "cater", "detail_url": "http://api.map.baidu.com/place/detail?uid=04bdf4a392783c56354aae2b&output=html&source=placeapi_v2", "price": "39.0", "overall_rating": "4.5", "comment_num": "200", "di_review_keyword": [], "children": []}}, {"name": "\u8363\u8363\u9c7c\u5e84", "location": {"lat": 34.217986, "lng": 108.930557}, "address": "\u7535\u5b50\u4e8c\u8def56\u53f7\u56fd\u665f\u5927\u53a61\u5c42", "province": "\u9655\u897f\u7701", "city": "\u897f\u5b89\u5e02", "area": "\u96c1\u5854\u533a", "street_id": "07f3c8b56669727a6240a976", "telephone": "(029)88276022", "detail": 1, "uid": "07f3c8b56669727a6240a976", "detail_info": {"tag": "\u7f8e\u98df;\u4e2d\u9910\u5385", "type": "cater", "detail_url": "http://api.map.baidu.com/place/detail?uid=07f3c8b56669727a6240a976&output=html&source=placeapi_v2", "price": "46.5", "overall_rating": "4.3", "comment_num": "200", "di_review_keyword": [], "children": []}}, {"name": "\u5ddd\u897f\u575d\u5b50\u706b\u9505(\u9ad8\u65b0\u5e97)", "location": {"lat": 34.24063, "lng": 108.911054}, "address": "\u9ad8\u65b0\u4e00\u8def17\u53f7", "province": "\u9655\u897f\u7701", "city": "\u897f\u5b89\u5e02", "area": "\u96c1\u5854\u533a", "street_id": "37cc58f6984224aa0c0a70e9", "telephone": "(029)88321777", "detail": 1, "uid": "37cc58f6984224aa0c0a70e9", "detail_info": {"tag": "\u7f8e\u98df;\u4e2d\u9910\u5385", "type": "cater", "detail_url": "http://api.map.baidu.com/place/detail?uid=37cc58f6984224aa0c0a70e9&output=html&source=placeapi_v2", "price": "98.5", "overall_rating": "4.8", "comment_num": "200", "di_review_keyword": [], "children": []}}, {"name": "\u82b1\u7530\u716e(\u897f\u5e02\u57ce)", "location": {"lat": 34.251176, "lng": 108.914488}, "address": "\u897f\u5b89\u5e02\u83b2\u6e56\u533a\u52b3\u52a8\u5357\u8def118\u53f7\u897f\u5e02\u57ceF3", "province": "\u9655\u897f\u7701", "city": "\u897f\u5b89\u5e02", "area": "\u83b2\u6e56\u533a", "street_id": "a5830414490f6dd96cc02c58", "telephone": "(029)84497035", "detail": 1, "uid": "a5830414490f6dd96cc02c58", "detail_info": {"tag": "\u7f8e\u98df;\u4e2d\u9910\u5385", "navi_location": {"lng": 108.91586539057, "lat": 34.250272706862}, "indoor_floor": "F3", "type": "cater", "detail_url": "http://api.map.baidu.com/place/detail?uid=a5830414490f6dd96cc02c58&output=html&source=placeapi_v2", "price": "63.5", "overall_rating": "4.5", "comment_num": "200", "di_review_keyword": [], "children": []}}, {"name": "\u6e05\u771f\u5c1a\u54c1\u65cb\u8f6c\u706b\u9505(\u5927\u76ae\u9662\u5e97)", "location": {"lat": 34.270544, "lng": 108.947458}, "address": "\u9655\u897f\u7701\u897f\u5b89\u5e02\u83b2\u6e56\u533a\u5927\u76ae\u966264\u53f7", "province": "\u9655\u897f\u7701", "city": "\u897f\u5b89\u5e02", "area": "\u83b2\u6e56\u533a", "street_id": "08e434c5a9911f6ed5b74ef3", "telephone": "(029)87332209", "detail": 1, "uid": "08e434c5a9911f6ed5b74ef3", "detail_info": {"tag": "\u7f8e\u98df;\u4e2d\u9910\u5385", "type": "cater", "detail_url": "http://api.map.baidu.com/place/detail?uid=08e434c5a9911f6ed5b74ef3&output=html&source=placeapi_v2", "price": "32.0", "overall_rating": "4.9", "comment_num": "200", "di_review_keyword": [], "children": []}}, {"name": "\u514b\u62c9\u62c9(\u6c49\u57ce\u5e97)", "location": {"lat": 34.267283, "lng": 108.878007}, "address": "\u897f\u5b89\u5e02\u83b2\u6e56\u533a\u6c49\u57ce\u5357\u8def100\u53f7\u534e\u4e1c\u00b7\u4e07\u9526\u57ce\u8d2d\u7269\u4e2d\u5fc3F1", "province": "\u9655\u897f\u7701", "city": "\u897f\u5b89\u5e02", "area": "\u83b2\u6e56\u533a", "street_id": "92a67f4e54c7fccd71455bfb", "telephone": "(029)88777658", "detail": 1, "uid": "92a67f4e54c7fccd71455bfb", "detail_info": {"tag": "\u7f8e\u98df;\u5916\u56fd\u9910\u5385", "navi_location": {"lng": 108.87846606749, "lat": 34.267415166346}, "indoor_floor": "F1", "type": "cater", "detail_url": "http://api.map.baidu.com/place/detail?uid=92a67f4e54c7fccd71455bfb&output=html&source=placeapi_v2", "price": "79.0", "overall_rating": "4.2", "groupon_num": "2", "comment_num": "200", "di_review_keyword": [], "children": []}}, {"name": "\u4eac\u987a\u7965(\u5e7f\u6d4e\u8857\u5e97)", "location": {"lat": 34.259018, "lng": 108.945261}, "address": "\u6731\u96c0\u95e8\u91cc\u5357\u5e7f\u6d4e\u885710\u53f7", "province": "\u9655\u897f\u7701", "city": "\u897f\u5b89\u5e02", "area": "\u7891\u6797\u533a", "street_id": "1bf85b25c42d4dbda1a9344d", "telephone": "(029)87626018", "detail": 1, "uid": "1bf85b25c42d4dbda1a9344d", "detail_info": {"tag": "\u7f8e\u98df;\u4e2d\u9910\u5385", "navi_location": {"lng": 108.94541360613, "lat": 34.258940897201}, "type": "cater", "detail_url": "http://api.map.baidu.com/place/detail?uid=1bf85b25c42d4dbda1a9344d&output=html&source=placeapi_v2", "price": "80.0", "overall_rating": "4.5", "comment_num": "109", "di_review_keyword": [], "children": []}}, {"name": "\u8001\u5317\u4eac\u94dc\u9505\u6dae\u8089", "location": {"lat": 34.243006, "lng": 108.875863}, "address": "\u79d1\u6280\u8def\u897f\u53e3\u84dd\u6e56\u6811\u5546\u8857A\u533a\u95e8\u53e3(\u8fd1\u5bcc\u9c7c\u8def)", "province": "\u9655\u897f\u7701", "city": "\u897f\u5b89\u5e02", "area": "\u96c1\u5854\u533a", "telephone": "(029)88693858", "detail": 1, "uid": "14024dd0982fb969a80dd890", "detail_info": {"tag": "\u7f8e\u98df;\u4e2d\u9910\u5385", "type": "cater", "detail_url": "http://api.map.baidu.com/place/detail?uid=14024dd0982fb969a80dd890&output=html&source=placeapi_v2", "price": "80.0", "overall_rating": "4.5", "comment_num": "104", "di_review_keyword": [], "children": []}}, {"name": "\u4eac\u4fe1\u5fb7\u5317\u4eac\u70e4\u9e2d(\u4e1c\u4eea\u8def\u5e97)", "location": {"lat": 34.201833, "lng": 108.934496}, "address": "\u4e08\u516b\u4e1c\u8def\u4e0e\u4e1c\u4eea\u8def\u5341\u5b57\u5411\u5357300\u7c73\u8def\u897f(\u8fd1\u4e16\u5bb6\u661f\u57ce)", "province": "\u9655\u897f\u7701", "city": "\u897f\u5b89\u5e02", "area": "\u96c1\u5854\u533a", "street_id": "5de9acf0c86f40871c389455", "telephone": "(029)88866111", "detail": 1, "uid": "75d0881a9cc23b543b04b197", "detail_info": {"tag": "\u7f8e\u98df;\u4e2d\u9910\u5385", "navi_location": {"lng": 108.9346379249, "lat": 34.201837842142}, "type": "cater", "detail_url": "http://api.map.baidu.com/place/detail?uid=75d0881a9cc23b543b04b197&output=html&source=placeapi_v2", "price": "74.0", "overall_rating": "4.5", "comment_num": "200", "di_review_keyword": [], "children": []}}, {"name": "\u5e72\u9505\u5c45(\u7535\u5b50\u6b63\u8857\u542f\u822a\u5e97)", "location": {"lat": 34.211268, "lng": 108.926381}, "address": "\u897f\u5b89\u5e02\u96c1\u5854\u533a\u7535\u5b50\u6b63\u8857249\u53f7", "province": "\u9655\u897f\u7701", "city": "\u897f\u5b89\u5e02", "area": "\u96c1\u5854\u533a", "street_id": "fa835ce20b15caafe812e450", "telephone": "(029)88258986", "detail": 1, "uid": "fa835ce20b15caafe812e450", "detail_info": {"tag": "\u7f8e\u98df;\u4e2d\u9910\u5385", "navi_location": {"lng": 108.92622024352, "lat": 34.211282362091}, "type": "cater", "detail_url": "http://api.map.baidu.com/place/detail?uid=fa835ce20b15caafe812e450&output=html&source=placeapi_v2", "price": "54.0", "overall_rating": "4.2", "comment_num": "200", "di_review_keyword": [], "children": []}}, {"name": "\u4e3d\u90fd\u540d\u4eba\u98df\u5e9c", "location": {"lat": 34.247096, "lng": 108.879152}, "address": "\u4e08\u516b\u5317\u8def\u4e2d\u6bb510\u53f7", "province": "\u9655\u897f\u7701", "city": "\u897f\u5b89\u5e02", "area": "\u96c1\u5854\u533a", "street_id": "7545422659ae0fe2d22dd6f5", "telephone": "(029)88734158", "detail": 1, "uid": "7545422659ae0fe2d22dd6f5", "detail_info": {"tag": "\u7f8e\u98df;\u4e2d\u9910\u5385", "type": "cater", "detail_url": "http://api.map.baidu.com/place/detail?uid=7545422659ae0fe2d22dd6f5&output=html&source=placeapi_v2", "price": "60.0", "overall_rating": "4.4", "comment_num": "200", "di_review_keyword": [], "children": []}}, {"name": "\u6df1\u5df7\u5c0f\u53a8", "location": {"lat": 34.221854, "lng": 108.897696}, "address": "\u5510\u5ef6\u8def\u65fa\u5ea7\u73b0\u4ee3\u57ceB\u5ea72\u697c", "province": "\u9655\u897f\u7701", "city": "\u897f\u5b89\u5e02", "area": "\u96c1\u5854\u533a", "street_id": "c8adcbb3b1bcb372f03cba86", "telephone": "(029)89562809", "detail": 1, "uid": "c8adcbb3b1bcb372f03cba86", "detail_info": {"tag": "\u7f8e\u98df;\u4e2d\u9910\u5385", "navi_location": {"lng": 108.8978464133, "lat": 34.221855011596}, "type": "cater", "detail_url": "http://api.map.baidu.com/place/detail?uid=c8adcbb3b1bcb372f03cba86&output=html&source=placeapi_v2", "price": "52.5", "overall_rating": "4.1", "comment_num": "196", "di_review_keyword": [], "children": []}}, {"name": "\u86d0\u86d0\u706b\u9505(\u632f\u5174\u8def\u5e97)", "location": {"lat": 34.251538, "lng": 108.949249}, "address": "\u5357\u95e8\u5916\u632f\u5174\u8def42\u53f7", "province": "\u9655\u897f\u7701", "city": "\u897f\u5b89\u5e02", "area": "\u7891\u6797\u533a", "street_id": "0ed20a15b81f9b8e57bfffc5", "telephone": "(029)88401007", "detail": 1, "uid": "0ed20a15b81f9b8e57bfffc5", "detail_info": {"tag": "\u7f8e\u98df;\u4e2d\u9910\u5385", "navi_location": {"lng": 108.94925189849, "lat": 34.251365253291}, "type": "cater", "detail_url": "http://api.map.baidu.com/place/detail?uid=0ed20a15b81f9b8e57bfffc5&output=html&source=placeapi_v2", "price": "82.0", "overall_rating": "4.2", "comment_num": "200", "di_review_keyword": [], "children": []}}, {"name": "\u738b\u671d\u8f69(\u9ad8\u65b0\u65d7\u8230\u5e97)", "location": {"lat": 34.240543, "lng": 108.899358}, "address": "\u9ad8\u65b0\u533a\u79d1\u6280\u8def50\u53f7", "province": "\u9655\u897f\u7701", "city": "\u897f\u5b89\u5e02", "area": "\u96c1\u5854\u533a", "street_id": "00586108bced94bc46e274ff", "telephone": "(029)86111111", "detail": 1, "uid": "00586108bced94bc46e274ff", "detail_info": {"tag": "\u7f8e\u98df;\u4e2d\u9910\u5385", "navi_location": {"lng": 108.89945799225, "lat": 34.240765808099}, "type": "cater", "detail_url": "http://api.map.baidu.com/place/detail?uid=00586108bced94bc46e274ff&output=html&source=placeapi_v2", "price": "392.0", "overall_rating": "4.3", "comment_num": "104", "di_review_keyword": [], "children": []}}, {"name": "\u70e4\u53e4\u5bb6", "location": {"lat": 34.256951, "lng": 108.951078}, "address": "\u73af\u57ce\u5357\u8def\u897f\u6bb5\u96441\u53f7", "province": "\u9655\u897f\u7701", "city": "\u897f\u5b89\u5e02", "area": "\u7891\u6797\u533a", "street_id": "37aee03a5e81ea216e3e1b7b", "telephone": "(029)87876677", "detail": 1, "uid": "37aee03a5e81ea216e3e1b7b", "detail_info": {"tag": "\u7f8e\u98df;\u4e2d\u9910\u5385", "navi_location": {"lng": 108.95078004732, "lat": 34.256668905141}, "type": "cater", "detail_url": "http://api.map.baidu.com/place/detail?uid=37aee03a5e81ea216e3e1b7b&output=html&source=placeapi_v2", "price": "90.0", "overall_rating": "4.6", "comment_num": "200", "di_review_keyword": [], "children": []}}, {"name": "\u6625\u53d1\u751f(\u5357\u9662\u95e8\u5e97)", "location": {"lat": 34.261817, "lng": 108.947709}, "address": "\u7891\u6797\u533a\u5357\u9662\u95e820\u53f7", "province": "\u9655\u897f\u7701", "city": "\u897f\u5b89\u5e02", "area": "\u7891\u6797\u533a", "street_id": "bb1d38e4750233540d0a7086", "telephone": "(029)87278316", "detail": 1, "uid": "bb1d38e4750233540d0a7086", "detail_info": {"tag": "\u7f8e\u98df;\u4e2d\u9910\u5385", "navi_location": {"lng": 108.94770824042, "lat": 34.261755139677}, "type": "cater", "detail_url": "http://api.map.baidu.com/place/detail?uid=bb1d38e4750233540d0a7086&output=html&source=placeapi_v2", "price": "45.0", "overall_rating": "4.0", "comment_num": "200", "di_review_keyword": [], "children": []}}, {"name": "\u4e00\u5c0a\u7687\u725b(\u897f\u5173\u6b63\u8857\u5e97)", "location": {"lat": 34.265444, "lng": 108.927797}, "address": "\u83b2\u6e56\u533a\u897f\u5173\u6b63\u885749-51\u53f7\u5927\u69d0\u6811\u5317\uff08\u8fd1\u897f\u5173\u6d3e\u51fa\u6240\uff09", "province": "\u9655\u897f\u7701", "city": "\u897f\u5b89\u5e02", "area": "\u83b2\u6e56\u533a", "street_id": "9ee392b8e4f6e458babd6397", "telephone": "(029)86691999", "detail": 1, "uid": "9ee392b8e4f6e458babd6397", "detail_info": {"tag": "\u7f8e\u98df;\u4e2d\u9910\u5385", "navi_location": {"lng": 108.92813984874, "lat": 34.265373547902}, "type": "cater", "detail_url": "http://api.map.baidu.com/place/detail?uid=9ee392b8e4f6e458babd6397&output=html&source=placeapi_v2", "price": "68.0", "overall_rating": "4.7", "comment_num": "200", "di_review_keyword": [], "children": []}}, {"name": "\u6817\u4e61\u6625\u7af9\u9655\u5357\u6c11\u95f4\u79c1\u623f\u83dc", "location": {"lat": 34.263609, "lng": 108.915564}, "address": "\u6ca3\u9550\u4e1c\u8def\u526f\u4e8c\u53f7(\u897f\u7a0d\u95e8\u5341\u5b57\u897f\u5357\u89d2\u5df7\u5185\u534f\u6210\u82b1\u56ed\u9152\u5e971\u697c)", "province": "\u9655\u897f\u7701", "city": "\u897f\u5b89\u5e02", "area": "\u83b2\u6e56\u533a", "street_id": "b4280938556e3e1616764350", "detail": 1, "uid": "b4280938556e3e1616764350", "detail_info": {"tag": "\u7f8e\u98df;\u4e2d\u9910\u5385", "navi_location": {"lng": 108.91582412421, "lat": 34.263581397628}, "type": "cater", "detail_url": "http://api.map.baidu.com/place/detail?uid=b4280938556e3e1616764350&output=html&source=placeapi_v2", "price": "47.5", "overall_rating": "4.6", "comment_num": "131", "di_review_keyword": [], "children": []}}, {"name": "\u5927\u6d77\u5b50\u897f\u5e9c\u6c11\u4fd7\u6751(\u5c0f\u5be8\u5e97)", "location": {"lat": 34.231516, "lng": 108.950449}, "address": "\u5c0f\u5be8\u5174\u5584\u5bfa\u897f\u885768\u53f7(\u5927\u5174\u5584\u5bfa\uff0c\u91d1\u5546\u5730\u4e0b\u505c\u8f66\u573a)", "province": "\u9655\u897f\u7701", "city": "\u897f\u5b89\u5e02", "area": "\u96c1\u5854\u533a", "street_id": "5ca1915121f86ea8bea240df", "telephone": "(029)85251166", "detail": 1, "uid": "5ca1915121f86ea8bea240df", "detail_info": {"tag": "\u7f8e\u98df;\u4e2d\u9910\u5385", "navi_location": {"lng": 108.95048070677, "lat": 34.231766236088}, "type": "cater", "detail_url": "http://api.map.baidu.com/place/detail?uid=5ca1915121f86ea8bea240df&output=html&source=placeapi_v2", "price": "46.0", "overall_rating": "4.3", "comment_num": "200", "di_review_keyword": [], "children": []}}, {"name": "\u9526\u5b98\u4f1a(\u73af\u57ce\u897f\u82d1\u5e97)", "location": {"lat": 34.261353, "lng": 108.930866}, "address": "\u9655\u897f\u7701\u897f\u5b89\u5e02\u83b2\u6e56\u533a\u897f\u5173\u8857\u9053\u73af\u57ce\u897f\u8def\u5357\u6bb51\u53f7\u73af\u57ce\u897f\u82d1\u5929\u54c1\u897f\u5cb823\u53f7", "province": "\u9655\u897f\u7701", "city": "\u897f\u5b89\u5e02", "area": "\u83b2\u6e56\u533a", "street_id": "6ac1c867118ab476a2d23019", "detail": 1, "uid": "6ac1c867118ab476a2d23019", "detail_info": {"tag": "\u7f8e\u98df;\u4e2d\u9910\u5385", "navi_location": {"lng": 108.93064731406, "lat": 34.263922644029}, "type": "cater", "detail_url": "http://api.map.baidu.com/place/detail?uid=6ac1c867118ab476a2d23019&output=html&source=placeapi_v2", "price": "126.0", "overall_rating": "4.3", "comment_num": "168", "di_review_keyword": [], "children": []}}, {"name": "\u83b1\u6155\u5ba2\u897f\u9910\u5385", "location": {"lat": 34.228745, "lng": 108.946276}, "address": "\u9655\u897f\u7701\u897f\u5b89\u5e02\u96c1\u5854\u533a\u5c0f\u5be8\u897f\u8def114D\u53f7", "province": "\u9655\u897f\u7701", "city": "\u897f\u5b89\u5e02", "area": "\u96c1\u5854\u533a", "street_id": "df06c1200d1397992d473324", "telephone": "(029)62516888", "detail": 1, "uid": "df06c1200d1397992d473324", "detail_info": {"tag": "\u7f8e\u98df;\u5916\u56fd\u9910\u5385", "navi_location": {"lng": 108.94611008306, "lat": 34.228966684337}, "type": "cater", "detail_url": "http://api.map.baidu.com/place/detail?uid=df06c1200d1397992d473324&output=html&source=placeapi_v2", "price": "103.0", "overall_rating": "4.6", "comment_num": "200", "di_review_keyword": [], "children": []}}, {"name": "\u53c1\u5473\u5148\u751f", "location": {"lat": 34.260336, "lng": 108.939128}, "address": "\u51b0\u7a96\u5df7\u5c0f\u533a15\u53f7\u697c2\u5e6210131\u5ba4", "province": "\u9655\u897f\u7701", "city": "\u897f\u5b89\u5e02", "area": "\u83b2\u6e56\u533a", "street_id": "246dddd05e13fa940c0e6b37", "telephone": "18709200188", "detail": 1, "uid": "246dddd05e13fa940c0e6b37", "detail_info": {"tag": "\u7f8e\u98df;\u5c0f\u5403\u5feb\u9910\u5e97", "type": "cater", "detail_url": "http://api.map.baidu.com/place/detail?uid=246dddd05e13fa940c0e6b37&output=html&source=placeapi_v2", "price": "82.0", "overall_rating": "5.0", "comment_num": "200", "di_review_keyword": [], "children": []}}, {"name": "\u8fa3\u9999\u5a46\u65f6\u5c1a\u81ea\u52a9\u706b\u9505", "location": {"lat": 34.250794, "lng": 108.929663}, "address": "\u592a\u767d\u5317\u8def260\u53f7", "province": "\u9655\u897f\u7701", "city": "\u897f\u5b89\u5e02", "area": "\u7891\u6797\u533a", "street_id": "febc47c943eb19ef5c0d0258", "telephone": "13630255318", "detail": 1, "uid": "febc47c943eb19ef5c0d0258", "detail_info": {"tag": "\u7f8e\u98df;\u4e2d\u9910\u5385", "type": "cater", "detail_url": "http://api.map.baidu.com/place/detail?uid=febc47c943eb19ef5c0d0258&output=html&source=placeapi_v2", "price": "29.0", "overall_rating": "4.7", "comment_num": "179", "di_review_keyword": [], "children": []}}, {"name": "6\u53f7\u5f04\u5802\u83dc\u9986", "location": {"lat": 34.248449, "lng": 108.903502}, "address": "\u9655\u897f\u7701\u897f\u5b89\u5e02\u96c1\u5854\u533a\u9ad8\u65b0\u533a\u9ad8\u65b0\u56db\u8def\u6843\u56ed\u6e56\u9ad8\u7ea7\u4f4f\u5b85\u533a246\u53f7(\u8fd1\u6c47\u946b\u82b1\u56ed\u5357\u95e8)", "province": "\u9655\u897f\u7701", "city": "\u897f\u5b89\u5e02", "area": "\u96c1\u5854\u533a", "street_id": "bbfa38979e5bf7adbf4842a9", "telephone": "(029)88858666", "detail": 1, "uid": "d6df91c13c977873f6b916f4", "detail_info": {"tag": "\u7f8e\u98df;\u4e2d\u9910\u5385", "navi_location": {"lng": 108.90340940552, "lat": 34.248203692929}, "type": "cater", "detail_url": "http://api.map.baidu.com/place/detail?uid=d6df91c13c977873f6b916f4&output=html&source=placeapi_v2", "price": "33.0", "overall_rating": "4.5", "comment_num": "142", "di_review_keyword": [], "children": []}}, {"name": "\u6fb3\u95e8\u5fb7\u5174\u6d77\u9c9c\u706b\u9505(\u534e\u878d\u5e97)", "location": {"lat": 34.23664, "lng": 108.944804}, "address": "\u9ad8\u65b0\u533a\u5357\u4e8c\u73af\u897f\u6bb521\u53f7\u534e\u878d\u56fd\u9645\u5927\u53a64\u697c(\u8fd1\u6731\u96c0\u8def)", "province": "\u9655\u897f\u7701", "city": "\u897f\u5b89\u5e02", "area": "\u7891\u6797\u533a", "street_id": "251374c958cfc626a01de984", "telephone": "(029)85398888", "detail": 1, "uid": "251374c958cfc626a01de984", "detail_info": {"tag": "\u7f8e\u98df;\u4e2d\u9910\u5385", "navi_location": {"lng": 108.94474598548, "lat": 34.23653216334}, "type": "cater", "detail_url": "http://api.map.baidu.com/place/detail?uid=251374c958cfc626a01de984&output=html&source=placeapi_v2", "price": "100.0", "overall_rating": "3.9", "comment_num": "200", "di_review_keyword": [], "children": []}}, {"name": "\u8fa3\u52a8\u65f6\u4ee3\u81ea\u52a9\u706b\u9505(\u6843\u56ed\u5e97)", "location": {"lat": 34.270407, "lng": 108.907496},