西安依海文化传播有限公司,108.94029615477189,34.22426211329,3f8c255f2ccaaff9018972bb,"{'name': '西安依海文化传播有限公司', 'location': {'lat': 34.228901, 'lng': 108.951402}, 'address': '小寨西路02号', 'province': '陕西省', 'city': '西安市', 'area': '雁塔区', 'street_id': '3f8c255f2ccaaff9018972bb', 'detail': 1, 'uid': '3f8c255f2ccaaff9018972bb', 'detail_info': {'tag': '文化传媒;其他', 'type': 'enterprise', 'detail_url': 'http://api.map.baidu.com/place/detail?uid=3f8c255f2ccaaff9018972bb&output=html&source=placeapi_v2', 'children': []}}"
"{'name': '西安依海文化传播有限公司', 'location': {'lat': 34.228901, 'lng': 108.951402}, 'address': '小寨西路02号', 'province': '陕西省', 'city': '西安市', 'area': '雁塔区', 'street_id': '3f8c255f2ccaaff9018972bb', 'detail': 1, 'uid': '3f8c255f2ccaaff9018972bb', 'detail_info': {'tag': '文化传媒;其他', 'type': 'enterprise', 'detail_url': 'http://api.map.baidu.com/place/detail?uid=3f8c255f2ccaaff9018972bb&output=html&source=placeapi_v2', 'children': []}}"
西安锦绣文化传播有限公司,108.91393728320205,34.227040475525,024609f1150eb55c52e5c5d5,"{'name': '西安锦绣文化传播有限公司', 'location': {'lat': 34.231232, 'lng': 108.925115}, 'address': '中天国际B座508', 'province': '陕西省', 'city': '西安市', 'area': '雁塔区', 'street_id': '024609f1150eb55c52e5c5d5', 'detail': 1, 'uid': '024609f1150eb55c52e5c5d5', 'detail_info': {'tag': '文化传媒;其他', 'type': 'enterprise', 'detail_url': 'http://api.map.baidu.com/place/detail?uid=024609f1150eb55c52e5c5d5&output=html&source=placeapi_v2', 'price': '0.0', 'children': []}}"
"{'name': '西安锦绣文化传播有限公司', 'location': {'lat': 34.231232, 'lng': 108.925115}, 'address': '中天国际B座508', 'province': '陕西省', 'city': '西安市', 'area': '雁塔区', 'street_id': '024609f1150eb55c52e5c5d5', 'detail': 1, 'uid': '024609f1150eb55c52e5c5d5', 'detail_info': {'tag': '文化传媒;其他', 'type': 'enterprise', 'detail_url': 'http://api.map.baidu.com/place/detail?uid=024609f1150eb55c52e5c5d5&output=html&source=placeapi_v2', 'price': '0.0', 'children': []}}"
智简艺术文化传播有限公司,108.89598281001989,34.225022785732435,d70412ca945fa69a744ff144,"{'name': '智简艺术文化传播有限公司', 'location': {'lat': 34.229064, 'lng': 108.907186}, 'address': '陕西省西安市高新区高新水晶城C栋905', 'province': '陕西省', 'city': '西安市', 'area': '雁塔区', 'street_id': 'd70412ca945fa69a744ff144', 'detail': 1, 'uid': 'd70412ca945fa69a744ff144', 'detail_info': {'tag': '文化传媒;其他', 'type': 'enterprise', 'detail_url': 'http://api.map.baidu.com/place/detail?uid=d70412ca945fa69a744ff144&output=html&source=placeapi_v2', 'children': []}}"
"{'name': '智简艺术文化传播有限公司', 'location': {'lat': 34.229064, 'lng': 108.907186}, 'address': '陕西省西安市高新区高新水晶城C栋905', 'province': '陕西省', 'city': '西安市', 'area': '雁塔区', 'street_id': 'd70412ca945fa69a744ff144', 'detail': 1, 'uid': 'd70412ca945fa69a744ff144', 'detail_info': {'tag': '文化传媒;其他', 'type': 'enterprise', 'detail_url': 'http://api.map.baidu.com/place/detail?uid=d70412ca945fa69a744ff144&output=html&source=placeapi_v2', 'children': []}}"
西安华艺影视传媒有限公司,108.91965914156172,34.233512184201196,a09a29570a03f31dca09f007,"{'name': '西安华艺影视传媒有限公司', 'location': {'lat': 34.237799, 'lng': 108.93082}, 'address': '二环南路西段118安馨园大厦15层J', 'province': '陕西省', 'city': '西安市', 'area': '雁塔区', 'street_id': 'a09a29570a03f31dca09f007', 'detail': 1, 'uid': 'a09a29570a03f31dca09f007', 'detail_info': {'tag': '文化传媒;广播电视', 'type': 'enterprise', 'detail_url': 'http://api.map.baidu.com/place/detail?uid=a09a29570a03f31dca09f007&output=html&source=placeapi_v2', 'children': []}}"
"{'name': '西安华艺影视传媒有限公司', 'location': {'lat': 34.237799, 'lng': 108.93082}, 'address': '二环南路西段118安馨园大厦15层J', 'province': '陕西省', 'city': '西安市', 'area': '雁塔区', 'street_id': 'a09a29570a03f31dca09f007', 'detail': 1, 'uid': 'a09a29570a03f31dca09f007', 'detail_info': {'tag': '文化传媒;广播电视', 'type': 'enterprise', 'detail_url': 'http://api.map.baidu.com/place/detail?uid=a09a29570a03f31dca09f007&output=html&source=placeapi_v2', 'children': []}}"
西安美源广告文化传播有限公司,108.92712757759348,34.235490838521805,e48c34e91831430415c905e8,"{'name': '西安美源广告文化传播有限公司', 'location': {'lat': 34.239913, 'lng': 108.938264}, 'address': '西安市含光路中段新西部医药交易大厦1705室', 'province': '陕西省', 'city': '西安市', 'area': '碑林区', 'street_id': 'e48c34e91831430415c905e8', 'detail': 1, 'uid': 'e48c34e91831430415c905e8', 'detail_info': {'tag': '公司企业;公司', 'type': 'enterprise', 'detail_url': 'http://api.map.baidu.com/place/detail?uid=e48c34e91831430415c905e8&output=html&source=placeapi_v2', 'children': []}}"
"{'name': '西安美源广告文化传播有限公司', 'location': {'lat': 34.239913, 'lng': 108.938264}, 'address': '西安市含光路中段新西部医药交易大厦1705室', 'province': '陕西省', 'city': '西安市', 'area': '碑林区', 'street_id': 'e48c34e91831430415c905e8', 'detail': 1, 'uid': 'e48c34e91831430415c905e8', 'detail_info': {'tag': '公司企业;公司', 'type': 'enterprise', 'detail_url': 'http://api.map.baidu.com/place/detail?uid=e48c34e91831430415c905e8&output=html&source=placeapi_v2', 'children': []}}"
悦诚广告(文化传播有限公司),108.92780194471717,34.26354449176203,448848241d77879f843304be,"{'name': '悦诚广告(文化传播有限公司)', 'location': {'lat': 34.267983, 'lng': 108.938918}, 'address': '陕西省西安市莲湖区大麦市街74', 'province': '陕西省', 'city': '西安市', 'area': '莲湖区', 'street_id': '448848241d77879f843304be', 'detail': 1, 'uid': '448848241d77879f843304be', 'detail_info': {'tag': '文化传媒;其他', 'type': 'enterprise', 'detail_url': 'http://api.map.baidu.com/place/detail?uid=448848241d77879f843304be&output=html&source=placeapi_v2', 'children': []}}"
"{'name': '悦诚广告(文化传播有限公司)', 'location': {'lat': 34.267983, 'lng': 108.938918}, 'address': '陕西省西安市莲湖区大麦市街74', 'province': '陕西省', 'city': '西安市', 'area': '莲湖区', 'street_id': '448848241d77879f843304be', 'detail': 1, 'uid': '448848241d77879f843304be', 'detail_info': {'tag': '文化传媒;其他', 'type': 'enterprise', 'detail_url': 'http://api.map.baidu.com/place/detail?uid=448848241d77879f843304be&output=html&source=placeapi_v2', 'children': []}}"
福莱斯广告文化传播有限公司,108.89517609088894,34.24198210144226,f95a59eb9a23283407fef529,"{'name': '福莱斯广告文化传播有限公司', 'location': {'lat': 34.246029, 'lng': 108.906379}, 'address': '高新三路8号橙仕空间625', 'province': '陕西省', 'city': '西安市', 'area': '雁塔区', 'street_id': 'f95a59eb9a23283407fef529', 'detail': 1, 'uid': 'f95a59eb9a23283407fef529', 'detail_info': {'tag': '文化传媒;其他', 'navi_location': {'lng': 108.9071366251, 'lat': 34.245638552687}, 'type': 'enterprise', 'detail_url': 'http://api.map.baidu.com/place/detail?uid=f95a59eb9a23283407fef529&output=html&source=placeapi_v2', 'children': []}}"
"{'name': '福莱斯广告文化传播有限公司', 'location': {'lat': 34.246029, 'lng': 108.906379}, 'address': '高新三路8号橙仕空间625', 'province': '陕西省', 'city': '西安市', 'area': '雁塔区', 'street_id': 'f95a59eb9a23283407fef529', 'detail': 1, 'uid': 'f95a59eb9a23283407fef529', 'detail_info': {'tag': '文化传媒;其他', 'navi_location': {'lng': 108.9071366251, 'lat': 34.245638552687}, 'type': 'enterprise', 'detail_url': 'http://api.map.baidu.com/place/detail?uid=f95a59eb9a23283407fef529&output=html&source=placeapi_v2', 'children': []}}"
陕西汇盛文化传播有限公司,108.89211190324983,34.24606230859582,d73ca40fdfab0d918c55ec7d,"{'name': '陕西汇盛文化传播有限公司', 'location': {'lat': 34.250115, 'lng': 108.90331}, 'address': '二环南路西段208号捷瑞大厦6层-1', 'province': '陕西省', 'city': '西安市', 'area': '雁塔区', 'street_id': 'd73ca40fdfab0d918c55ec7d', 'detail': 1, 'uid': 'd73ca40fdfab0d918c55ec7d', 'detail_info': {'tag': '文化传媒;其他', 'type': 'enterprise', 'detail_url': 'http://api.map.baidu.com/place/detail?uid=d73ca40fdfab0d918c55ec7d&output=html&source=placeapi_v2', 'children': []}}"
"{'name': '陕西汇盛文化传播有限公司', 'location': {'lat': 34.250115, 'lng': 108.90331}, 'address': '二环南路西段208号捷瑞大厦6层-1', 'province': '陕西省', 'city': '西安市', 'area': '雁塔区', 'street_id': 'd73ca40fdfab0d918c55ec7d', 'detail': 1, 'uid': 'd73ca40fdfab0d918c55ec7d', 'detail_info': {'tag': '文化传媒;其他', 'type': 'enterprise', 'detail_url': 'http://api.map.baidu.com/place/detail?uid=d73ca40fdfab0d918c55ec7d&output=html&source=placeapi_v2', 'children': []}}"
西安永基广告传媒有限公司,108.89763367848823,34.23474969499981,a149ff02cc2d99e6e856fa0a,"{'name': '西安永基广告传媒有限公司', 'location': {'lat': 34.238797, 'lng': 108.908839}, 'address': '西安高新技术产业开发区科技路37号海星城市广场B座0702', 'province': '陕西省', 'city': '西安市', 'area': '雁塔区', 'street_id': 'a149ff02cc2d99e6e856fa0a', 'detail': 1, 'uid': 'a149ff02cc2d99e6e856fa0a', 'detail_info': {'tag': '文化传媒;其他', 'type': 'enterprise', 'detail_url': 'http://api.map.baidu.com/place/detail?uid=a149ff02cc2d99e6e856fa0a&output=html&source=placeapi_v2', 'children': []}}"
"{'name': '西安永基广告传媒有限公司', 'location': {'lat': 34.238797, 'lng': 108.908839}, 'address': '西安高新技术产业开发区科技路37号海星城市广场B座0702', 'province': '陕西省', 'city': '西安市', 'area': '雁塔区', 'street_id': 'a149ff02cc2d99e6e856fa0a', 'detail': 1, 'uid': 'a149ff02cc2d99e6e856fa0a', 'detail_info': {'tag': '文化传媒;其他', 'type': 'enterprise', 'detail_url': 'http://api.map.baidu.com/place/detail?uid=a149ff02cc2d99e6e856fa0a&output=html&source=placeapi_v2', 'children': []}}"
陕西新家园文化传播有限公司,108.89646521430845,34.24106177731739,8fdf16efaa1c78ade81e97a0,"{'name': '陕西新家园文化传播有限公司', 'location': {'lat': 34.245109, 'lng': 108.907669}, 'address': '高新三路财富中心二期D座2408', 'province': '陕西省', 'city': '西安市', 'area': '雁塔区', 'street_id': '8fdf16efaa1c78ade81e97a0', 'detail': 1, 'uid': '8fdf16efaa1c78ade81e97a0', 'detail_info': {'tag': '文化传媒;其他', 'navi_location': {'lng': 108.90761143795, 'lat': 34.244984071358}, 'type': 'enterprise', 'detail_url': 'http://api.map.baidu.com/place/detail?uid=8fdf16efaa1c78ade81e97a0&output=html&source=placeapi_v2', 'children': []}}"
"{'name': '陕西新家园文化传播有限公司', 'location': {'lat': 34.245109, 'lng': 108.907669}, 'address': '高新三路财富中心二期D座2408', 'province': '陕西省', 'city': '西安市', 'area': '雁塔区', 'street_id': '8fdf16efaa1c78ade81e97a0', 'detail': 1, 'uid': '8fdf16efaa1c78ade81e97a0', 'detail_info': {'tag': '文化传媒;其他', 'navi_location': {'lng': 108.90761143795, 'lat': 34.244984071358}, 'type': 'enterprise', 'detail_url': 'http://api.map.baidu.com/place/detail?uid=8fdf16efaa1c78ade81e97a0&output=html&source=placeapi_v2', 'children': []}}"
西安博航文化传播有限公司,108.919658140707,34.233661151221135,ac2d6382a93b63af6140a907,"{'name': '西安博航文化传播有限公司', 'location': {'lat': 34.237948, 'lng': 108.930819}, 'address': '西安市雁塔区二环南路西段118号安馨园大厦19层', 'province': '陕西省', 'city': '西安市', 'area': '雁塔区', 'street_id': 'ac2d6382a93b63af6140a907', 'detail': 1, 'uid': 'ac2d6382a93b63af6140a907', 'detail_info': {'tag': '文化传媒;其他', 'type': 'enterprise', 'detail_url': 'http://api.map.baidu.com/place/detail?uid=ac2d6382a93b63af6140a907&output=html&source=placeapi_v2', 'children': []}}"
"{'name': '西安博航文化传播有限公司', 'location': {'lat': 34.237948, 'lng': 108.930819}, 'address': '西安市雁塔区二环南路西段118号安馨园大厦19层', 'province': '陕西省', 'city': '西安市', 'area': '雁塔区', 'street_id': 'ac2d6382a93b63af6140a907', 'detail': 1, 'uid': 'ac2d6382a93b63af6140a907', 'detail_info': {'tag': '文化传媒;其他', 'type': 'enterprise', 'detail_url': 'http://api.map.baidu.com/place/detail?uid=ac2d6382a93b63af6140a907&output=html&source=placeapi_v2', 'children': []}}"
陕西龙阳文化传播有限公司,108.8875603137258,34.21521974594578,2d31807d4631f81d8bfc0648,"{'name': '陕西龙阳文化传播有限公司', 'location': {'lat': 34.219284, 'lng': 108.898746}, 'address': '高新路88号尚品国际c幢6层', 'province': '陕西省', 'city': '西安市', 'area': '雁塔区', 'detail': 1, 'uid': '2d31807d4631f81d8bfc0648', 'detail_info': {'tag': '文化传媒;其他', 'type': 'enterprise', 'detail_url': 'http://api.map.baidu.com/place/detail?uid=2d31807d4631f81d8bfc0648&output=html&source=placeapi_v2', 'children': []}}"
"{'name': '陕西龙阳文化传播有限公司', 'location': {'lat': 34.219284, 'lng': 108.898746}, 'address': '高新路88号尚品国际c幢6层', 'province': '陕西省', 'city': '西安市', 'area': '雁塔区', 'detail': 1, 'uid': '2d31807d4631f81d8bfc0648', 'detail_info': {'tag': '文化传媒;其他', 'type': 'enterprise', 'detail_url': 'http://api.map.baidu.com/place/detail?uid=2d31807d4631f81d8bfc0648&output=html&source=placeapi_v2', 'children': []}}"
陕西唯创文化传播有限公司,108.87680046932125,34.248626095436215,00601cf70a19f14130169b6c,"{'name': '陕西唯创文化传播有限公司', 'location': {'lat': 34.252825, 'lng': 108.887954}, 'address': '团结南路九形道3号楼2802室', 'province': '陕西省', 'city': '西安市', 'area': '雁塔区', 'detail': 1, 'uid': '00601cf70a19f14130169b6c', 'detail_info': {'tag': '文化传媒;其他', 'type': 'enterprise', 'detail_url': 'http://api.map.baidu.com/place/detail?uid=00601cf70a19f14130169b6c&output=html&source=placeapi_v2', 'children': []}}"
"{'name': '陕西唯创文化传播有限公司', 'location': {'lat': 34.252825, 'lng': 108.887954}, 'address': '团结南路九形道3号楼2802室', 'province': '陕西省', 'city': '西安市', 'area': '雁塔区', 'detail': 1, 'uid': '00601cf70a19f14130169b6c', 'detail_info': {'tag': '文化传媒;其他', 'type': 'enterprise', 'detail_url': 'http://api.map.baidu.com/place/detail?uid=00601cf70a19f14130169b6c&output=html&source=placeapi_v2', 'children': []}}"
陕西朗星文化传播有限公司,108.92161458951368,34.233170906946725,c6155e0d5cba37b983a00c18,"{'name': '陕西朗星文化传播有限公司', 'location': {'lat': 34.237492, 'lng': 108.932769}, 'address': '南二环金叶大厦众创空间', 'province': '陕西省', 'city': '西安市', 'area': '雁塔区', 'street_id': 'c6155e0d5cba37b983a00c18', 'detail': 1, 'uid': 'c6155e0d5cba37b983a00c18', 'detail_info': {'tag': '文化传媒;其他', 'type': 'enterprise', 'detail_url': 'http://api.map.baidu.com/place/detail?uid=c6155e0d5cba37b983a00c18&output=html&source=placeapi_v2', 'children': []}}"
"{'name': '陕西朗星文化传播有限公司', 'location': {'lat': 34.237492, 'lng': 108.932769}, 'address': '南二环金叶大厦众创空间', 'province': '陕西省', 'city': '西安市', 'area': '雁塔区', 'street_id': 'c6155e0d5cba37b983a00c18', 'detail': 1, 'uid': 'c6155e0d5cba37b983a00c18', 'detail_info': {'tag': '文化传媒;其他', 'type': 'enterprise', 'detail_url': 'http://api.map.baidu.com/place/detail?uid=c6155e0d5cba37b983a00c18&output=html&source=placeapi_v2', 'children': []}}"
西安汇美广告文化传播有限公司,108.90163539187687,34.239492506159635,fed3325e0b4d5bc036b06cbf,"{'name': '西安汇美广告文化传播有限公司', 'location': {'lat': 34.243557, 'lng': 108.912838}, 'address': '高新一路5号正信大厦21层', 'province': '陕西省', 'city': '西安市', 'area': '雁塔区', 'street_id': 'fed3325e0b4d5bc036b06cbf', 'detail': 1, 'uid': 'fed3325e0b4d5bc036b06cbf', 'detail_info': {'tag': '文化传媒;其他', 'type': 'enterprise', 'detail_url': 'http://api.map.baidu.com/place/detail?uid=fed3325e0b4d5bc036b06cbf&output=html&source=placeapi_v2', 'children': []}}"
"{'name': '西安汇美广告文化传播有限公司', 'location': {'lat': 34.243557, 'lng': 108.912838}, 'address': '高新一路5号正信大厦21层', 'province': '陕西省', 'city': '西安市', 'area': '雁塔区', 'street_id': 'fed3325e0b4d5bc036b06cbf', 'detail': 1, 'uid': 'fed3325e0b4d5bc036b06cbf', 'detail_info': {'tag': '文化传媒;其他', 'type': 'enterprise', 'detail_url': 'http://api.map.baidu.com/place/detail?uid=fed3325e0b4d5bc036b06cbf&output=html&source=placeapi_v2', 'children': []}}"
陕西云志广告文化传播有限公司,108.88789868758374,34.2376431808737,681dd95165d5f32af90cad90,"{'name': '陕西云志广告文化传播有限公司', 'location': {'lat': 34.241715, 'lng': 108.899093}, 'address': '西安市高新区科技路50号金桥国际广场11层', 'province': '陕西省', 'city': '西安市', 'area': '雁塔区', 'street_id': '681dd95165d5f32af90cad90', 'detail': 1, 'uid': '681dd95165d5f32af90cad90', 'detail_info': {'tag': '文化传媒;其他', 'type': 'enterprise', 'detail_url': 'http://api.map.baidu.com/place/detail?uid=681dd95165d5f32af90cad90&output=html&source=placeapi_v2', 'children': []}}"
"{'name': '陕西云志广告文化传播有限公司', 'location': {'lat': 34.241715, 'lng': 108.899093}, 'address': '西安市高新区科技路50号金桥国际广场11层', 'province': '陕西省', 'city': '西安市', 'area': '雁塔区', 'street_id': '681dd95165d5f32af90cad90', 'detail': 1, 'uid': '681dd95165d5f32af90cad90', 'detail_info': {'tag': '文化传媒;其他', 'type': 'enterprise', 'detail_url': 'http://api.map.baidu.com/place/detail?uid=681dd95165d5f32af90cad90&output=html&source=placeapi_v2', 'children': []}}"
西安莎翁广告文化传播有限公司,108.92023704051164,34.23343115376035,5dbc21ebd2df3f1ec61b7525,"{'name': '西安莎翁广告文化传播有限公司', 'location': {'lat': 34.237728, 'lng': 108.931396}, 'address': '二环南路西段106-108号紫竹大厦16层', 'province': '陕西省', 'city': '西安市', 'area': '雁塔区', 'street_id': '5dbc21ebd2df3f1ec61b7525', 'detail': 1, 'uid': '5dbc21ebd2df3f1ec61b7525', 'detail_info': {'tag': '文化传媒;其他', 'type': 'enterprise', 'detail_url': 'http://api.map.baidu.com/place/detail?uid=5dbc21ebd2df3f1ec61b7525&output=html&source=placeapi_v2', 'children': []}}"
"{'name': '西安莎翁广告文化传播有限公司', 'location': {'lat': 34.237728, 'lng': 108.931396}, 'address': '二环南路西段106-108号紫竹大厦16层', 'province': '陕西省', 'city': '西安市', 'area': '雁塔区', 'street_id': '5dbc21ebd2df3f1ec61b7525', 'detail': 1, 'uid': '5dbc21ebd2df3f1ec61b7525', 'detail_info': {'tag': '文化传媒;其他', 'type': 'enterprise', 'detail_url': 'http://api.map.baidu.com/place/detail?uid=5dbc21ebd2df3f1ec61b7525&output=html&source=placeapi_v2', 'children': []}}"
西安智图广告文化传播有限公司,108.94053340830715,34.19901416007681,a8dc664b75de8c0446e274e9,"{'name': '西安智图广告文化传播有限公司', 'location': {'lat': 34.203641, 'lng': 108.951617}, 'address': '长安南路98号长延居2#2单元22206', 'province': '陕西省', 'city': '西安市', 'area': '雁塔区', 'street_id': 'a8dc664b75de8c0446e274e9', 'detail': 1, 'uid': 'a8dc664b75de8c0446e274e9', 'detail_info': {'tag': '文化传媒;其他', 'type': 'enterprise', 'detail_url': 'http://api.map.baidu.com/place/detail?uid=a8dc664b75de8c0446e274e9&output=html&source=placeapi_v2', 'price': '0.0', 'children': []}}"
"{'name': '西安智图广告文化传播有限公司', 'location': {'lat': 34.203641, 'lng': 108.951617}, 'address': '长安南路98号长延居2#2单元22206', 'province': '陕西省', 'city': '西安市', 'area': '雁塔区', 'street_id': 'a8dc664b75de8c0446e274e9', 'detail': 1, 'uid': 'a8dc664b75de8c0446e274e9', 'detail_info': {'tag': '文化传媒;其他', 'type': 'enterprise', 'detail_url': 'http://api.map.baidu.com/place/detail?uid=a8dc664b75de8c0446e274e9&output=html&source=placeapi_v2', 'price': '0.0', 'children': []}}"
西安骏腾企业文化传播有限公司,108.93967886232073,34.19190483449458,3113c401f5a021981d58003a,"{'name': '西安骏腾企业文化传播有限公司', 'location': {'lat': 34.196515, 'lng': 108.950756}, 'address': '长安南路华城国际5号楼1单元1004室', 'province': '陕西省', 'city': '西安市', 'area': '雁塔区', 'street_id': '3113c401f5a021981d58003a', 'detail': 1, 'uid': '3113c401f5a021981d58003a', 'detail_info': {'tag': '文化传媒;其他', 'type': 'enterprise', 'detail_url': 'http://api.map.baidu.com/place/detail?uid=3113c401f5a021981d58003a&output=html&source=placeapi_v2', 'children': []}}"
"{'name': '西安骏腾企业文化传播有限公司', 'location': {'lat': 34.196515, 'lng': 108.950756}, 'address': '长安南路华城国际5号楼1单元1004室', 'province': '陕西省', 'city': '西安市', 'area': '雁塔区', 'street_id': '3113c401f5a021981d58003a', 'detail': 1, 'uid': '3113c401f5a021981d58003a', 'detail_info': {'tag': '文化传媒;其他', 'type': 'enterprise', 'detail_url': 'http://api.map.baidu.com/place/detail?uid=3113c401f5a021981d58003a&output=html&source=placeapi_v2', 'children': []}}"
西安文正广告文化传播有限公司,108.91078635182963,34.223185273653854,587661e9f272768f22022094,"{'name': '西安文正广告文化传播有限公司', 'location': {'lat': 34.227331, 'lng': 108.921971}, 'address': '陕西省西安市雁塔区太白南路191', 'province': '陕西省', 'city': '西安市', 'area': '雁塔区', 'street_id': '587661e9f272768f22022094', 'detail': 1, 'uid': '587661e9f272768f22022094', 'detail_info': {'tag': '文化传媒;其他', 'type': 'enterprise', 'detail_url': 'http://api.map.baidu.com/place/detail?uid=587661e9f272768f22022094&output=html&source=placeapi_v2', 'children': []}}"
"{'name': '西安文正广告文化传播有限公司', 'location': {'lat': 34.227331, 'lng': 108.921971}, 'address': '陕西省西安市雁塔区太白南路191', 'province': '陕西省', 'city': '西安市', 'area': '雁塔区', 'street_id': '587661e9f272768f22022094', 'detail': 1, 'uid': '587661e9f272768f22022094', 'detail_info': {'tag': '文化传媒;其他', 'type': 'enterprise', 'detail_url': 'http://api.map.baidu.com/place/detail?uid=587661e9f272768f22022094&output=html&source=placeapi_v2', 'children': []}}"
西安华仁广告文化传播有限公司,108.91290154255644,34.205822835376175,05c6b56539df2f7121f01763,"{'name': '西安华仁广告文化传播有限公司', 'location': {'lat': 34.209987, 'lng': 108.924066}, 'address': '陕西省西安市雁塔区电子四路南150米', 'province': '陕西省', 'city': '西安市', 'area': '雁塔区', 'street_id': '05c6b56539df2f7121f01763', 'telephone': '(029)88442942', 'detail': 1, 'uid': '05c6b56539df2f7121f01763', 'detail_info': {'tag': '文化传媒;其他', 'type': 'enterprise', 'detail_url': 'http://api.map.baidu.com/place/detail?uid=05c6b56539df2f7121f01763&output=html&source=placeapi_v2', 'children': []}}"
"{'name': '西安华仁广告文化传播有限公司', 'location': {'lat': 34.209987, 'lng': 108.924066}, 'address': '陕西省西安市雁塔区电子四路南150米', 'province': '陕西省', 'city': '西安市', 'area': '雁塔区', 'street_id': '05c6b56539df2f7121f01763', 'telephone': '(029)88442942', 'detail': 1, 'uid': '05c6b56539df2f7121f01763', 'detail_info': {'tag': '文化传媒;其他', 'type': 'enterprise', 'detail_url': 'http://api.map.baidu.com/place/detail?uid=05c6b56539df2f7121f01763&output=html&source=placeapi_v2', 'children': []}}"
上海尚本文化传播公司西安分公司,108.91228245607167,34.227600069358566,4f282e590ec922e0f03cba64,"{'name': '上海尚本文化传播公司西安分公司', 'location': {'lat': 34.231768, 'lng': 108.923465}, 'address': '科技路1紫薇龙腾新世界26层2608', 'province': '陕西省', 'city': '西安市', 'area': '雁塔区', 'street_id': '4f282e590ec922e0f03cba64', 'detail': 1, 'uid': '4f282e590ec922e0f03cba64', 'detail_info': {'tag': '文化传媒;其他', 'type': 'enterprise', 'detail_url': 'http://api.map.baidu.com/place/detail?uid=4f282e590ec922e0f03cba64&output=html&source=placeapi_v2', 'children': []}}"
"{'name': '上海尚本文化传播公司西安分公司', 'location': {'lat': 34.231768, 'lng': 108.923465}, 'address': '科技路1紫薇龙腾新世界26层2608', 'province': '陕西省', 'city': '西安市', 'area': '雁塔区', 'street_id': '4f282e590ec922e0f03cba64', 'detail': 1, 'uid': '4f282e590ec922e0f03cba64', 'detail_info': {'tag': '文化传媒;其他', 'type': 'enterprise', 'detail_url': 'http://api.map.baidu.com/place/detail?uid=4f282e590ec922e0f03cba64&output=html&source=placeapi_v2', 'children': []}}"
西安金火炬广告文化传播有限公司,108.89373003552438,34.20282573937225,8740fa707df8267121f01797,"{'name': '西安金火炬广告文化传播有限公司', 'location': {'lat': 34.206855, 'lng': 108.904913}, 'address': '陕西省西安市雁塔区太白南路紫薇尚层西1层2单元507室', 'province': '陕西省', 'city': '西安市', 'area': '雁塔区', 'street_id': '8740fa707df8267121f01797', 'detail': 1, 'uid': '8740fa707df8267121f01797', 'detail_info': {'tag': '文化传媒;其他', 'type': 'enterprise', 'detail_url': 'http://api.map.baidu.com/place/detail?uid=8740fa707df8267121f01797&output=html&source=placeapi_v2', 'children': []}}"
"{'name': '西安金火炬广告文化传播有限公司', 'location': {'lat': 34.206855, 'lng': 108.904913}, 'address': '陕西省西安市雁塔区太白南路紫薇尚层西1层2单元507室', 'province': '陕西省', 'city': '西安市', 'area': '雁塔区', 'street_id': '8740fa707df8267121f01797', 'detail': 1, 'uid': '8740fa707df8267121f01797', 'detail_info': {'tag': '文化传媒;其他', 'type': 'enterprise', 'detail_url': 'http://api.map.baidu.com/place/detail?uid=8740fa707df8267121f01797&output=html&source=placeapi_v2', 'children': []}}"
西安创凡广告文化传播有限公司,108.90802322885594,34.20905477418016,5a1284e93f5845d9bb17e760,"{'name': '西安创凡广告文化传播有限公司', 'location': {'lat': 34.213159, 'lng': 108.919203}, 'address': '陕西省西安市雁塔区电子城商圈电子西街3号', 'province': '陕西省', 'city': '西安市', 'area': '雁塔区', 'street_id': '5a1284e93f5845d9bb17e760', 'detail': 1, 'uid': '5a1284e93f5845d9bb17e760', 'detail_info': {'tag': '文化传媒;其他', 'type': 'enterprise', 'detail_url': 'http://api.map.baidu.com/place/detail?uid=5a1284e93f5845d9bb17e760&output=html&source=placeapi_v2', 'children': []}}"
"{'name': '西安创凡广告文化传播有限公司', 'location': {'lat': 34.213159, 'lng': 108.919203}, 'address': '陕西省西安市雁塔区电子城商圈电子西街3号', 'province': '陕西省', 'city': '西安市', 'area': '雁塔区', 'street_id': '5a1284e93f5845d9bb17e760', 'detail': 1, 'uid': '5a1284e93f5845d9bb17e760', 'detail_info': {'tag': '文化传媒;其他', 'type': 'enterprise', 'detail_url': 'http://api.map.baidu.com/place/detail?uid=5a1284e93f5845d9bb17e760&output=html&source=placeapi_v2', 'children': []}}"
西安索镁企业文化传播有限公司,108.87949004930759,34.19908557705963,105a58ed6a70fedeeedfca26,"{'name': '西安索镁企业文化传播有限公司', 'location': {'lat': 34.203224, 'lng': 108.890635}, 'address': '绿地南海2006室', 'province': '陕西省', 'city': '西安市', 'area': '雁塔区', 'street_id': '105a58ed6a70fedeeedfca26', 'detail': 1, 'uid': '105a58ed6a70fedeeedfca26', 'detail_info': {'tag': '文化传媒;其他', 'type': 'enterprise', 'detail_url': 'http://api.map.baidu.com/place/detail?uid=105a58ed6a70fedeeedfca26&output=html&source=placeapi_v2', 'price': '0.0', 'children': []}}"
"{'name': '西安索镁企业文化传播有限公司', 'location': {'lat': 34.203224, 'lng': 108.890635}, 'address': '绿地南海2006室', 'province': '陕西省', 'city': '西安市', 'area': '雁塔区', 'street_id': '105a58ed6a70fedeeedfca26', 'detail': 1, 'uid': '105a58ed6a70fedeeedfca26', 'detail_info': {'tag': '文化传媒;其他', 'type': 'enterprise', 'detail_url': 'http://api.map.baidu.com/place/detail?uid=105a58ed6a70fedeeedfca26&output=html&source=placeapi_v2', 'price': '0.0', 'children': []}}"
西安聚茗轩茶文化传播有限公司,108.84128085964508,34.19373954282324,06f1c11fe89c10b2a8059dc7,"{'name': '西安聚茗轩茶文化传播有限公司', 'location': {'lat': 34.198457, 'lng': 108.852292}, 'address': '高新区锦业路西口88号锦尚名城小区门面房', 'province': '陕西省', 'city': '西安市', 'area': '雁塔区', 'street_id': '06f1c11fe89c10b2a8059dc7', 'detail': 1, 'uid': '06f1c11fe89c10b2a8059dc7', 'detail_info': {'tag': '文化传媒;其他', 'type': 'enterprise', 'detail_url': 'http://api.map.baidu.com/place/detail?uid=06f1c11fe89c10b2a8059dc7&output=html&source=placeapi_v2', 'children': []}}"
"{'name': '西安聚茗轩茶文化传播有限公司', 'location': {'lat': 34.198457, 'lng': 108.852292}, 'address': '高新区锦业路西口88号锦尚名城小区门面房', 'province': '陕西省', 'city': '西安市', 'area': '雁塔区', 'street_id': '06f1c11fe89c10b2a8059dc7', 'detail': 1, 'uid': '06f1c11fe89c10b2a8059dc7', 'detail_info': {'tag': '文化传媒;其他', 'type': 'enterprise', 'detail_url': 'http://api.map.baidu.com/place/detail?uid=06f1c11fe89c10b2a8059dc7&output=html&source=placeapi_v2', 'children': []}}"
西安雄杰广告文化传播有限公司,108.93300095712507,34.27253150276221,b3e2385b69c85f79e8e582eb,"{'name': '西安雄杰广告文化传播有限公司', 'location': {'lat': 34.277064, 'lng': 108.944095}, 'address': '青年路街道青年路156号1幢7层10701号', 'province': '陕西省', 'city': '西安市', 'area': '莲湖区', 'street_id': 'b3e2385b69c85f79e8e582eb', 'detail': 1, 'uid': 'b3e2385b69c85f79e8e582eb', 'detail_info': {'tag': '文化传媒;其他', 'type': 'enterprise', 'detail_url': 'http://api.map.baidu.com/place/detail?uid=b3e2385b69c85f79e8e582eb&output=html&source=placeapi_v2', 'children': []}}"
"{'name': '西安雄杰广告文化传播有限公司', 'location': {'lat': 34.277064, 'lng': 108.944095}, 'address': '青年路街道青年路156号1幢7层10701号', 'province': '陕西省', 'city': '西安市', 'area': '莲湖区', 'street_id': 'b3e2385b69c85f79e8e582eb', 'detail': 1, 'uid': 'b3e2385b69c85f79e8e582eb', 'detail_info': {'tag': '文化传媒;其他', 'type': 'enterprise', 'detail_url': 'http://api.map.baidu.com/place/detail?uid=b3e2385b69c85f79e8e582eb&output=html&source=placeapi_v2', 'children': []}}"
西安报友文化传播有限责任公司,108.93168905597486,34.254651991875136,140c441e70809abb3a13fd89,"{'name': '西安报友文化传播有限责任公司', 'location': {'lat': 34.25916, 'lng': 108.942802}, 'address': '陕西省西安市碑林区四府街9号', 'province': '陕西省', 'city': '西安市', 'area': '碑林区', 'street_id': '140c441e70809abb3a13fd89', 'detail': 1, 'uid': '140c441e70809abb3a13fd89', 'detail_info': {'tag': '文化传媒;其他', 'type': 'enterprise', 'detail_url': 'http://api.map.baidu.com/place/detail?uid=140c441e70809abb3a13fd89&output=html&source=placeapi_v2', 'children': []}}"
"{'name': '西安报友文化传播有限责任公司', 'location': {'lat': 34.25916, 'lng': 108.942802}, 'address': '陕西省西安市碑林区四府街9号', 'province': '陕西省', 'city': '西安市', 'area': '碑林区', 'street_id': '140c441e70809abb3a13fd89', 'detail': 1, 'uid': '140c441e70809abb3a13fd89', 'detail_info': {'tag': '文化传媒;其他', 'type': 'enterprise', 'detail_url': 'http://api.map.baidu.com/place/detail?uid=140c441e70809abb3a13fd89&output=html&source=placeapi_v2', 'children': []}}"
陕西弹指影音文化传播有限公司,108.93386827799588,34.24652702675088,a78c973319a0f7e2df1e52bc,"{'name': '陕西弹指影音文化传播有限公司', 'location': {'lat': 34.251072, 'lng': 108.944982}, 'address': '朱雀大街北段金牛锅炉大厦1806室', 'province': '陕西省', 'city': '西安市', 'area': '碑林区', 'street_id': 'a78c973319a0f7e2df1e52bc', 'detail': 1, 'uid': 'a78c973319a0f7e2df1e52bc', 'detail_info': {'tag': '文化传媒;广播电视', 'type': 'enterprise', 'detail_url': 'http://api.map.baidu.com/place/detail?uid=a78c973319a0f7e2df1e52bc&output=html&source=placeapi_v2', 'children': []}}"
"{'name': '陕西弹指影音文化传播有限公司', 'location': {'lat': 34.251072, 'lng': 108.944982}, 'address': '朱雀大街北段金牛锅炉大厦1806室', 'province': '陕西省', 'city': '西安市', 'area': '碑林区', 'street_id': 'a78c973319a0f7e2df1e52bc', 'detail': 1, 'uid': 'a78c973319a0f7e2df1e52bc', 'detail_info': {'tag': '文化传媒;广播电视', 'type': 'enterprise', 'detail_url': 'http://api.map.baidu.com/place/detail?uid=a78c973319a0f7e2df1e52bc&output=html&source=placeapi_v2', 'children': []}}"
西安盛世霓裳汉文化传播有限公司,108.9374718873569,34.23968444706597,d9c1eccacc4c505dc17da2d8,"{'name': '西安盛世霓裳汉文化传播有限公司', 'location': {'lat': 34.244287, 'lng': 108.948582}, 'address': '陕西省西安市碑林区荐福寺路', 'province': '陕西省', 'city': '西安市', 'area': '碑林区', 'detail': 1, 'uid': 'd9c1eccacc4c505dc17da2d8', 'detail_info': {'tag': '文化传媒;其他', 'type': 'enterprise', 'detail_url': 'http://api.map.baidu.com/place/detail?uid=d9c1eccacc4c505dc17da2d8&output=html&source=placeapi_v2', 'comment_num': '1', 'children': []}}"
"{'name': '西安盛世霓裳汉文化传播有限公司', 'location': {'lat': 34.244287, 'lng': 108.948582}, 'address': '陕西省西安市碑林区荐福寺路', 'province': '陕西省', 'city': '西安市', 'area': '碑林区', 'detail': 1, 'uid': 'd9c1eccacc4c505dc17da2d8', 'detail_info': {'tag': '文化传媒;其他', 'type': 'enterprise', 'detail_url': 'http://api.map.baidu.com/place/detail?uid=d9c1eccacc4c505dc17da2d8&output=html&source=placeapi_v2', 'comment_num': '1', 'children': []}}"
西安瑞科广告文化传播有限公司,108.93906003838867,34.23499166463063,4a08e941c15a7f01f82213a7,"{'name': '西安瑞科广告文化传播有限公司', 'location': {'lat': 34.239617, 'lng': 108.950169}, 'address': '长安北路14号省体育场体育宾馆5F', 'province': '陕西省', 'city': '西安市', 'area': '碑林区', 'street_id': '4a08e941c15a7f01f82213a7', 'detail': 1, 'uid': '4a08e941c15a7f01f82213a7', 'detail_info': {'tag': '文化传媒;其他', 'type': 'enterprise', 'detail_url': 'http://api.map.baidu.com/place/detail?uid=4a08e941c15a7f01f82213a7&output=html&source=placeapi_v2', 'price': '0.0', 'children': []}}"
"{'name': '西安瑞科广告文化传播有限公司', 'location': {'lat': 34.239617, 'lng': 108.950169}, 'address': '长安北路14号省体育场体育宾馆5F', 'province': '陕西省', 'city': '西安市', 'area': '碑林区', 'street_id': '4a08e941c15a7f01f82213a7', 'detail': 1, 'uid': '4a08e941c15a7f01f82213a7', 'detail_info': {'tag': '文化传媒;其他', 'type': 'enterprise', 'detail_url': 'http://api.map.baidu.com/place/detail?uid=4a08e941c15a7f01f82213a7&output=html&source=placeapi_v2', 'price': '0.0', 'children': []}}"
西安富克斯语言文化传播有限公司,108.89507908018318,34.24182611270043,3453e17ab5003c9f8bf15d7c,"{'name': '西安富克斯语言文化传播有限公司', 'location': {'lat': 34.245873, 'lng': 108.906282}, 'address': '陕西省西安市雁塔区高新三路橙仕空间B503室', 'province': '陕西省', 'city': '西安市', 'area': '雁塔区', 'street_id': '3453e17ab5003c9f8bf15d7c', 'detail': 1, 'uid': '3453e17ab5003c9f8bf15d7c', 'detail_info': {'tag': '文化传媒;其他', 'navi_location': {'lng': 108.9071366251, 'lat': 34.245638552687}, 'type': 'enterprise', 'detail_url': 'http://api.map.baidu.com/place/detail?uid=3453e17ab5003c9f8bf15d7c&output=html&source=placeapi_v2', 'children': []}}"
"{'name': '西安富克斯语言文化传播有限公司', 'location': {'lat': 34.245873, 'lng': 108.906282}, 'address': '陕西省西安市雁塔区高新三路橙仕空间B503室', 'province': '陕西省', 'city': '西安市', 'area': '雁塔区', 'street_id': '3453e17ab5003c9f8bf15d7c', 'detail': 1, 'uid': '3453e17ab5003c9f8bf15d7c', 'detail_info': {'tag': '文化传媒;其他', 'navi_location': {'lng': 108.9071366251, 'lat': 34.245638552687}, 'type': 'enterprise', 'detail_url': 'http://api.map.baidu.com/place/detail?uid=3453e17ab5003c9f8bf15d7c&output=html&source=placeapi_v2', 'children': []}}"
西安临风易创文化传播有限公司,108.9174862999686,34.265712145597135,1f509601ac7f1e49a0acc440,"{'name': '西安临风易创文化传播有限公司', 'location': {'lat': 34.269967, 'lng': 108.928634}, 'address': '环城西路北段240号鑫盛大厦A708', 'province': '陕西省', 'city': '西安市', 'area': '莲湖区', 'street_id': '1f509601ac7f1e49a0acc440', 'detail': 1, 'uid': '1f509601ac7f1e49a0acc440', 'detail_info': {'tag': '文化传媒;其他', 'type': 'enterprise', 'detail_url': 'http://api.map.baidu.com/place/detail?uid=1f509601ac7f1e49a0acc440&output=html&source=placeapi_v2', 'children': []}}"
"{'name': '西安临风易创文化传播有限公司', 'location': {'lat': 34.269967, 'lng': 108.928634}, 'address': '环城西路北段240号鑫盛大厦A708', 'province': '陕西省', 'city': '西安市', 'area': '莲湖区', 'street_id': '1f509601ac7f1e49a0acc440', 'detail': 1, 'uid': '1f509601ac7f1e49a0acc440', 'detail_info': {'tag': '文化传媒;其他', 'type': 'enterprise', 'detail_url': 'http://api.map.baidu.com/place/detail?uid=1f509601ac7f1e49a0acc440&output=html&source=placeapi_v2', 'children': []}}"
西安雄川广告文化传播有限公司,108.92192593863122,34.23675021797481,af1cc07a72ed3a0c0f0a7025,"{'name': '西安雄川广告文化传播有限公司', 'location': {'lat': 34.241078, 'lng': 108.933079}, 'address': '陕西省西安市碑林区西何家村14凯旋城', 'province': '陕西省', 'city': '西安市', 'area': '碑林区', 'street_id': 'af1cc07a72ed3a0c0f0a7025', 'detail': 1, 'uid': 'af1cc07a72ed3a0c0f0a7025', 'detail_info': {'tag': '文化传媒;其他', 'type': 'enterprise', 'detail_url': 'http://api.map.baidu.com/place/detail?uid=af1cc07a72ed3a0c0f0a7025&output=html&source=placeapi_v2', 'children': []}}"
"{'name': '西安雄川广告文化传播有限公司', 'location': {'lat': 34.241078, 'lng': 108.933079}, 'address': '陕西省西安市碑林区西何家村14凯旋城', 'province': '陕西省', 'city': '西安市', 'area': '碑林区', 'street_id': 'af1cc07a72ed3a0c0f0a7025', 'detail': 1, 'uid': 'af1cc07a72ed3a0c0f0a7025', 'detail_info': {'tag': '文化传媒;其他', 'type': 'enterprise', 'detail_url': 'http://api.map.baidu.com/place/detail?uid=af1cc07a72ed3a0c0f0a7025&output=html&source=placeapi_v2', 'children': []}}"
陕西巨凯广告文化传播有限公司,108.89256218036502,34.24574664829544,84b4373bf9ac31203586f41b,"{'name': '陕西巨凯广告文化传播有限公司', 'location': {'lat': 34.249798, 'lng': 108.903761}, 'address': '南二环西段九座花园', 'province': '陕西省', 'city': '西安市', 'area': '雁塔区', 'street_id': '84b4373bf9ac31203586f41b', 'detail': 1, 'uid': '84b4373bf9ac31203586f41b', 'detail_info': {'tag': '文化传媒;其他', 'type': 'enterprise', 'detail_url': 'http://api.map.baidu.com/place/detail?uid=84b4373bf9ac31203586f41b&output=html&source=placeapi_v2', 'children': []}}"
"{'name': '陕西巨凯广告文化传播有限公司', 'location': {'lat': 34.249798, 'lng': 108.903761}, 'address': '南二环西段九座花园', 'province': '陕西省', 'city': '西安市', 'area': '雁塔区', 'street_id': '84b4373bf9ac31203586f41b', 'detail': 1, 'uid': '84b4373bf9ac31203586f41b', 'detail_info': {'tag': '文化传媒;其他', 'type': 'enterprise', 'detail_url': 'http://api.map.baidu.com/place/detail?uid=84b4373bf9ac31203586f41b&output=html&source=placeapi_v2', 'children': []}}"
西安天惠文化传播广告有限公司,108.89211190501877,34.24606530808746,54ba5c1071f3564d2b06ce4a,"{'name': '西安天惠文化传播广告有限公司', 'location': {'lat': 34.250118, 'lng': 108.90331}, 'address': '二环南路西段208号捷瑞大厦12层-6', 'province': '陕西省', 'city': '西安市', 'area': '雁塔区', 'street_id': '54ba5c1071f3564d2b06ce4a', 'detail': 1, 'uid': '54ba5c1071f3564d2b06ce4a', 'detail_info': {'tag': '文化传媒;其他', 'type': 'enterprise', 'detail_url': 'http://api.map.baidu.com/place/detail?uid=54ba5c1071f3564d2b06ce4a&output=html&source=placeapi_v2', 'children': []}}"
"{'name': '西安天惠文化传播广告有限公司', 'location': {'lat': 34.250118, 'lng': 108.90331}, 'address': '二环南路西段208号捷瑞大厦12层-6', 'province': '陕西省', 'city': '西安市', 'area': '雁塔区', 'street_id': '54ba5c1071f3564d2b06ce4a', 'detail': 1, 'uid': '54ba5c1071f3564d2b06ce4a', 'detail_info': {'tag': '文化传媒;其他', 'type': 'enterprise', 'detail_url': 'http://api.map.baidu.com/place/detail?uid=54ba5c1071f3564d2b06ce4a&output=html&source=placeapi_v2', 'children': []}}"
西安飞梦体育文化传播有限公司,108.92716155949172,34.234040674509785,b487168a3537b12b26e0a037,"{'name': '西安飞梦体育文化传播有限公司', 'location': {'lat': 34.238463, 'lng': 108.938298}, 'address': '含光路3513军工社区', 'province': '陕西省', 'city': '西安市', 'area': '碑林区', 'street_id': 'b487168a3537b12b26e0a037', 'detail': 1, 'uid': 'b487168a3537b12b26e0a037', 'detail_info': {'tag': '文化传媒;其他', 'type': 'enterprise', 'detail_url': 'http://api.map.baidu.com/place/detail?uid=b487168a3537b12b26e0a037&output=html&source=placeapi_v2', 'children': []}}"
"{'name': '西安飞梦体育文化传播有限公司', 'location': {'lat': 34.238463, 'lng': 108.938298}, 'address': '含光路3513军工社区', 'province': '陕西省', 'city': '西安市', 'area': '碑林区', 'street_id': 'b487168a3537b12b26e0a037', 'detail': 1, 'uid': 'b487168a3537b12b26e0a037', 'detail_info': {'tag': '文化传媒;其他', 'type': 'enterprise', 'detail_url': 'http://api.map.baidu.com/place/detail?uid=b487168a3537b12b26e0a037&output=html&source=placeapi_v2', 'children': []}}"
西安中际广告文化传播有限公司,108.89681576731644,34.23511399313284,ec67a393b3f4c7f451e5c583,"{'name': '西安中际广告文化传播有限公司', 'location': {'lat': 34.23916, 'lng': 108.908021}, 'address': '西安高新技术产业开发区科技路37号海星城市广场B座14层', 'province': '陕西省', 'city': '西安市', 'area': '雁塔区', 'detail': 1, 'uid': 'ec67a393b3f4c7f451e5c583', 'detail_info': {'tag': '文化传媒;其他', 'type': 'enterprise', 'detail_url': 'http://api.map.baidu.com/place/detail?uid=ec67a393b3f4c7f451e5c583&output=html&source=placeapi_v2', 'children': []}}"
"{'name': '西安中际广告文化传播有限公司', 'location': {'lat': 34.23916, 'lng': 108.908021}, 'address': '西安高新技术产业开发区科技路37号海星城市广场B座14层', 'province': '陕西省', 'city': '西安市', 'area': '雁塔区', 'detail': 1, 'uid': 'ec67a393b3f4c7f451e5c583', 'detail_info': {'tag': '文化传媒;其他', 'type': 'enterprise', 'detail_url': 'http://api.map.baidu.com/place/detail?uid=ec67a393b3f4c7f451e5c583&output=html&source=placeapi_v2', 'children': []}}"
陕西醉丝路广告文化传播有限公司,108.93319536780653,34.21876830376041,5543b6260f62adf7cb213dd0,"{'name': '陕西醉丝路广告文化传播有限公司', 'location': {'lat': 34.223292, 'lng': 108.94431}, 'address': '朱雀大街132号1幢2单元22702室', 'province': '陕西省', 'city': '西安市', 'area': '雁塔区', 'street_id': '5543b6260f62adf7cb213dd0', 'detail': 1, 'uid': '5543b6260f62adf7cb213dd0', 'detail_info': {'tag': '文化传媒;其他', 'type': 'enterprise', 'detail_url': 'http://api.map.baidu.com/place/detail?uid=5543b6260f62adf7cb213dd0&output=html&source=placeapi_v2', 'price': '0.0', 'children': []}}"
"{'name': '陕西醉丝路广告文化传播有限公司', 'location': {'lat': 34.223292, 'lng': 108.94431}, 'address': '朱雀大街132号1幢2单元22702室', 'province': '陕西省', 'city': '西安市', 'area': '雁塔区', 'street_id': '5543b6260f62adf7cb213dd0', 'detail': 1, 'uid': '5543b6260f62adf7cb213dd0', 'detail_info': {'tag': '文化传媒;其他', 'type': 'enterprise', 'detail_url': 'http://api.map.baidu.com/place/detail?uid=5543b6260f62adf7cb213dd0&output=html&source=placeapi_v2', 'price': '0.0', 'children': []}}"
陕西天方广告文化传播有限公司,108.93290797241661,34.1938772291747,e6ae1fc3e2642ed9744ff138,"{'name': '陕西天方广告文化传播有限公司', 'location': {'lat': 34.19838, 'lng': 108.943999}, 'address': '西安市雁塔区长安南路紫郡长安A区', 'province': '陕西省', 'city': '西安市', 'area': '雁塔区', 'street_id': 'e6ae1fc3e2642ed9744ff138', 'detail': 1, 'uid': 'e6ae1fc3e2642ed9744ff138', 'detail_info': {'tag': '文化传媒;其他', 'type': 'enterprise', 'detail_url': 'http://api.map.baidu.com/place/detail?uid=e6ae1fc3e2642ed9744ff138&output=html&source=placeapi_v2', 'children': []}}"
"{'name': '陕西天方广告文化传播有限公司', 'location': {'lat': 34.19838, 'lng': 108.943999}, 'address': '西安市雁塔区长安南路紫郡长安A区', 'province': '陕西省', 'city': '西安市', 'area': '雁塔区', 'street_id': 'e6ae1fc3e2642ed9744ff138', 'detail': 1, 'uid': 'e6ae1fc3e2642ed9744ff138', 'detail_info': {'tag': '文化传媒;其他', 'type': 'enterprise', 'detail_url': 'http://api.map.baidu.com/place/detail?uid=e6ae1fc3e2642ed9744ff138&output=html&source=placeapi_v2', 'children': []}}"
西安小明出趣文化传播有限公司,108.93634104683701,34.223654171000156,246b6852ac08e48bf82d615f,"{'name': '西安小明出趣文化传播有限公司', 'location': {'lat': 34.228233, 'lng': 108.947452}, 'address': '小寨西路56号皇家公馆第2幢1单元10层11017室', 'province': '陕西省', 'city': '西安市', 'area': '雁塔区', 'street_id': '246b6852ac08e48bf82d615f', 'detail': 1, 'uid': '246b6852ac08e48bf82d615f', 'detail_info': {'tag': '文化传媒;其他', 'type': 'enterprise', 'detail_url': 'http://api.map.baidu.com/place/detail?uid=246b6852ac08e48bf82d615f&output=html&source=placeapi_v2', 'children': []}}"
"{'name': '西安小明出趣文化传播有限公司', 'location': {'lat': 34.228233, 'lng': 108.947452}, 'address': '小寨西路56号皇家公馆第2幢1单元10层11017室', 'province': '陕西省', 'city': '西安市', 'area': '雁塔区', 'street_id': '246b6852ac08e48bf82d615f', 'detail': 1, 'uid': '246b6852ac08e48bf82d615f', 'detail_info': {'tag': '文化传媒;其他', 'type': 'enterprise', 'detail_url': 'http://api.map.baidu.com/place/detail?uid=246b6852ac08e48bf82d615f&output=html&source=placeapi_v2', 'children': []}}"
西安凌恒广告文化传播有限公司,108.9155511026524,34.20408121598095,54260036f7be5c1ba1046445,"{'name': '西安凌恒广告文化传播有限公司', 'location': {'lat': 34.208284, 'lng': 108.926706}, 'address': '电子正街164号怡兴大厦1幢1单元2007室', 'province': '陕西省', 'city': '西安市', 'area': '雁塔区', 'street_id': '54260036f7be5c1ba1046445', 'detail': 1, 'uid': '54260036f7be5c1ba1046445', 'detail_info': {'tag': '文化传媒;其他', 'type': 'enterprise', 'detail_url': 'http://api.map.baidu.com/place/detail?uid=54260036f7be5c1ba1046445&output=html&source=placeapi_v2', 'price': '0.0', 'children': []}}"
"{'name': '西安凌恒广告文化传播有限公司', 'location': {'lat': 34.208284, 'lng': 108.926706}, 'address': '电子正街164号怡兴大厦1幢1单元2007室', 'province': '陕西省', 'city': '西安市', 'area': '雁塔区', 'street_id': '54260036f7be5c1ba1046445', 'detail': 1, 'uid': '54260036f7be5c1ba1046445', 'detail_info': {'tag': '文化传媒;其他', 'type': 'enterprise', 'detail_url': 'http://api.map.baidu.com/place/detail?uid=54260036f7be5c1ba1046445&output=html&source=placeapi_v2', 'price': '0.0', 'children': []}}"
西安这礼广告文化传播有限公司,108.91871952336628,34.223534502887304,96242657b1ed8346c6effb6a,"{'name': '西安这礼广告文化传播有限公司', 'location': {'lat': 34.227801, 'lng': 108.929881}, 'address': '吉祥路84号豪盛时代A幢3单元11层31102室', 'province': '陕西省', 'city': '西安市', 'area': '雁塔区', 'street_id': '96242657b1ed8346c6effb6a', 'detail': 1, 'uid': '96242657b1ed8346c6effb6a', 'detail_info': {'tag': '文化传媒;其他', 'type': 'enterprise', 'detail_url': 'http://api.map.baidu.com/place/detail?uid=96242657b1ed8346c6effb6a&output=html&source=placeapi_v2', 'children': []}}"
"{'name': '西安这礼广告文化传播有限公司', 'location': {'lat': 34.227801, 'lng': 108.929881}, 'address': '吉祥路84号豪盛时代A幢3单元11层31102室', 'province': '陕西省', 'city': '西安市', 'area': '雁塔区', 'street_id': '96242657b1ed8346c6effb6a', 'detail': 1, 'uid': '96242657b1ed8346c6effb6a', 'detail_info': {'tag': '文化传媒;其他', 'type': 'enterprise', 'detail_url': 'http://api.map.baidu.com/place/detail?uid=96242657b1ed8346c6effb6a&output=html&source=placeapi_v2', 'children': []}}"
西安创鼎广告文化传播有限公司,108.90096246690236,34.221788039655124,c11b30863cd3aadaa20464cc,"{'name': '西安创鼎广告文化传播有限公司', 'location': {'lat': 34.225842, 'lng': 108.912163}, 'address': '甘家寨东一排1号楼3单元', 'province': '陕西省', 'city': '西安市', 'area': '雁塔区', 'street_id': 'c11b30863cd3aadaa20464cc', 'telephone': '(029)81887301', 'detail': 1, 'uid': 'c11b30863cd3aadaa20464cc', 'detail_info': {'tag': '文化传媒;其他', 'type': 'enterprise', 'detail_url': 'http://api.map.baidu.com/place/detail?uid=c11b30863cd3aadaa20464cc&output=html&source=placeapi_v2', 'children': []}}"
"{'name': '西安创鼎广告文化传播有限公司', 'location': {'lat': 34.225842, 'lng': 108.912163}, 'address': '甘家寨东一排1号楼3单元', 'province': '陕西省', 'city': '西安市', 'area': '雁塔区', 'street_id': 'c11b30863cd3aadaa20464cc', 'telephone': '(029)81887301', 'detail': 1, 'uid': 'c11b30863cd3aadaa20464cc', 'detail_info': {'tag': '文化传媒;其他', 'type': 'enterprise', 'detail_url': 'http://api.map.baidu.com/place/detail?uid=c11b30863cd3aadaa20464cc&output=html&source=placeapi_v2', 'children': []}}"
西安依恩广告文化传播有限公司,108.91310288598667,34.20602881086157,88392a3ec888bf8e78f796a3,"{'name': '西安依恩广告文化传播有限公司', 'location': {'lat': 34.210196, 'lng': 108.924267}, 'address': '陕西省西安市雁塔区电子四路南100米', 'province': '陕西省', 'city': '西安市', 'area': '雁塔区', 'street_id': '88392a3ec888bf8e78f796a3', 'telephone': '(029)89185418,18135666871', 'detail': 1, 'uid': '88392a3ec888bf8e78f796a3', 'detail_info': {'tag': '文化传媒;其他', 'type': 'enterprise', 'detail_url': 'http://api.map.baidu.com/place/detail?uid=88392a3ec888bf8e78f796a3&output=html&source=placeapi_v2', 'children': []}}"
"{'name': '西安依恩广告文化传播有限公司', 'location': {'lat': 34.210196, 'lng': 108.924267}, 'address': '陕西省西安市雁塔区电子四路南100米', 'province': '陕西省', 'city': '西安市', 'area': '雁塔区', 'street_id': '88392a3ec888bf8e78f796a3', 'telephone': '(029)89185418,18135666871', 'detail': 1, 'uid': '88392a3ec888bf8e78f796a3', 'detail_info': {'tag': '文化传媒;其他', 'type': 'enterprise', 'detail_url': 'http://api.map.baidu.com/place/detail?uid=88392a3ec888bf8e78f796a3&output=html&source=placeapi_v2', 'children': []}}"
亿德语言文化传播有限责任公司,108.90631363998524,34.20735661742313,fb10f41ab92dea1235b06c0b,"{'name': '亿德语言文化传播有限责任公司', 'location': {'lat': 34.211442, 'lng': 108.917495}, 'address': '陕西省西安市雁塔区西京三号2栋11层1102号', 'province': '陕西省', 'city': '西安市', 'area': '雁塔区', 'street_id': 'fb10f41ab92dea1235b06c0b', 'detail': 1, 'uid': 'fb10f41ab92dea1235b06c0b', 'detail_info': {'tag': '文化传媒;广播电视', 'type': 'enterprise', 'detail_url': 'http://api.map.baidu.com/place/detail?uid=fb10f41ab92dea1235b06c0b&output=html&source=placeapi_v2', 'price': '0.0', 'children': []}}"
"{'name': '亿德语言文化传播有限责任公司', 'location': {'lat': 34.211442, 'lng': 108.917495}, 'address': '陕西省西安市雁塔区西京三号2栋11层1102号', 'province': '陕西省', 'city': '西安市', 'area': '雁塔区', 'street_id': 'fb10f41ab92dea1235b06c0b', 'detail': 1, 'uid': 'fb10f41ab92dea1235b06c0b', 'detail_info': {'tag': '文化传媒;广播电视', 'type': 'enterprise', 'detail_url': 'http://api.map.baidu.com/place/detail?uid=fb10f41ab92dea1235b06c0b&output=html&source=placeapi_v2', 'price': '0.0', 'children': []}}"
西安蓝音广告文化传播有限公司,108.86923078997567,34.241683210229006,9db451e5bbec5103df1e52fc,"{'name': '西安蓝音广告文化传播有限公司', 'location': {'lat': 34.246007, 'lng': 108.880355}, 'address': '科技路西口枫韵蓝湾商业街北108', 'province': '陕西省', 'city': '西安市', 'area': '雁塔区', 'street_id': '9db451e5bbec5103df1e52fc', 'detail': 1, 'uid': '9db451e5bbec5103df1e52fc', 'detail_info': {'tag': '文化传媒;其他', 'type': 'enterprise', 'detail_url': 'http://api.map.baidu.com/place/detail?uid=9db451e5bbec5103df1e52fc&output=html&source=placeapi_v2', 'price': '0.0', 'children': []}}"
"{'name': '西安蓝音广告文化传播有限公司', 'location': {'lat': 34.246007, 'lng': 108.880355}, 'address': '科技路西口枫韵蓝湾商业街北108', 'province': '陕西省', 'city': '西安市', 'area': '雁塔区', 'street_id': '9db451e5bbec5103df1e52fc', 'detail': 1, 'uid': '9db451e5bbec5103df1e52fc', 'detail_info': {'tag': '文化传媒;其他', 'type': 'enterprise', 'detail_url': 'http://api.map.baidu.com/place/detail?uid=9db451e5bbec5103df1e52fc&output=html&source=placeapi_v2', 'price': '0.0', 'children': []}}"
西安乔迪艺术文化传播有限公司,108.86376050492704,34.24686528519086,48f6c67154a828b8d618b781,"{'name': '西安乔迪艺术文化传播有限公司', 'location': {'lat': 34.25129, 'lng': 108.874857}, 'address': '大寨路与昆明池路交叉口西100米', 'province': '陕西省', 'city': '西安市', 'area': '雁塔区', 'street_id': '48f6c67154a828b8d618b781', 'detail': 1, 'uid': '48f6c67154a828b8d618b781', 'detail_info': {'tag': '文化传媒;其他', 'type': 'enterprise', 'detail_url': 'http://api.map.baidu.com/place/detail?uid=48f6c67154a828b8d618b781&output=html&source=placeapi_v2', 'children': []}}"
"{'name': '西安乔迪艺术文化传播有限公司', 'location': {'lat': 34.25129, 'lng': 108.874857}, 'address': '大寨路与昆明池路交叉口西100米', 'province': '陕西省', 'city': '西安市', 'area': '雁塔区', 'street_id': '48f6c67154a828b8d618b781', 'detail': 1, 'uid': '48f6c67154a828b8d618b781', 'detail_info': {'tag': '文化传媒;其他', 'type': 'enterprise', 'detail_url': 'http://api.map.baidu.com/place/detail?uid=48f6c67154a828b8d618b781&output=html&source=placeapi_v2', 'children': []}}"
西安安灵轩广告文化传播有限公司,108.83910693022356,34.2455016422654,59e6b6dcddf1b8d3f8dc85ed,"{'name': '西安安灵轩广告文化传播有限公司', 'location': {'lat': 34.250257, 'lng': 108.850144}, 'address': '大寨路石桥欣苑8号楼3单元1801', 'province': '陕西省', 'city': '西安市', 'area': '雁塔区', 'street_id': '59e6b6dcddf1b8d3f8dc85ed', 'detail': 1, 'uid': '59e6b6dcddf1b8d3f8dc85ed', 'detail_info': {'tag': '文化传媒;其他', 'type': 'enterprise', 'detail_url': 'http://api.map.baidu.com/place/detail?uid=59e6b6dcddf1b8d3f8dc85ed&output=html&source=placeapi_v2', 'children': []}}"
"{'name': '西安安灵轩广告文化传播有限公司', 'location': {'lat': 34.250257, 'lng': 108.850144}, 'address': '大寨路石桥欣苑8号楼3单元1801', 'province': '陕西省', 'city': '西安市', 'area': '雁塔区', 'street_id': '59e6b6dcddf1b8d3f8dc85ed', 'detail': 1, 'uid': '59e6b6dcddf1b8d3f8dc85ed', 'detail_info': {'tag': '文化传媒;其他', 'type': 'enterprise', 'detail_url': 'http://api.map.baidu.com/place/detail?uid=59e6b6dcddf1b8d3f8dc85ed&output=html&source=placeapi_v2', 'children': []}}"
西安六和园会展文化传播有限公司,108.87612240191386,34.183621893077564,70cb8d80c475a6b34d2fdfcd,"{'name': '西安六和园会展文化传播有限公司', 'location': {'lat': 34.1878, 'lng': 108.88724}, 'address': '高新区锦业二路与丈八二路十字东南角逸翠尚府南区1-70113', 'province': '陕西省', 'city': '西安市', 'area': '雁塔区', 'street_id': '70cb8d80c475a6b34d2fdfcd', 'detail': 1, 'uid': '70cb8d80c475a6b34d2fdfcd', 'detail_info': {'tag': '文化传媒;其他', 'type': 'enterprise', 'detail_url': 'http://api.map.baidu.com/place/detail?uid=70cb8d80c475a6b34d2fdfcd&output=html&source=placeapi_v2', 'children': []}}"
"{'name': '西安六和园会展文化传播有限公司', 'location': {'lat': 34.1878, 'lng': 108.88724}, 'address': '高新区锦业二路与丈八二路十字东南角逸翠尚府南区1-70113', 'province': '陕西省', 'city': '西安市', 'area': '雁塔区', 'street_id': '70cb8d80c475a6b34d2fdfcd', 'detail': 1, 'uid': '70cb8d80c475a6b34d2fdfcd', 'detail_info': {'tag': '文化传媒;其他', 'type': 'enterprise', 'detail_url': 'http://api.map.baidu.com/place/detail?uid=70cb8d80c475a6b34d2fdfcd&output=html&source=placeapi_v2', 'children': []}}"
西安梦美广告文化传播有限公司,108.88035198994467,34.178157308086114,91f3f53ebdc8942fc7f50d66,"{'name': '西安梦美广告文化传播有限公司', 'location': {'lat': 34.182273, 'lng': 108.891483}, 'address': '陕西省西安市雁塔区G210(西万路)', 'province': '陕西省', 'city': '西安市', 'area': '雁塔区', 'detail': 1, 'uid': '91f3f53ebdc8942fc7f50d66', 'detail_info': {'tag': '文化传媒;其他', 'type': 'enterprise', 'detail_url': 'http://api.map.baidu.com/place/detail?uid=91f3f53ebdc8942fc7f50d66&output=html&source=placeapi_v2', 'children': []}}"
"{'name': '西安梦美广告文化传播有限公司', 'location': {'lat': 34.182273, 'lng': 108.891483}, 'address': '陕西省西安市雁塔区G210(西万路)', 'province': '陕西省', 'city': '西安市', 'area': '雁塔区', 'detail': 1, 'uid': '91f3f53ebdc8942fc7f50d66', 'detail_info': {'tag': '文化传媒;其他', 'type': 'enterprise', 'detail_url': 'http://api.map.baidu.com/place/detail?uid=91f3f53ebdc8942fc7f50d66&output=html&source=placeapi_v2', 'children': []}}"
西安鼓唐企业文化传播有限公司,108.86402793171892,34.17099389818922,2000b2509dc32880eb12e4dd,"{'name': '西安鼓唐企业文化传播有限公司', 'location': {'lat': 34.175378, 'lng': 108.875087}, 'address': '长安区阳光天地购物中心48-50302号', 'province': '陕西省', 'city': '西安市', 'area': '长安区', 'street_id': '2000b2509dc32880eb12e4dd', 'detail': 1, 'uid': '2000b2509dc32880eb12e4dd', 'detail_info': {'tag': '文化传媒;其他', 'type': 'enterprise', 'detail_url': 'http://api.map.baidu.com/place/detail?uid=2000b2509dc32880eb12e4dd&output=html&source=placeapi_v2', 'price': '0.0', 'children': []}}"
"{'name': '西安鼓唐企业文化传播有限公司', 'location': {'lat': 34.175378, 'lng': 108.875087}, 'address': '长安区阳光天地购物中心48-50302号', 'province': '陕西省', 'city': '西安市', 'area': '长安区', 'street_id': '2000b2509dc32880eb12e4dd', 'detail': 1, 'uid': '2000b2509dc32880eb12e4dd', 'detail_info': {'tag': '文化传媒;其他', 'type': 'enterprise', 'detail_url': 'http://api.map.baidu.com/place/detail?uid=2000b2509dc32880eb12e4dd&output=html&source=placeapi_v2', 'price': '0.0', 'children': []}}"
陕西和合智业文化传播有限公司,108.93267650104238,34.252156883197564,f18facb0269a8379095cb38d,"{'name': '陕西和合智业文化传播有限公司', 'location': {'lat': 34.256682, 'lng': 108.943789}, 'address': '环城南路西段33号旺园大厦A座1901室', 'province': '陕西省', 'city': '西安市', 'area': '碑林区', 'street_id': 'f18facb0269a8379095cb38d', 'detail': 1, 'uid': 'f18facb0269a8379095cb38d', 'detail_info': {'tag': '文化传媒;其他', 'type': 'enterprise', 'detail_url': 'http://api.map.baidu.com/place/detail?uid=f18facb0269a8379095cb38d&output=html&source=placeapi_v2', 'children': []}}"
"{'name': '陕西和合智业文化传播有限公司', 'location': {'lat': 34.256682, 'lng': 108.943789}, 'address': '环城南路西段33号旺园大厦A座1901室', 'province': '陕西省', 'city': '西安市', 'area': '碑林区', 'street_id': 'f18facb0269a8379095cb38d', 'detail': 1, 'uid': 'f18facb0269a8379095cb38d', 'detail_info': {'tag': '文化传媒;其他', 'type': 'enterprise', 'detail_url': 'http://api.map.baidu.com/place/detail?uid=f18facb0269a8379095cb38d&output=html&source=placeapi_v2', 'children': []}}"
西安亚迪广告文化传播有限公司,108.93479326213993,34.25677633574462,834df85d11bbf4bbf50e77dd,"{'name': '西安亚迪广告文化传播有限公司', 'location': {'lat': 34.261338, 'lng': 108.945897}, 'address': '五味什字69号伟业大厦A-13', 'province': '陕西省', 'city': '西安市', 'area': '碑林区', 'street_id': '834df85d11bbf4bbf50e77dd', 'detail': 1, 'uid': '834df85d11bbf4bbf50e77dd', 'detail_info': {'tag': '文化传媒;其他', 'type': 'enterprise', 'detail_url': 'http://api.map.baidu.com/place/detail?uid=834df85d11bbf4bbf50e77dd&output=html&source=placeapi_v2', 'children': []}}"
"{'name': '西安亚迪广告文化传播有限公司', 'location': {'lat': 34.261338, 'lng': 108.945897}, 'address': '五味什字69号伟业大厦A-13', 'province': '陕西省', 'city': '西安市', 'area': '碑林区', 'street_id': '834df85d11bbf4bbf50e77dd', 'detail': 1, 'uid': '834df85d11bbf4bbf50e77dd', 'detail_info': {'tag': '文化传媒;其他', 'type': 'enterprise', 'detail_url': 'http://api.map.baidu.com/place/detail?uid=834df85d11bbf4bbf50e77dd&output=html&source=placeapi_v2', 'children': []}}"
西安爱诺广告文化传播有限公司,108.9370867555099,34.25225246252288,68c881f3bd6441d6c17da21a,"{'name': '西安爱诺广告文化传播有限公司', 'location': {'lat': 34.256851, 'lng': 108.94819}, 'address': '陕西省西安市碑林区环城南路20号海联大厦10层08', 'province': '陕西省', 'city': '西安市', 'area': '碑林区', 'street_id': '68c881f3bd6441d6c17da21a', 'detail': 1, 'uid': '68c881f3bd6441d6c17da21a', 'detail_info': {'tag': '文化传媒;其他', 'type': 'enterprise', 'detail_url': 'http://api.map.baidu.com/place/detail?uid=68c881f3bd6441d6c17da21a&output=html&source=placeapi_v2', 'children': []}}"
"{'name': '西安爱诺广告文化传播有限公司', 'location': {'lat': 34.256851, 'lng': 108.94819}, 'address': '陕西省西安市碑林区环城南路20号海联大厦10层08', 'province': '陕西省', 'city': '西安市', 'area': '碑林区', 'street_id': '68c881f3bd6441d6c17da21a', 'detail': 1, 'uid': '68c881f3bd6441d6c17da21a', 'detail_info': {'tag': '文化传媒;其他', 'type': 'enterprise', 'detail_url': 'http://api.map.baidu.com/place/detail?uid=68c881f3bd6441d6c17da21a&output=html&source=placeapi_v2', 'children': []}}"
西安清浩广告文化传播有限公司,108.92217989306066,34.23733350281794,97709dd56e48b456eedfcaf4,"{'name': '西安清浩广告文化传播有限公司', 'location': {'lat': 34.241666, 'lng': 108.933332}, 'address': '碑林区太白路立交西荷花园(近红星美凯龙)', 'province': '陕西省', 'city': '西安市', 'area': '碑林区', 'street_id': '97709dd56e48b456eedfcaf4', 'detail': 1, 'uid': '97709dd56e48b456eedfcaf4', 'detail_info': {'tag': '文化传媒;其他', 'type': 'enterprise', 'detail_url': 'http://api.map.baidu.com/place/detail?uid=97709dd56e48b456eedfcaf4&output=html&source=placeapi_v2', 'overall_rating': '2.0', 'children': []}}"
"{'name': '西安清浩广告文化传播有限公司', 'location': {'lat': 34.241666, 'lng': 108.933332}, 'address': '碑林区太白路立交西荷花园(近红星美凯龙)', 'province': '陕西省', 'city': '西安市', 'area': '碑林区', 'street_id': '97709dd56e48b456eedfcaf4', 'detail': 1, 'uid': '97709dd56e48b456eedfcaf4', 'detail_info': {'tag': '文化传媒;其他', 'type': 'enterprise', 'detail_url': 'http://api.map.baidu.com/place/detail?uid=97709dd56e48b456eedfcaf4&output=html&source=placeapi_v2', 'overall_rating': '2.0', 'children': []}}"
西安燕莎广告文化传播有限公司,108.89251112488657,34.24720826851591,fabd4243c0903f584251c0a2,"{'name': '西安燕莎广告文化传播有限公司', 'location': {'lat': 34.25126, 'lng': 108.903709}, 'address': '二环南路西段397号馨泰花园1栋2单元', 'province': '陕西省', 'city': '西安市', 'area': '莲湖区', 'street_id': 'fabd4243c0903f584251c0a2', 'detail': 1, 'uid': 'fabd4243c0903f584251c0a2', 'detail_info': {'tag': '文化传媒;其他', 'type': 'enterprise', 'detail_url': 'http://api.map.baidu.com/place/detail?uid=fabd4243c0903f584251c0a2&output=html&source=placeapi_v2', 'price': '0.0', 'children': []}}"
"{'name': '西安燕莎广告文化传播有限公司', 'location': {'lat': 34.25126, 'lng': 108.903709}, 'address': '二环南路西段397号馨泰花园1栋2单元', 'province': '陕西省', 'city': '西安市', 'area': '莲湖区', 'street_id': 'fabd4243c0903f584251c0a2', 'detail': 1, 'uid': 'fabd4243c0903f584251c0a2', 'detail_info': {'tag': '文化传媒;其他', 'type': 'enterprise', 'detail_url': 'http://api.map.baidu.com/place/detail?uid=fabd4243c0903f584251c0a2&output=html&source=placeapi_v2', 'price': '0.0', 'children': []}}"
西安圣影广告文化传播有限公司,108.89563868456149,34.24154318791118,d07dd235d27e6d72306212f4,"{'name': '西安圣影广告文化传播有限公司', 'location': {'lat': 34.24559, 'lng': 108.906842}, 'address': '高新三路西高智能大厦801室', 'province': '陕西省', 'city': '西安市', 'area': '雁塔区', 'street_id': 'd07dd235d27e6d72306212f4', 'detail': 1, 'uid': 'd07dd235d27e6d72306212f4', 'detail_info': {'tag': '文化传媒;其他', 'type': 'enterprise', 'detail_url': 'http://api.map.baidu.com/place/detail?uid=d07dd235d27e6d72306212f4&output=html&source=placeapi_v2', 'price': '0.0', 'overall_rating': '5.0', 'comment_num': '1', 'children': []}}"
"{'name': '西安圣影广告文化传播有限公司', 'location': {'lat': 34.24559, 'lng': 108.906842}, 'address': '高新三路西高智能大厦801室', 'province': '陕西省', 'city': '西安市', 'area': '雁塔区', 'street_id': 'd07dd235d27e6d72306212f4', 'detail': 1, 'uid': 'd07dd235d27e6d72306212f4', 'detail_info': {'tag': '文化传媒;其他', 'type': 'enterprise', 'detail_url': 'http://api.map.baidu.com/place/detail?uid=d07dd235d27e6d72306212f4&output=html&source=placeapi_v2', 'price': '0.0', 'overall_rating': '5.0', 'comment_num': '1', 'children': []}}"
西安盛博广告文化传播有限公司,108.92494396998573,34.26142600656426,4532228a6832825df4b9163b,"{'name': '西安盛博广告文化传播有限公司', 'location': {'lat': 34.265812, 'lng': 108.936071}, 'address': '举人阁大厦912', 'province': '陕西省', 'city': '西安市', 'area': '莲湖区', 'street_id': '4532228a6832825df4b9163b', 'detail': 1, 'uid': '4532228a6832825df4b9163b', 'detail_info': {'tag': '文化传媒;其他', 'type': 'enterprise', 'detail_url': 'http://api.map.baidu.com/place/detail?uid=4532228a6832825df4b9163b&output=html&source=placeapi_v2', 'children': []}}"
"{'name': '西安盛博广告文化传播有限公司', 'location': {'lat': 34.265812, 'lng': 108.936071}, 'address': '举人阁大厦912', 'province': '陕西省', 'city': '西安市', 'area': '莲湖区', 'street_id': '4532228a6832825df4b9163b', 'detail': 1, 'uid': '4532228a6832825df4b9163b', 'detail_info': {'tag': '文化传媒;其他', 'type': 'enterprise', 'detail_url': 'http://api.map.baidu.com/place/detail?uid=4532228a6832825df4b9163b&output=html&source=placeapi_v2', 'children': []}}"
陕西小豌豆演艺文化传播有限公司,108.93840130584722,34.20345617583817,a717fd6a86ee53b608f5ebf0,"{'name': '陕西小豌豆演艺文化传播有限公司', 'location': {'lat': 34.208055, 'lng': 108.949492}, 'address': '长延堡杏园小区11楼2单元11层4号', 'province': '陕西省', 'city': '西安市', 'area': '雁塔区', 'street_id': 'a717fd6a86ee53b608f5ebf0', 'detail': 1, 'uid': 'a717fd6a86ee53b608f5ebf0', 'detail_info': {'tag': '文化传媒;其他', 'type': 'enterprise', 'detail_url': 'http://api.map.baidu.com/place/detail?uid=a717fd6a86ee53b608f5ebf0&output=html&source=placeapi_v2', 'children': []}}"
"{'name': '陕西小豌豆演艺文化传播有限公司', 'location': {'lat': 34.208055, 'lng': 108.949492}, 'address': '长延堡杏园小区11楼2单元11层4号', 'province': '陕西省', 'city': '西安市', 'area': '雁塔区', 'street_id': 'a717fd6a86ee53b608f5ebf0', 'detail': 1, 'uid': 'a717fd6a86ee53b608f5ebf0', 'detail_info': {'tag': '文化传媒;其他', 'type': 'enterprise', 'detail_url': 'http://api.map.baidu.com/place/detail?uid=a717fd6a86ee53b608f5ebf0&output=html&source=placeapi_v2', 'children': []}}"
西安不再企业文化传播有限公司,108.93402046515911,34.20531954803081,bcfcb737d6e5736f0aa8d477,"{'name': '西安不再企业文化传播有限公司', 'location': {'lat': 34.209849, 'lng': 108.945121}, 'address': '陕西省西安市雁塔区朱雀大街明德景园大厦2楼', 'province': '陕西省', 'city': '西安市', 'area': '雁塔区', 'street_id': 'bcfcb737d6e5736f0aa8d477', 'detail': 1, 'uid': 'bcfcb737d6e5736f0aa8d477', 'detail_info': {'tag': '文化传媒;其他', 'type': 'enterprise', 'detail_url': 'http://api.map.baidu.com/place/detail?uid=bcfcb737d6e5736f0aa8d477&output=html&source=placeapi_v2', 'children': []}}"
"{'name': '西安不再企业文化传播有限公司', 'location': {'lat': 34.209849, 'lng': 108.945121}, 'address': '陕西省西安市雁塔区朱雀大街明德景园大厦2楼', 'province': '陕西省', 'city': '西安市', 'area': '雁塔区', 'street_id': 'bcfcb737d6e5736f0aa8d477', 'detail': 1, 'uid': 'bcfcb737d6e5736f0aa8d477', 'detail_info': {'tag': '文化传媒;其他', 'type': 'enterprise', 'detail_url': 'http://api.map.baidu.com/place/detail?uid=bcfcb737d6e5736f0aa8d477&output=html&source=placeapi_v2', 'children': []}}"
陕西月明企划传媒有限责任公司,108.887487618825,34.21885415883232,d55bb87d7d9944b5e9f853ad,"{'name': '陕西月明企划传媒有限责任公司', 'location': {'lat': 34.222921, 'lng': 108.898676}, 'address': '高新区唐延路37号CLASS国际公馆C座2109', 'province': '陕西省', 'city': '西安市', 'area': '雁塔区', 'street_id': 'd55bb87d7d9944b5e9f853ad', 'detail': 1, 'uid': 'd55bb87d7d9944b5e9f853ad', 'detail_info': {'tag': '文化传媒', 'type': 'enterprise', 'detail_url': 'http://api.map.baidu.com/place/detail?uid=d55bb87d7d9944b5e9f853ad&output=html&source=placeapi_v2', 'price': '0.0', 'children': []}}"
"{'name': '陕西月明企划传媒有限责任公司', 'location': {'lat': 34.222921, 'lng': 108.898676}, 'address': '高新区唐延路37号CLASS国际公馆C座2109', 'province': '陕西省', 'city': '西安市', 'area': '雁塔区', 'street_id': 'd55bb87d7d9944b5e9f853ad', 'detail': 1, 'uid': 'd55bb87d7d9944b5e9f853ad', 'detail_info': {'tag': '文化传媒', 'type': 'enterprise', 'detail_url': 'http://api.map.baidu.com/place/detail?uid=d55bb87d7d9944b5e9f853ad&output=html&source=placeapi_v2', 'price': '0.0', 'children': []}}"
西安丽尔广告文化传播有限公司,108.91430153301671,34.20773801590014,cd2a938e1da29ff6095cb3af,"{'name': '西安丽尔广告文化传播有限公司', 'location': {'lat': 34.211924, 'lng': 108.925464}, 'address': '电子正街88号凯悦华庭2-10807室', 'province': '陕西省', 'city': '西安市', 'area': '雁塔区', 'street_id': 'cd2a938e1da29ff6095cb3af', 'detail': 1, 'uid': 'cd2a938e1da29ff6095cb3af', 'detail_info': {'tag': '文化传媒;其他', 'type': 'enterprise', 'detail_url': 'http://api.map.baidu.com/place/detail?uid=cd2a938e1da29ff6095cb3af&output=html&source=placeapi_v2', 'children': []}}"
"{'name': '西安丽尔广告文化传播有限公司', 'location': {'lat': 34.211924, 'lng': 108.925464}, 'address': '电子正街88号凯悦华庭2-10807室', 'province': '陕西省', 'city': '西安市', 'area': '雁塔区', 'street_id': 'cd2a938e1da29ff6095cb3af', 'detail': 1, 'uid': 'cd2a938e1da29ff6095cb3af', 'detail_info': {'tag': '文化传媒;其他', 'type': 'enterprise', 'detail_url': 'http://api.map.baidu.com/place/detail?uid=cd2a938e1da29ff6095cb3af&output=html&source=placeapi_v2', 'children': []}}"
西安体恩广告文化传播有限公司,108.91222345738392,34.20604224000086,52e66f71ac4d9f9804fef57e,"{'name': '西安体恩广告文化传播有限公司', 'location': {'lat': 34.210197, 'lng': 108.92339}, 'address': '电子四路南100米', 'province': '陕西省', 'city': '西安市', 'area': '雁塔区', 'street_id': '52e66f71ac4d9f9804fef57e', 'detail': 1, 'uid': '52e66f71ac4d9f9804fef57e', 'detail_info': {'tag': '文化传媒;其他', 'type': 'enterprise', 'detail_url': 'http://api.map.baidu.com/place/detail?uid=52e66f71ac4d9f9804fef57e&output=html&source=placeapi_v2', 'children': []}}"
"{'name': '西安体恩广告文化传播有限公司', 'location': {'lat': 34.210197, 'lng': 108.92339}, 'address': '电子四路南100米', 'province': '陕西省', 'city': '西安市', 'area': '雁塔区', 'street_id': '52e66f71ac4d9f9804fef57e', 'detail': 1, 'uid': '52e66f71ac4d9f9804fef57e', 'detail_info': {'tag': '文化传媒;其他', 'type': 'enterprise', 'detail_url': 'http://api.map.baidu.com/place/detail?uid=52e66f71ac4d9f9804fef57e&output=html&source=placeapi_v2', 'children': []}}"
西安天杵广告文化传播有限公司,108.91196666537382,34.204257969521215,fcdec9f9965adae090114c83,"{'name': '西安天杵广告文化传播有限公司', 'location': {'lat': 34.208408, 'lng': 108.923132}, 'address': '陕西省西安市雁塔区电子五街', 'province': '陕西省', 'city': '西安市', 'area': '雁塔区', 'street_id': 'fcdec9f9965adae090114c83', 'detail': 1, 'uid': 'fcdec9f9965adae090114c83', 'detail_info': {'tag': '文化传媒;其他', 'type': 'enterprise', 'detail_url': 'http://api.map.baidu.com/place/detail?uid=fcdec9f9965adae090114c83&output=html&source=placeapi_v2', 'children': []}}"
"{'name': '西安天杵广告文化传播有限公司', 'location': {'lat': 34.208408, 'lng': 108.923132}, 'address': '陕西省西安市雁塔区电子五街', 'province': '陕西省', 'city': '西安市', 'area': '雁塔区', 'street_id': 'fcdec9f9965adae090114c83', 'detail': 1, 'uid': 'fcdec9f9965adae090114c83', 'detail_info': {'tag': '文化传媒;其他', 'type': 'enterprise', 'detail_url': 'http://api.map.baidu.com/place/detail?uid=fcdec9f9965adae090114c83&output=html&source=placeapi_v2', 'children': []}}"
西安美森广告文化传播有限公司,108.87545943795922,34.23504560658976,906d4bc428e30c92aecb66fc,"{'name': '西安美森广告文化传播有限公司', 'location': {'lat': 34.239262, 'lng': 108.886613}, 'address': '陕西省西安市雁塔区高新区唐兴路11号东馨花园4号楼7单元102', 'province': '陕西省', 'city': '西安市', 'area': '雁塔区', 'street_id': '906d4bc428e30c92aecb66fc', 'detail': 1, 'uid': '906d4bc428e30c92aecb66fc', 'detail_info': {'tag': '文化传媒;其他', 'navi_location': {'lng': 108.88679920035, 'lat': 34.239064239638}, 'type': 'enterprise', 'detail_url': 'http://api.map.baidu.com/place/detail?uid=906d4bc428e30c92aecb66fc&output=html&source=placeapi_v2', 'comment_num': '1', 'children': []}}"
"{'name': '西安美森广告文化传播有限公司', 'location': {'lat': 34.239262, 'lng': 108.886613}, 'address': '陕西省西安市雁塔区高新区唐兴路11号东馨花园4号楼7单元102', 'province': '陕西省', 'city': '西安市', 'area': '雁塔区', 'street_id': '906d4bc428e30c92aecb66fc', 'detail': 1, 'uid': '906d4bc428e30c92aecb66fc', 'detail_info': {'tag': '文化传媒;其他', 'navi_location': {'lng': 108.88679920035, 'lat': 34.239064239638}, 'type': 'enterprise', 'detail_url': 'http://api.map.baidu.com/place/detail?uid=906d4bc428e30c92aecb66fc&output=html&source=placeapi_v2', 'comment_num': '1', 'children': []}}"
北京丝路千古文化传播有限公司,108.88236327384273,34.19982781603952,0a094feb0847e89eaeb22a38,"{'name': '北京丝路千古文化传播有限公司', 'location': {'lat': 34.203931, 'lng': 108.893519}, 'address': '陕西省西安市雁塔区丈八东路', 'province': '陕西省', 'city': '西安市', 'area': '雁塔区', 'street_id': '0a094feb0847e89eaeb22a38', 'detail': 1, 'uid': '0a094feb0847e89eaeb22a38', 'detail_info': {'tag': '文化传媒;其他', 'type': 'enterprise', 'detail_url': 'http://api.map.baidu.com/place/detail?uid=0a094feb0847e89eaeb22a38&output=html&source=placeapi_v2', 'children': []}}"
"{'name': '北京丝路千古文化传播有限公司', 'location': {'lat': 34.203931, 'lng': 108.893519}, 'address': '陕西省西安市雁塔区丈八东路', 'province': '陕西省', 'city': '西安市', 'area': '雁塔区', 'street_id': '0a094feb0847e89eaeb22a38', 'detail': 1, 'uid': '0a094feb0847e89eaeb22a38', 'detail_info': {'tag': '文化传媒;其他', 'type': 'enterprise', 'detail_url': 'http://api.map.baidu.com/place/detail?uid=0a094feb0847e89eaeb22a38&output=html&source=placeapi_v2', 'children': []}}"
陕西天娱地尚文化传播有限公司,108.88091530364433,34.186101679477794,a5c5fd44570875d50d3ddadc,"{'name': '陕西天娱地尚文化传播有限公司', 'location': {'lat': 34.190214, 'lng': 108.892053}, 'address': '陕西省西安市雁塔区唐延南路i都会3号楼1单元1851室', 'province': '陕西省', 'city': '西安市', 'area': '雁塔区', 'detail': 1, 'uid': 'a5c5fd44570875d50d3ddadc', 'detail_info': {'tag': '文化传媒;其他', 'type': 'enterprise', 'detail_url': 'http://api.map.baidu.com/place/detail?uid=a5c5fd44570875d50d3ddadc&output=html&source=placeapi_v2', 'children': []}}"
"{'name': '陕西天娱地尚文化传播有限公司', 'location': {'lat': 34.190214, 'lng': 108.892053}, 'address': '陕西省西安市雁塔区唐延南路i都会3号楼1单元1851室', 'province': '陕西省', 'city': '西安市', 'area': '雁塔区', 'detail': 1, 'uid': 'a5c5fd44570875d50d3ddadc', 'detail_info': {'tag': '文化传媒;其他', 'type': 'enterprise', 'detail_url': 'http://api.map.baidu.com/place/detail?uid=a5c5fd44570875d50d3ddadc&output=html&source=placeapi_v2', 'children': []}}"
西安邦成广告文化传播有限公司,108.93289899752757,34.25209702092917,71d5333dd52caee930169be9,"{'name': '西安邦成广告文化传播有限公司', 'location': {'lat': 34.256626, 'lng': 108.944011}, 'address': '环城南路西段33号旺园大厦B座4层405', 'province': '陕西省', 'city': '西安市', 'area': '碑林区', 'street_id': '71d5333dd52caee930169be9', 'detail': 1, 'uid': '71d5333dd52caee930169be9', 'detail_info': {'tag': '文化传媒;其他', 'type': 'enterprise', 'detail_url': 'http://api.map.baidu.com/place/detail?uid=71d5333dd52caee930169be9&output=html&source=placeapi_v2', 'children': []}}"
"{'name': '西安邦成广告文化传播有限公司', 'location': {'lat': 34.256626, 'lng': 108.944011}, 'address': '环城南路西段33号旺园大厦B座4层405', 'province': '陕西省', 'city': '西安市', 'area': '碑林区', 'street_id': '71d5333dd52caee930169be9', 'detail': 1, 'uid': '71d5333dd52caee930169be9', 'detail_info': {'tag': '文化传媒;其他', 'type': 'enterprise', 'detail_url': 'http://api.map.baidu.com/place/detail?uid=71d5333dd52caee930169be9&output=html&source=placeapi_v2', 'children': []}}"
西安品臻艺术文化传播有限责任公司,108.93380968999246,34.23210159221278,c7f2545e40123c594d2fdf60,"{'name': '西安品臻艺术文化传播有限责任公司', 'location': {'lat': 34.236642, 'lng': 108.944928}, 'address': '中国西安市南二环西段21号华融国际大厦a座7楼ef06室', 'province': '陕西省', 'city': '西安市', 'area': '碑林区', 'street_id': 'c7f2545e40123c594d2fdf60', 'detail': 1, 'uid': 'c7f2545e40123c594d2fdf60', 'detail_info': {'tag': '文化传媒;其他', 'type': 'enterprise', 'detail_url': 'http://api.map.baidu.com/place/detail?uid=c7f2545e40123c594d2fdf60&output=html&source=placeapi_v2', 'children': []}}"
"{'name': '西安品臻艺术文化传播有限责任公司', 'location': {'lat': 34.236642, 'lng': 108.944928}, 'address': '中国西安市南二环西段21号华融国际大厦a座7楼ef06室', 'province': '陕西省', 'city': '西安市', 'area': '碑林区', 'street_id': 'c7f2545e40123c594d2fdf60', 'detail': 1, 'uid': 'c7f2545e40123c594d2fdf60', 'detail_info': {'tag': '文化传媒;其他', 'type': 'enterprise', 'detail_url': 'http://api.map.baidu.com/place/detail?uid=c7f2545e40123c594d2fdf60&output=html&source=placeapi_v2', 'children': []}}"
西安童领天下艺术文化传播有限公司,108.91901298636682,34.2272057708038,c611adae7f433f3d734b87c6,"{'name': '西安童领天下艺术文化传播有限公司', 'location': {'lat': 34.231479, 'lng': 108.930175}, 'address': '陕西省西安市雁塔区光华路2-10号', 'province': '陕西省', 'city': '西安市', 'area': '雁塔区', 'street_id': 'c611adae7f433f3d734b87c6', 'detail': 1, 'uid': 'c611adae7f433f3d734b87c6', 'detail_info': {'tag': '文化传媒;其他', 'type': 'enterprise', 'detail_url': 'http://api.map.baidu.com/place/detail?uid=c611adae7f433f3d734b87c6&output=html&source=placeapi_v2', 'children': []}}"
"{'name': '西安童领天下艺术文化传播有限公司', 'location': {'lat': 34.231479, 'lng': 108.930175}, 'address': '陕西省西安市雁塔区光华路2-10号', 'province': '陕西省', 'city': '西安市', 'area': '雁塔区', 'street_id': 'c611adae7f433f3d734b87c6', 'detail': 1, 'uid': 'c611adae7f433f3d734b87c6', 'detail_info': {'tag': '文化传媒;其他', 'type': 'enterprise', 'detail_url': 'http://api.map.baidu.com/place/detail?uid=c611adae7f433f3d734b87c6&output=html&source=placeapi_v2', 'children': []}}"
西安年代广告文化传播有限责任公司,108.94080076231113,34.24402268039499,665bfe9580758a6e49fd3f6d,"{'name': '西安年代广告文化传播有限责任公司', 'location': {'lat': 34.248675, 'lng': 108.951905}, 'address': '南关正街中贸广场15号楼2单元2004室', 'province': '陕西省', 'city': '西安市', 'area': '碑林区', 'street_id': '665bfe9580758a6e49fd3f6d', 'detail': 1, 'uid': '665bfe9580758a6e49fd3f6d', 'detail_info': {'tag': '文化传媒;其他', 'type': 'enterprise', 'detail_url': 'http://api.map.baidu.com/place/detail?uid=665bfe9580758a6e49fd3f6d&output=html&source=placeapi_v2', 'children': []}}"
"{'name': '西安年代广告文化传播有限责任公司', 'location': {'lat': 34.248675, 'lng': 108.951905}, 'address': '南关正街中贸广场15号楼2单元2004室', 'province': '陕西省', 'city': '西安市', 'area': '碑林区', 'street_id': '665bfe9580758a6e49fd3f6d', 'detail': 1, 'uid': '665bfe9580758a6e49fd3f6d', 'detail_info': {'tag': '文化传媒;其他', 'type': 'enterprise', 'detail_url': 'http://api.map.baidu.com/place/detail?uid=665bfe9580758a6e49fd3f6d&output=html&source=placeapi_v2', 'children': []}}"
陕西优信互达广告文化传播有限公司,108.92470323366503,34.19973476955572,952e091128227cdb9ee321f1,"{'name': '陕西优信互达广告文化传播有限公司', 'location': {'lat': 34.204093, 'lng': 108.935824}, 'address': '西安雁塔区丈八东路与东仪路十字榕青无界一号楼一单元2501', 'province': '陕西省', 'city': '西安市', 'area': '雁塔区', 'street_id': '952e091128227cdb9ee321f1', 'detail': 1, 'uid': '952e091128227cdb9ee321f1', 'detail_info': {'tag': '文化传媒;其他', 'type': 'enterprise', 'detail_url': 'http://api.map.baidu.com/place/detail?uid=952e091128227cdb9ee321f1&output=html&source=placeapi_v2', 'children': []}}"
"{'name': '陕西优信互达广告文化传播有限公司', 'location': {'lat': 34.204093, 'lng': 108.935824}, 'address': '西安雁塔区丈八东路与东仪路十字榕青无界一号楼一单元2501', 'province': '陕西省', 'city': '西安市', 'area': '雁塔区', 'street_id': '952e091128227cdb9ee321f1', 'detail': 1, 'uid': '952e091128227cdb9ee321f1', 'detail_info': {'tag': '文化传媒;其他', 'type': 'enterprise', 'detail_url': 'http://api.map.baidu.com/place/detail?uid=952e091128227cdb9ee321f1&output=html&source=placeapi_v2', 'children': []}}"
西安九略广告文化传播有限责任公司,108.92792126522333,34.229165557490525,93b79be4d13b8a3614c8f6d1,"{'name': '西安九略广告文化传播有限责任公司', 'location': {'lat': 34.2336, 'lng': 108.939055}, 'address': '雁塔区含光路南段1号怡和国际B座2303室', 'province': '陕西省', 'city': '西安市', 'area': '雁塔区', 'street_id': '93b79be4d13b8a3614c8f6d1', 'detail': 1, 'uid': '93b79be4d13b8a3614c8f6d1', 'detail_info': {'tag': '文化传媒;其他', 'type': 'enterprise', 'detail_url': 'http://api.map.baidu.com/place/detail?uid=93b79be4d13b8a3614c8f6d1&output=html&source=placeapi_v2', 'children': []}}"
"{'name': '西安九略广告文化传播有限责任公司', 'location': {'lat': 34.2336, 'lng': 108.939055}, 'address': '雁塔区含光路南段1号怡和国际B座2303室', 'province': '陕西省', 'city': '西安市', 'area': '雁塔区', 'street_id': '93b79be4d13b8a3614c8f6d1', 'detail': 1, 'uid': '93b79be4d13b8a3614c8f6d1', 'detail_info': {'tag': '文化传媒;其他', 'type': 'enterprise', 'detail_url': 'http://api.map.baidu.com/place/detail?uid=93b79be4d13b8a3614c8f6d1&output=html&source=placeapi_v2', 'children': []}}"
西安白云鹤广告文化传播有限责任公司,108.92143367036995,34.21331196263954,795d0f3ccd815f9af503b8b1,"{'name': '西安白云鹤广告文化传播有限责任公司', 'location': {'lat': 34.21762, 'lng': 108.932579}, 'address': '朱雀大街78号豪盛大厦A座9层902室', 'province': '陕西省', 'city': '西安市', 'area': '雁塔区', 'street_id': '795d0f3ccd815f9af503b8b1', 'detail': 1, 'uid': '795d0f3ccd815f9af503b8b1', 'detail_info': {'tag': '文化传媒;其他', 'type': 'enterprise', 'detail_url': 'http://api.map.baidu.com/place/detail?uid=795d0f3ccd815f9af503b8b1&output=html&source=placeapi_v2', 'children': []}}"
"{'name': '西安白云鹤广告文化传播有限责任公司', 'location': {'lat': 34.21762, 'lng': 108.932579}, 'address': '朱雀大街78号豪盛大厦A座9层902室', 'province': '陕西省', 'city': '西安市', 'area': '雁塔区', 'street_id': '795d0f3ccd815f9af503b8b1', 'detail': 1, 'uid': '795d0f3ccd815f9af503b8b1', 'detail_info': {'tag': '文化传媒;其他', 'type': 'enterprise', 'detail_url': 'http://api.map.baidu.com/place/detail?uid=795d0f3ccd815f9af503b8b1&output=html&source=placeapi_v2', 'children': []}}"
银色格调广告品牌文化传播有限公司(雁塔世纪商务),108.91628484914548,34.22564078042869,85993856d35d919bd3ff2391,"{'name': '银色格调广告品牌文化传播有限公司(雁塔世纪商务)', 'location': {'lat': 34.229868, 'lng': 108.927455}, 'address': '吉祥路179号雁塔世纪商务4层B座', 'province': '陕西省', 'city': '西安市', 'area': '雁塔区', 'street_id': '85993856d35d919bd3ff2391', 'telephone': '(029)89520731', 'detail': 1, 'uid': '85993856d35d919bd3ff2391', 'detail_info': {'tag': '文化传媒', 'type': 'enterprise', 'detail_url': 'http://api.map.baidu.com/place/detail?uid=85993856d35d919bd3ff2391&output=html&source=placeapi_v2', 'children': []}}"
"{'name': '银色格调广告品牌文化传播有限公司(雁塔世纪商务)', 'location': {'lat': 34.229868, 'lng': 108.927455}, 'address': '吉祥路179号雁塔世纪商务4层B座', 'province': '陕西省', 'city': '西安市', 'area': '雁塔区', 'street_id': '85993856d35d919bd3ff2391', 'telephone': '(029)89520731', 'detail': 1, 'uid': '85993856d35d919bd3ff2391', 'detail_info': {'tag': '文化传媒', 'type': 'enterprise', 'detail_url': 'http://api.map.baidu.com/place/detail?uid=85993856d35d919bd3ff2391&output=html&source=placeapi_v2', 'children': []}}"
陕西天罡星文化传播有限公司高新区天源文体工艺品,108.89963716901627,34.22096252325216,fb390fdb33cabf002902e1de,"{'name': '陕西天罡星文化传播有限公司高新区天源文体工艺品', 'location': {'lat': 34.22501, 'lng': 108.910838}, 'address': '陕西省西安市雁塔区白沙路', 'province': '陕西省', 'city': '西安市', 'area': '雁塔区', 'street_id': 'fb390fdb33cabf002902e1de', 'detail': 1, 'uid': 'fb390fdb33cabf002902e1de', 'detail_info': {'tag': '文化传媒;其他', 'type': 'enterprise', 'detail_url': 'http://api.map.baidu.com/place/detail?uid=fb390fdb33cabf002902e1de&output=html&source=placeapi_v2', 'children': []}}"
"{'name': '陕西天罡星文化传播有限公司高新区天源文体工艺品', 'location': {'lat': 34.22501, 'lng': 108.910838}, 'address': '陕西省西安市雁塔区白沙路', 'province': '陕西省', 'city': '西安市', 'area': '雁塔区', 'street_id': 'fb390fdb33cabf002902e1de', 'detail': 1, 'uid': 'fb390fdb33cabf002902e1de', 'detail_info': {'tag': '文化传媒;其他', 'type': 'enterprise', 'detail_url': 'http://api.map.baidu.com/place/detail?uid=fb390fdb33cabf002902e1de&output=html&source=placeapi_v2', 'children': []}}"
银色格调广告品牌文化传播有限公司(吉祥路),108.9164546155525,34.2250583245082,9707b27f7a7912651ee9997e,"{'name': '银色格调广告品牌文化传播有限公司(吉祥路)', 'location': {'lat': 34.229288, 'lng': 108.927624}, 'address': '吉祥路318号鑫龙大厦8层', 'province': '陕西省', 'city': '西安市', 'area': '雁塔区', 'street_id': '9707b27f7a7912651ee9997e', 'detail': 1, 'uid': '9707b27f7a7912651ee9997e', 'detail_info': {'tag': '文化传媒;其他', 'type': 'enterprise', 'detail_url': 'http://api.map.baidu.com/place/detail?uid=9707b27f7a7912651ee9997e&output=html&source=placeapi_v2', 'children': []}}"
"{'name': '银色格调广告品牌文化传播有限公司(吉祥路)', 'location': {'lat': 34.229288, 'lng': 108.927624}, 'address': '吉祥路318号鑫龙大厦8层', 'province': '陕西省', 'city': '西安市', 'area': '雁塔区', 'street_id': '9707b27f7a7912651ee9997e', 'detail': 1, 'uid': '9707b27f7a7912651ee9997e', 'detail_info': {'tag': '文化传媒;其他', 'type': 'enterprise', 'detail_url': 'http://api.map.baidu.com/place/detail?uid=9707b27f7a7912651ee9997e&output=html&source=placeapi_v2', 'children': []}}"
警苑中老年活动中心,108.93190217321079,34.27384552937891,26f2d656d2e15f771b94c611,"{'name': '警苑中老年活动中心', 'location': {'lat': 34.278359, 'lng': 108.942998}, 'address': '陕西省西安市莲湖区青年二巷建西餐馆(警苑饭店旁)', 'province': '陕西省', 'city': '西安市', 'area': '莲湖区', 'street_id': '26f2d656d2e15f771b94c611', 'detail': 1, 'uid': '26f2d656d2e15f771b94c611', 'detail_info': {'tag': '文化传媒;文化宫', 'navi_location': {'lng': 108.94286372642, 'lat': 34.278354060061}, 'type': 'life', 'detail_url': 'http://api.map.baidu.com/place/detail?uid=26f2d656d2e15f771b94c611&output=html&source=placeapi_v2', 'image_num': '5', 'comment_num': '2', 'children': []}}"
"{'name': '警苑中老年活动中心', 'location': {'lat': 34.278359, 'lng': 108.942998}, 'address': '陕西省西安市莲湖区青年二巷建西餐馆(警苑饭店旁)', 'province': '陕西省', 'city': '西安市', 'area': '莲湖区', 'street_id': '26f2d656d2e15f771b94c611', 'detail': 1, 'uid': '26f2d656d2e15f771b94c611', 'detail_info': {'tag': '文化传媒;文化宫', 'navi_location': {'lng': 108.94286372642, 'lat': 34.278354060061}, 'type': 'life', 'detail_url': 'http://api.map.baidu.com/place/detail?uid=26f2d656d2e15f771b94c611&output=html&source=placeapi_v2', 'image_num': '5', 'comment_num': '2', 'children': []}}"
实用放射学杂志社,108.93718685658354,34.25217289712976,f78aed2764c5758df11937d9,"{'name': '实用放射学杂志社', 'location': {'lat': 34.256773, 'lng': 108.94829}, 'address': '环城南路20号海联大厦6层05', 'province': '陕西省', 'city': '西安市', 'area': '碑林区', 'street_id': 'f78aed2764c5758df11937d9', 'detail': 1, 'uid': 'f78aed2764c5758df11937d9', 'detail_info': {'tag': '文化传媒;新闻出版', 'type': 'enterprise', 'detail_url': 'http://api.map.baidu.com/place/detail?uid=f78aed2764c5758df11937d9&output=html&source=placeapi_v2', 'children': []}}"
"{'name': '实用放射学杂志社', 'location': {'lat': 34.256773, 'lng': 108.94829}, 'address': '环城南路20号海联大厦6层05', 'province': '陕西省', 'city': '西安市', 'area': '碑林区', 'street_id': 'f78aed2764c5758df11937d9', 'detail': 1, 'uid': 'f78aed2764c5758df11937d9', 'detail_info': {'tag': '文化传媒;新闻出版', 'type': 'enterprise', 'detail_url': 'http://api.map.baidu.com/place/detail?uid=f78aed2764c5758df11937d9&output=html&source=placeapi_v2', 'children': []}}"
锦达工艺制作中心,108.93760525877302,34.25991275361609,8c2a4c08672db336e311038f,"{'name': '锦达工艺制作中心', 'location': {'lat': 34.26452, 'lng': 108.948701}, 'address': '中环广场C座102号', 'province': '陕西省', 'city': '西安市', 'area': '碑林区', 'street_id': '8c2a4c08672db336e311038f', 'telephone': '(029)83791880,(029)87257460,13891925785', 'detail': 1, 'uid': '8c2a4c08672db336e311038f', 'detail_info': {'tag': '文化传媒', 'navi_location': {'lng': 108.94853957906, 'lat': 34.263772247576}, 'type': 'enterprise', 'detail_url': 'http://api.map.baidu.com/place/detail?uid=8c2a4c08672db336e311038f&output=html&source=placeapi_v2', 'comment_num': '1', 'children': []}}"
"{'name': '锦达工艺制作中心', 'location': {'lat': 34.26452, 'lng': 108.948701}, 'address': '中环广场C座102号', 'province': '陕西省', 'city': '西安市', 'area': '碑林区', 'street_id': '8c2a4c08672db336e311038f', 'telephone': '(029)83791880,(029)87257460,13891925785', 'detail': 1, 'uid': '8c2a4c08672db336e311038f', 'detail_info': {'tag': '文化传媒', 'navi_location': {'lng': 108.94853957906, 'lat': 34.263772247576}, 'type': 'enterprise', 'detail_url': 'http://api.map.baidu.com/place/detail?uid=8c2a4c08672db336e311038f&output=html&source=placeapi_v2', 'comment_num': '1', 'children': []}}"
陕西年鉴社,108.9367165260362,34.26071165675122,c61bd305e1299d69c37da2ae,"{'name': '陕西年鉴社', 'location': {'lat': 34.265305, 'lng': 108.947813}, 'address': '碑林区西大街70号', 'province': '陕西省', 'city': '西安市', 'area': '碑林区', 'street_id': 'c61bd305e1299d69c37da2ae', 'detail': 1, 'uid': 'c61bd305e1299d69c37da2ae', 'detail_info': {'tag': '文化传媒;新闻出版', 'type': 'life', 'detail_url': 'http://api.map.baidu.com/place/detail?uid=c61bd305e1299d69c37da2ae&output=html&source=placeapi_v2', 'image_num': '8', 'children': []}}"
"{'name': '陕西年鉴社', 'location': {'lat': 34.265305, 'lng': 108.947813}, 'address': '碑林区西大街70号', 'province': '陕西省', 'city': '西安市', 'area': '碑林区', 'street_id': 'c61bd305e1299d69c37da2ae', 'detail': 1, 'uid': 'c61bd305e1299d69c37da2ae', 'detail_info': {'tag': '文化传媒;新闻出版', 'type': 'life', 'detail_url': 'http://api.map.baidu.com/place/detail?uid=c61bd305e1299d69c37da2ae&output=html&source=placeapi_v2', 'image_num': '8', 'children': []}}"
喜事杂志社,108.9348310115079,34.271120519406196,2730659054331cf9e2110334,"{'name': '喜事杂志社', 'location': {'lat': 34.275684, 'lng': 108.945922}, 'address': '西安市莲湖路18号', 'province': '陕西省', 'city': '西安市', 'area': '莲湖区', 'street_id': '2730659054331cf9e2110334', 'detail': 1, 'uid': '2730659054331cf9e2110334', 'detail_info': {'tag': '文化传媒;新闻出版', 'type': 'enterprise', 'detail_url': 'http://api.map.baidu.com/place/detail?uid=2730659054331cf9e2110334&output=html&source=placeapi_v2', 'comment_num': '2', 'children': []}}"
"{'name': '喜事杂志社', 'location': {'lat': 34.275684, 'lng': 108.945922}, 'address': '西安市莲湖路18号', 'province': '陕西省', 'city': '西安市', 'area': '莲湖区', 'street_id': '2730659054331cf9e2110334', 'detail': 1, 'uid': '2730659054331cf9e2110334', 'detail_info': {'tag': '文化传媒;新闻出版', 'type': 'enterprise', 'detail_url': 'http://api.map.baidu.com/place/detail?uid=2730659054331cf9e2110334&output=html&source=placeapi_v2', 'comment_num': '2', 'children': []}}"
展览区,108.90177105121894,34.24700820151611,aad9fcfd39f11e3a5fd4fef3,"{'name': '展览区', 'location': {'lat': 34.251075, 'lng': 108.91297}, 'address': '西安市莲湖区劳动南路118号西市城F2', 'province': '陕西省', 'city': '西安市', 'area': '莲湖区', 'street_id': 'aad9fcfd39f11e3a5fd4fef3', 'detail': 1, 'uid': 'aad9fcfd39f11e3a5fd4fef3', 'detail_info': {'tag': '文化传媒;展览馆', 'indoor_floor': 'F2', 'type': 'scope', 'detail_url': 'http://api.map.baidu.com/place/detail?uid=aad9fcfd39f11e3a5fd4fef3&output=html&source=placeapi_v2', 'children': []}}"
"{'name': '展览区', 'location': {'lat': 34.251075, 'lng': 108.91297}, 'address': '西安市莲湖区劳动南路118号西市城F2', 'province': '陕西省', 'city': '西安市', 'area': '莲湖区', 'street_id': 'aad9fcfd39f11e3a5fd4fef3', 'detail': 1, 'uid': 'aad9fcfd39f11e3a5fd4fef3', 'detail_info': {'tag': '文化传媒;展览馆', 'indoor_floor': 'F2', 'type': 'scope', 'detail_url': 'http://api.map.baidu.com/place/detail?uid=aad9fcfd39f11e3a5fd4fef3&output=html&source=placeapi_v2', 'children': []}}"
西部-西部杂志社,108.91651564062512,34.27217734792799,c12bfdf27d7110a11c389451,"{'name': '西部-西部杂志社', 'location': {'lat': 34.276417, 'lng': 108.927661}, 'address': '陕西省西安市玉祥门蔚蓝国际b座1502室', 'province': '陕西省', 'city': '西安市', 'area': '莲湖区', 'street_id': 'c12bfdf27d7110a11c389451', 'detail': 1, 'uid': 'c12bfdf27d7110a11c389451', 'detail_info': {'tag': '文化传媒;新闻出版', 'type': 'enterprise', 'detail_url': 'http://api.map.baidu.com/place/detail?uid=c12bfdf27d7110a11c389451&output=html&source=placeapi_v2', 'children': []}}"
"{'name': '西部-西部杂志社', 'location': {'lat': 34.276417, 'lng': 108.927661}, 'address': '陕西省西安市玉祥门蔚蓝国际b座1502室', 'province': '陕西省', 'city': '西安市', 'area': '莲湖区', 'street_id': 'c12bfdf27d7110a11c389451', 'detail': 1, 'uid': 'c12bfdf27d7110a11c389451', 'detail_info': {'tag': '文化传媒;新闻出版', 'type': 'enterprise', 'detail_url': 'http://api.map.baidu.com/place/detail?uid=c12bfdf27d7110a11c389451&output=html&source=placeapi_v2', 'children': []}}"
新农村商报专刊部,108.91763990623421,34.26472267772231,ba1c1f1b8cbd500affa7784f,"{'name': '新农村商报专刊部', 'location': {'lat': 34.26898, 'lng': 108.928788}, 'address': '环城西路北段218号融合大厦A座6层617', 'province': '陕西省', 'city': '西安市', 'area': '莲湖区', 'street_id': 'ba1c1f1b8cbd500affa7784f', 'detail': 1, 'uid': 'ba1c1f1b8cbd500affa7784f', 'detail_info': {'tag': '文化传媒;新闻出版', 'type': 'enterprise', 'detail_url': 'http://api.map.baidu.com/place/detail?uid=ba1c1f1b8cbd500affa7784f&output=html&source=placeapi_v2', 'children': []}}"
"{'name': '新农村商报专刊部', 'location': {'lat': 34.26898, 'lng': 108.928788}, 'address': '环城西路北段218号融合大厦A座6层617', 'province': '陕西省', 'city': '西安市', 'area': '莲湖区', 'street_id': 'ba1c1f1b8cbd500affa7784f', 'detail': 1, 'uid': 'ba1c1f1b8cbd500affa7784f', 'detail_info': {'tag': '文化传媒;新闻出版', 'type': 'enterprise', 'detail_url': 'http://api.map.baidu.com/place/detail?uid=ba1c1f1b8cbd500affa7784f&output=html&source=placeapi_v2', 'children': []}}"
西安电子科技大学-会议中心,108.91377188273304,34.23554872584812,32eb320e1bd4c1c0095cb3e5,"{'name': '西安电子科技大学-会议中心', 'location': {'lat': 34.239741, 'lng': 108.924951}, 'address': '太白南路2西安电子科技大学附近', 'province': '陕西省', 'city': '西安市', 'area': '雁塔区', 'street_id': '32eb320e1bd4c1c0095cb3e5', 'detail': 1, 'uid': '32eb320e1bd4c1c0095cb3e5', 'detail_info': {'tag': '文化传媒;展览馆', 'type': 'education', 'detail_url': 'http://api.map.baidu.com/place/detail?uid=32eb320e1bd4c1c0095cb3e5&output=html&source=placeapi_v2', 'children': []}}"
"{'name': '西安电子科技大学-会议中心', 'location': {'lat': 34.239741, 'lng': 108.924951}, 'address': '太白南路2西安电子科技大学附近', 'province': '陕西省', 'city': '西安市', 'area': '雁塔区', 'street_id': '32eb320e1bd4c1c0095cb3e5', 'detail': 1, 'uid': '32eb320e1bd4c1c0095cb3e5', 'detail_info': {'tag': '文化传媒;展览馆', 'type': 'education', 'detail_url': 'http://api.map.baidu.com/place/detail?uid=32eb320e1bd4c1c0095cb3e5&output=html&source=placeapi_v2', 'children': []}}"
西安教育电视家有喜事栏目组,108.91763990623421,34.26472267772231,463a5b3a9c66b3b9373a718d,"{'name': '西安教育电视家有喜事栏目组', 'location': {'lat': 34.26898, 'lng': 108.928788}, 'address': '环城西路北段218号融合大厦A座5层504', 'province': '陕西省', 'city': '西安市', 'area': '莲湖区', 'street_id': '463a5b3a9c66b3b9373a718d', 'detail': 1, 'uid': '463a5b3a9c66b3b9373a718d', 'detail_info': {'tag': '文化传媒;广播电视', 'type': 'enterprise', 'detail_url': 'http://api.map.baidu.com/place/detail?uid=463a5b3a9c66b3b9373a718d&output=html&source=placeapi_v2', 'children': []}}"
"{'name': '西安教育电视家有喜事栏目组', 'location': {'lat': 34.26898, 'lng': 108.928788}, 'address': '环城西路北段218号融合大厦A座5层504', 'province': '陕西省', 'city': '西安市', 'area': '莲湖区', 'street_id': '463a5b3a9c66b3b9373a718d', 'detail': 1, 'uid': '463a5b3a9c66b3b9373a718d', 'detail_info': {'tag': '文化传媒;广播电视', 'type': 'enterprise', 'detail_url': 'http://api.map.baidu.com/place/detail?uid=463a5b3a9c66b3b9373a718d&output=html&source=placeapi_v2', 'children': []}}"
最地产杂志社,108.88663870800609,34.23815168796601,f05f16f66552f5fa4c3a59f7,"{'name': '最地产杂志社', 'location': {'lat': 34.242233, 'lng': 108.89783}, 'address': '旺座国际城C31层3101', 'province': '陕西省', 'city': '西安市', 'area': '雁塔区', 'street_id': 'f05f16f66552f5fa4c3a59f7', 'detail': 1, 'uid': 'f05f16f66552f5fa4c3a59f7', 'detail_info': {'tag': '文化传媒;新闻出版', 'navi_location': {'lng': 108.8978788035, 'lat': 34.242341248331}, 'type': 'enterprise', 'detail_url': 'http://api.map.baidu.com/place/detail?uid=f05f16f66552f5fa4c3a59f7&output=html&source=placeapi_v2', 'children': []}}"
"{'name': '最地产杂志社', 'location': {'lat': 34.242233, 'lng': 108.89783}, 'address': '旺座国际城C31层3101', 'province': '陕西省', 'city': '西安市', 'area': '雁塔区', 'street_id': 'f05f16f66552f5fa4c3a59f7', 'detail': 1, 'uid': 'f05f16f66552f5fa4c3a59f7', 'detail_info': {'tag': '文化传媒;新闻出版', 'navi_location': {'lng': 108.8978788035, 'lat': 34.242341248331}, 'type': 'enterprise', 'detail_url': 'http://api.map.baidu.com/place/detail?uid=f05f16f66552f5fa4c3a59f7&output=html&source=placeapi_v2', 'children': []}}"
阳光印务,108.91126187069933,34.233108796837556,33f58ed376d9c36d9de3210b,"{'name': '阳光印务', 'location': {'lat': 34.237265, 'lng': 108.922448}, 'address': '西安电子科技大学北校区内', 'province': '陕西省', 'city': '西安市', 'area': '雁塔区', 'street_id': '33f58ed376d9c36d9de3210b', 'detail': 1, 'uid': '33f58ed376d9c36d9de3210b', 'detail_info': {'tag': '文化传媒', 'navi_location': {'lng': 108.92235944412, 'lat': 34.237330476242}, 'type': 'enterprise', 'detail_url': 'http://api.map.baidu.com/place/detail?uid=33f58ed376d9c36d9de3210b&output=html&source=placeapi_v2', 'children': []}}"
"{'name': '阳光印务', 'location': {'lat': 34.237265, 'lng': 108.922448}, 'address': '西安电子科技大学北校区内', 'province': '陕西省', 'city': '西安市', 'area': '雁塔区', 'street_id': '33f58ed376d9c36d9de3210b', 'detail': 1, 'uid': '33f58ed376d9c36d9de3210b', 'detail_info': {'tag': '文化传媒', 'navi_location': {'lng': 108.92235944412, 'lat': 34.237330476242}, 'type': 'enterprise', 'detail_url': 'http://api.map.baidu.com/place/detail?uid=33f58ed376d9c36d9de3210b&output=html&source=placeapi_v2', 'children': []}}"
潘家庄老年活动室,108.92975201570971,34.19842632589317,b41c7bd337c0410fc16c1453,"{'name': '潘家庄老年活动室', 'location': {'lat': 34.202876, 'lng': 108.940856}, 'address': '丈八东路附近', 'province': '陕西省', 'city': '西安市', 'area': '雁塔区', 'street_id': 'b41c7bd337c0410fc16c1453', 'detail': 1, 'uid': 'b41c7bd337c0410fc16c1453', 'detail_info': {'tag': '文化传媒;文化宫', 'type': 'life', 'detail_url': 'http://api.map.baidu.com/place/detail?uid=b41c7bd337c0410fc16c1453&output=html&source=placeapi_v2', 'image_num': '4', 'comment_num': '1', 'children': []}}"
"{'name': '潘家庄老年活动室', 'location': {'lat': 34.202876, 'lng': 108.940856}, 'address': '丈八东路附近', 'province': '陕西省', 'city': '西安市', 'area': '雁塔区', 'street_id': 'b41c7bd337c0410fc16c1453', 'detail': 1, 'uid': 'b41c7bd337c0410fc16c1453', 'detail_info': {'tag': '文化传媒;文化宫', 'type': 'life', 'detail_url': 'http://api.map.baidu.com/place/detail?uid=b41c7bd337c0410fc16c1453&output=html&source=placeapi_v2', 'image_num': '4', 'comment_num': '1', 'children': []}}"
MaKE PRIVATE美术馆,108.94069357768458,34.22667446854563,c2d6dc521b3930a90c0a70b4,"{'name': 'MaKE PRIVATE美术馆', 'location': {'lat': 34.23132, 'lng': 108.9518}, 'address': '长安中路38号小寨领绣城负1层', 'province': '陕西省', 'city': '西安市', 'area': '雁塔区', 'street_id': 'c2d6dc521b3930a90c0a70b4', 'detail': 1, 'uid': 'c2d6dc521b3930a90c0a70b4', 'detail_info': {'tag': '文化传媒;美术馆', 'navi_location': {'lng': 108.95181248242, 'lat': 34.231397355209}, 'type': 'scope', 'detail_url': 'http://api.map.baidu.com/place/detail?uid=c2d6dc521b3930a90c0a70b4&output=html&source=placeapi_v2', 'overall_rating': '0.0', 'comment_num': '0', 'children': []}}"
"{'name': 'MaKE PRIVATE美术馆', 'location': {'lat': 34.23132, 'lng': 108.9518}, 'address': '长安中路38号小寨领绣城负1层', 'province': '陕西省', 'city': '西安市', 'area': '雁塔区', 'street_id': 'c2d6dc521b3930a90c0a70b4', 'detail': 1, 'uid': 'c2d6dc521b3930a90c0a70b4', 'detail_info': {'tag': '文化传媒;美术馆', 'navi_location': {'lng': 108.95181248242, 'lat': 34.231397355209}, 'type': 'scope', 'detail_url': 'http://api.map.baidu.com/place/detail?uid=c2d6dc521b3930a90c0a70b4&output=html&source=placeapi_v2', 'overall_rating': '0.0', 'comment_num': '0', 'children': []}}"
海华印务,108.88651084888991,34.21760037097487,cadcc4daab81fc8b9f82eafe,"{'name': '海华印务', 'location': {'lat': 34.221674, 'lng': 108.897696}, 'address': '唐延路35号旺座现代城B座1层', 'province': '陕西省', 'city': '西安市', 'area': '雁塔区', 'street_id': 'cadcc4daab81fc8b9f82eafe', 'telephone': '(029)88444714', 'detail': 1, 'uid': 'cadcc4daab81fc8b9f82eafe', 'detail_info': {'tag': '文化传媒', 'navi_location': {'lng': 108.89787145895, 'lat': 34.221684586056}, 'type': 'enterprise', 'detail_url': 'http://api.map.baidu.com/place/detail?uid=cadcc4daab81fc8b9f82eafe&output=html&source=placeapi_v2', 'children': []}}"
"{'name': '海华印务', 'location': {'lat': 34.221674, 'lng': 108.897696}, 'address': '唐延路35号旺座现代城B座1层', 'province': '陕西省', 'city': '西安市', 'area': '雁塔区', 'street_id': 'cadcc4daab81fc8b9f82eafe', 'telephone': '(029)88444714', 'detail': 1, 'uid': 'cadcc4daab81fc8b9f82eafe', 'detail_info': {'tag': '文化传媒', 'navi_location': {'lng': 108.89787145895, 'lat': 34.221684586056}, 'type': 'enterprise', 'detail_url': 'http://api.map.baidu.com/place/detail?uid=cadcc4daab81fc8b9f82eafe&output=html&source=placeapi_v2', 'children': []}}"
西安秦润广告传播有限公司,108.91769684932396,34.22434331625303,58b474538cc5c59de5e96588,"{'name': '西安秦润广告传播有限公司', 'location': {'lat': 34.228593, 'lng': 108.928862}, 'address': '吉祥路298号长海大厦H、I座12', 'province': '陕西省', 'city': '西安市', 'area': '雁塔区', 'street_id': '58b474538cc5c59de5e96588', 'detail': 1, 'uid': '58b474538cc5c59de5e96588', 'detail_info': {'tag': '文化传媒;其他', 'type': 'enterprise', 'detail_url': 'http://api.map.baidu.com/place/detail?uid=58b474538cc5c59de5e96588&output=html&source=placeapi_v2', 'children': []}}"
"{'name': '西安秦润广告传播有限公司', 'location': {'lat': 34.228593, 'lng': 108.928862}, 'address': '吉祥路298号长海大厦H、I座12', 'province': '陕西省', 'city': '西安市', 'area': '雁塔区', 'street_id': '58b474538cc5c59de5e96588', 'detail': 1, 'uid': '58b474538cc5c59de5e96588', 'detail_info': {'tag': '文化传媒;其他', 'type': 'enterprise', 'detail_url': 'http://api.map.baidu.com/place/detail?uid=58b474538cc5c59de5e96588&output=html&source=placeapi_v2', 'children': []}}"
西安紫曦广告文传播公司,108.9097549733905,34.227711178309704,2582cdb944449607250bd032,"{'name': '西安紫曦广告文传播公司', 'location': {'lat': 34.231846, 'lng': 108.920944}, 'address': '科技路10号华奥大厦B座6楼601', 'province': '陕西省', 'city': '西安市', 'area': '雁塔区', 'street_id': '2582cdb944449607250bd032', 'detail': 1, 'uid': '2582cdb944449607250bd032', 'detail_info': {'tag': '文化传媒;其他', 'type': 'enterprise', 'detail_url': 'http://api.map.baidu.com/place/detail?uid=2582cdb944449607250bd032&output=html&source=placeapi_v2', 'children': []}}"
"{'name': '西安紫曦广告文传播公司', 'location': {'lat': 34.231846, 'lng': 108.920944}, 'address': '科技路10号华奥大厦B座6楼601', 'province': '陕西省', 'city': '西安市', 'area': '雁塔区', 'street_id': '2582cdb944449607250bd032', 'detail': 1, 'uid': '2582cdb944449607250bd032', 'detail_info': {'tag': '文化传媒;其他', 'type': 'enterprise', 'detail_url': 'http://api.map.baidu.com/place/detail?uid=2582cdb944449607250bd032&output=html&source=placeapi_v2', 'children': []}}"
西安石油大学-社区老人活动室,108.92622910439871,34.215778374702545,5943de52551c532b43afe631,"{'name': '西安石油大学-社区老人活动室', 'location': {'lat': 34.220175, 'lng': 108.937361}, 'address': '电子二路18号', 'province': '陕西省', 'city': '西安市', 'area': '雁塔区', 'street_id': '39fde5e559d7dd31aaf7292a', 'detail': 1, 'uid': '5943de52551c532b43afe631', 'detail_info': {'tag': '文化传媒;文化宫', 'type': 'life', 'detail_url': 'http://api.map.baidu.com/place/detail?uid=5943de52551c532b43afe631&output=html&source=placeapi_v2', 'overall_rating': '0.0', 'image_num': '2', 'comment_num': '1', 'children': []}}"
"{'name': '西安石油大学-社区老人活动室', 'location': {'lat': 34.220175, 'lng': 108.937361}, 'address': '电子二路18号', 'province': '陕西省', 'city': '西安市', 'area': '雁塔区', 'street_id': '39fde5e559d7dd31aaf7292a', 'detail': 1, 'uid': '5943de52551c532b43afe631', 'detail_info': {'tag': '文化传媒;文化宫', 'type': 'life', 'detail_url': 'http://api.map.baidu.com/place/detail?uid=5943de52551c532b43afe631&output=html&source=placeapi_v2', 'overall_rating': '0.0', 'image_num': '2', 'comment_num': '1', 'children': []}}"
土门街道惠民北坊社区学习中心,108.8800978065628,34.2606869853059,74cf41cced3bd817f9dc8529,"{'name': '土门街道惠民北坊社区学习中心', 'location': {'lat': 34.264841, 'lng': 108.891254}, 'address': '莲湖区丰镐西路102-1', 'province': '陕西省', 'city': '西安市', 'area': '莲湖区', 'street_id': '74cf41cced3bd817f9dc8529', 'detail': 1, 'uid': '74cf41cced3bd817f9dc8529', 'detail_info': {'tag': '文化传媒;文化宫', 'navi_location': {'lng': 108.89147630884, 'lat': 34.264764543262}, 'type': 'life', 'detail_url': 'http://api.map.baidu.com/place/detail?uid=74cf41cced3bd817f9dc8529&output=html&source=placeapi_v2', 'image_num': '8', 'comment_num': '1', 'children': []}}"
"{'name': '土门街道惠民北坊社区学习中心', 'location': {'lat': 34.264841, 'lng': 108.891254}, 'address': '莲湖区丰镐西路102-1', 'province': '陕西省', 'city': '西安市', 'area': '莲湖区', 'street_id': '74cf41cced3bd817f9dc8529', 'detail': 1, 'uid': '74cf41cced3bd817f9dc8529', 'detail_info': {'tag': '文化传媒;文化宫', 'navi_location': {'lng': 108.89147630884, 'lat': 34.264764543262}, 'type': 'life', 'detail_url': 'http://api.map.baidu.com/place/detail?uid=74cf41cced3bd817f9dc8529&output=html&source=placeapi_v2', 'image_num': '8', 'comment_num': '1', 'children': []}}"
徐义生艺术馆,108.85271948217714,34.19510915783434,5f5b3eaf4174176e0c0e6b96,"{'name': '徐义生艺术馆', 'location': {'lat': 34.199699, 'lng': 108.86375}, 'address': '陕西省西安市雁塔区丈八六路锦业76徐义生美术馆北门', 'province': '陕西省', 'city': '西安市', 'area': '雁塔区', 'street_id': '5f5b3eaf4174176e0c0e6b96', 'detail': 1, 'uid': '5f5b3eaf4174176e0c0e6b96', 'detail_info': {'tag': '文化传媒;美术馆', 'type': 'scope', 'detail_url': 'http://api.map.baidu.com/place/detail?uid=5f5b3eaf4174176e0c0e6b96&output=html&source=placeapi_v2', 'children': []}}"
"{'name': '徐义生艺术馆', 'location': {'lat': 34.199699, 'lng': 108.86375}, 'address': '陕西省西安市雁塔区丈八六路锦业76徐义生美术馆北门', 'province': '陕西省', 'city': '西安市', 'area': '雁塔区', 'street_id': '5f5b3eaf4174176e0c0e6b96', 'detail': 1, 'uid': '5f5b3eaf4174176e0c0e6b96', 'detail_info': {'tag': '文化传媒;美术馆', 'type': 'scope', 'detail_url': 'http://api.map.baidu.com/place/detail?uid=5f5b3eaf4174176e0c0e6b96&output=html&source=placeapi_v2', 'children': []}}"
天天乐中老年活动中心(青年一巷),108.93372515098388,34.27318694464451,cc2e038dac98190581a12ef3,"{'name': '天天乐中老年活动中心(青年一巷)', 'location': {'lat': 34.277732, 'lng': 108.944817}, 'address': '青年一巷11', 'province': '陕西省', 'city': '西安市', 'area': '莲湖区', 'street_id': 'cc2e038dac98190581a12ef3', 'detail': 1, 'uid': 'cc2e038dac98190581a12ef3', 'detail_info': {'tag': '文化传媒;文化宫', 'type': 'life', 'detail_url': 'http://api.map.baidu.com/place/detail?uid=cc2e038dac98190581a12ef3&output=html&source=placeapi_v2', 'overall_rating': '0.0', 'image_num': '5', 'comment_num': '1', 'children': []}}"
"{'name': '天天乐中老年活动中心(青年一巷)', 'location': {'lat': 34.277732, 'lng': 108.944817}, 'address': '青年一巷11', 'province': '陕西省', 'city': '西安市', 'area': '莲湖区', 'street_id': 'cc2e038dac98190581a12ef3', 'detail': 1, 'uid': 'cc2e038dac98190581a12ef3', 'detail_info': {'tag': '文化传媒;文化宫', 'type': 'life', 'detail_url': 'http://api.map.baidu.com/place/detail?uid=cc2e038dac98190581a12ef3&output=html&source=placeapi_v2', 'overall_rating': '0.0', 'image_num': '5', 'comment_num': '1', 'children': []}}"
陕西建苑大厦-多功能厅,108.93414442517978,34.256288294468725,894507cdd9a84f604e554701,"{'name': '陕西建苑大厦-多功能厅', 'location': {'lat': 34.260839, 'lng': 108.94525}, 'address': '朱雀门里南广济街38号陕西建苑大厦', 'province': '陕西省', 'city': '西安市', 'area': '碑林区', 'street_id': '894507cdd9a84f604e554701', 'telephone': '(029)87606999', 'detail': 1, 'uid': '894507cdd9a84f604e554701', 'detail_info': {'tag': '文化传媒;展览馆', 'type': 'scope', 'detail_url': 'http://api.map.baidu.com/place/detail?uid=894507cdd9a84f604e554701&output=html&source=placeapi_v2', 'children': []}}"
"{'name': '陕西建苑大厦-多功能厅', 'location': {'lat': 34.260839, 'lng': 108.94525}, 'address': '朱雀门里南广济街38号陕西建苑大厦', 'province': '陕西省', 'city': '西安市', 'area': '碑林区', 'street_id': '894507cdd9a84f604e554701', 'telephone': '(029)87606999', 'detail': 1, 'uid': '894507cdd9a84f604e554701', 'detail_info': {'tag': '文化传媒;展览馆', 'type': 'scope', 'detail_url': 'http://api.map.baidu.com/place/detail?uid=894507cdd9a84f604e554701&output=html&source=placeapi_v2', 'children': []}}"
《税收与社会》杂志社,108.92750996763446,34.2590661409398,611199de50dacd5d96ca0773,"{'name': '《税收与社会》杂志社', 'location': {'lat': 34.263499, 'lng': 108.938631}, 'address': '含光街28号华汇大厦7层', 'province': '陕西省', 'city': '西安市', 'area': '莲湖区', 'street_id': '611199de50dacd5d96ca0773', 'detail': 1, 'uid': '611199de50dacd5d96ca0773', 'detail_info': {'tag': '文化传媒;新闻出版', 'type': 'enterprise', 'detail_url': 'http://api.map.baidu.com/place/detail?uid=611199de50dacd5d96ca0773&output=html&source=placeapi_v2', 'children': []}}"
"{'name': '《税收与社会》杂志社', 'location': {'lat': 34.263499, 'lng': 108.938631}, 'address': '含光街28号华汇大厦7层', 'province': '陕西省', 'city': '西安市', 'area': '莲湖区', 'street_id': '611199de50dacd5d96ca0773', 'detail': 1, 'uid': '611199de50dacd5d96ca0773', 'detail_info': {'tag': '文化传媒;新闻出版', 'type': 'enterprise', 'detail_url': 'http://api.map.baidu.com/place/detail?uid=611199de50dacd5d96ca0773&output=html&source=placeapi_v2', 'children': []}}"
中国日报社陕西记者站,108.89860004019133,34.24305904080123,9e526e856ef04a6303ec0129,"{'name': '中国日报社陕西记者站', 'location': {'lat': 34.247111, 'lng': 108.909803}, 'address': '南二环西段180号财富中心C座21层', 'province': '陕西省', 'city': '西安市', 'area': '雁塔区', 'street_id': '9e526e856ef04a6303ec0129', 'detail': 1, 'uid': '9e526e856ef04a6303ec0129', 'detail_info': {'tag': '文化传媒;新闻出版', 'type': 'enterprise', 'detail_url': 'http://api.map.baidu.com/place/detail?uid=9e526e856ef04a6303ec0129&output=html&source=placeapi_v2', 'children': []}}"
"{'name': '中国日报社陕西记者站', 'location': {'lat': 34.247111, 'lng': 108.909803},