[{"name": "\u897f\u5b89\u4f9d\u6d77\u6587\u5316\u4f20\u64ad\u6709\u9650\u516c\u53f8", "location": {"lat": 34.228901, "lng": 108.951402}, "address": "\u5c0f\u5be8\u897f\u8def02\u53f7", "province": "\u9655\u897f\u7701", "city": "\u897f\u5b89\u5e02", "area": "\u96c1\u5854\u533a", "street_id": "3f8c255f2ccaaff9018972bb", "detail": 1, "uid": "3f8c255f2ccaaff9018972bb", "detail_info": {"tag": "\u6587\u5316\u4f20\u5a92;\u5176\u4ed6", "type": "enterprise", "detail_url": "http://api.map.baidu.com/place/detail?uid=3f8c255f2ccaaff9018972bb&output=html&source=placeapi_v2", "children": []}}, {"name": "\u897f\u5b89\u9526\u7ee3\u6587\u5316\u4f20\u64ad\u6709\u9650\u516c\u53f8", "location": {"lat": 34.231232, "lng": 108.925115}, "address": "\u4e2d\u5929\u56fd\u9645B\u5ea7508", "province": "\u9655\u897f\u7701", "city": "\u897f\u5b89\u5e02", "area": "\u96c1\u5854\u533a", "street_id": "024609f1150eb55c52e5c5d5", "detail": 1, "uid": "024609f1150eb55c52e5c5d5", "detail_info": {"tag": "\u6587\u5316\u4f20\u5a92;\u5176\u4ed6", "type": "enterprise", "detail_url": "http://api.map.baidu.com/place/detail?uid=024609f1150eb55c52e5c5d5&output=html&source=placeapi_v2", "price": "0.0", "children": []}}, {"name": "\u667a\u7b80\u827a\u672f\u6587\u5316\u4f20\u64ad\u6709\u9650\u516c\u53f8", "location": {"lat": 34.229064, "lng": 108.907186}, "address": "\u9655\u897f\u7701\u897f\u5b89\u5e02\u9ad8\u65b0\u533a\u9ad8\u65b0\u6c34\u6676\u57ceC\u680b905", "province": "\u9655\u897f\u7701", "city": "\u897f\u5b89\u5e02", "area": "\u96c1\u5854\u533a", "street_id": "d70412ca945fa69a744ff144", "detail": 1, "uid": "d70412ca945fa69a744ff144", "detail_info": {"tag": "\u6587\u5316\u4f20\u5a92;\u5176\u4ed6", "type": "enterprise", "detail_url": "http://api.map.baidu.com/place/detail?uid=d70412ca945fa69a744ff144&output=html&source=placeapi_v2", "children": []}}, {"name": "\u897f\u5b89\u534e\u827a\u5f71\u89c6\u4f20\u5a92\u6709\u9650\u516c\u53f8", "location": {"lat": 34.237799, "lng": 108.93082}, "address": "\u4e8c\u73af\u5357\u8def\u897f\u6bb5118\u5b89\u99a8\u56ed\u5927\u53a615\u5c42J", "province": "\u9655\u897f\u7701", "city": "\u897f\u5b89\u5e02", "area": "\u96c1\u5854\u533a", "street_id": "a09a29570a03f31dca09f007", "detail": 1, "uid": "a09a29570a03f31dca09f007", "detail_info": {"tag": "\u6587\u5316\u4f20\u5a92;\u5e7f\u64ad\u7535\u89c6", "type": "enterprise", "detail_url": "http://api.map.baidu.com/place/detail?uid=a09a29570a03f31dca09f007&output=html&source=placeapi_v2", "children": []}}, {"name": "\u897f\u5b89\u7f8e\u6e90\u5e7f\u544a\u6587\u5316\u4f20\u64ad\u6709\u9650\u516c\u53f8", "location": {"lat": 34.239913, "lng": 108.938264}, "address": "\u897f\u5b89\u5e02\u542b\u5149\u8def\u4e2d\u6bb5\u65b0\u897f\u90e8\u533b\u836f\u4ea4\u6613\u5927\u53a61705\u5ba4", "province": "\u9655\u897f\u7701", "city": "\u897f\u5b89\u5e02", "area": "\u7891\u6797\u533a", "street_id": "e48c34e91831430415c905e8", "detail": 1, "uid": "e48c34e91831430415c905e8", "detail_info": {"tag": "\u516c\u53f8\u4f01\u4e1a;\u516c\u53f8", "type": "enterprise", "detail_url": "http://api.map.baidu.com/place/detail?uid=e48c34e91831430415c905e8&output=html&source=placeapi_v2", "children": []}}, {"name": "\u60a6\u8bda\u5e7f\u544a(\u6587\u5316\u4f20\u64ad\u6709\u9650\u516c\u53f8)", "location": {"lat": 34.267983, "lng": 108.938918}, "address": "\u9655\u897f\u7701\u897f\u5b89\u5e02\u83b2\u6e56\u533a\u5927\u9ea6\u5e02\u885774", "province": "\u9655\u897f\u7701", "city": "\u897f\u5b89\u5e02", "area": "\u83b2\u6e56\u533a", "street_id": "448848241d77879f843304be", "detail": 1, "uid": "448848241d77879f843304be", "detail_info": {"tag": "\u6587\u5316\u4f20\u5a92;\u5176\u4ed6", "type": "enterprise", "detail_url": "http://api.map.baidu.com/place/detail?uid=448848241d77879f843304be&output=html&source=placeapi_v2", "children": []}}, {"name": "\u798f\u83b1\u65af\u5e7f\u544a\u6587\u5316\u4f20\u64ad\u6709\u9650\u516c\u53f8", "location": {"lat": 34.246029, "lng": 108.906379}, "address": "\u9ad8\u65b0\u4e09\u8def8\u53f7\u6a59\u4ed5\u7a7a\u95f4625", "province": "\u9655\u897f\u7701", "city": "\u897f\u5b89\u5e02", "area": "\u96c1\u5854\u533a", "street_id": "f95a59eb9a23283407fef529", "detail": 1, "uid": "f95a59eb9a23283407fef529", "detail_info": {"tag": "\u6587\u5316\u4f20\u5a92;\u5176\u4ed6", "navi_location": {"lng": 108.9071366251, "lat": 34.245638552687}, "type": "enterprise", "detail_url": "http://api.map.baidu.com/place/detail?uid=f95a59eb9a23283407fef529&output=html&source=placeapi_v2", "children": []}}, {"name": "\u9655\u897f\u6c47\u76db\u6587\u5316\u4f20\u64ad\u6709\u9650\u516c\u53f8", "location": {"lat": 34.250115, "lng": 108.90331}, "address": "\u4e8c\u73af\u5357\u8def\u897f\u6bb5208\u53f7\u6377\u745e\u5927\u53a66\u5c42-1", "province": "\u9655\u897f\u7701", "city": "\u897f\u5b89\u5e02", "area": "\u96c1\u5854\u533a", "street_id": "d73ca40fdfab0d918c55ec7d", "detail": 1, "uid": "d73ca40fdfab0d918c55ec7d", "detail_info": {"tag": "\u6587\u5316\u4f20\u5a92;\u5176\u4ed6", "type": "enterprise", "detail_url": "http://api.map.baidu.com/place/detail?uid=d73ca40fdfab0d918c55ec7d&output=html&source=placeapi_v2", "children": []}}, {"name": "\u897f\u5b89\u6c38\u57fa\u5e7f\u544a\u4f20\u5a92\u6709\u9650\u516c\u53f8", "location": {"lat": 34.238797, "lng": 108.908839}, "address": "\u897f\u5b89\u9ad8\u65b0\u6280\u672f\u4ea7\u4e1a\u5f00\u53d1\u533a\u79d1\u6280\u8def37\u53f7\u6d77\u661f\u57ce\u5e02\u5e7f\u573aB\u5ea70702", "province": "\u9655\u897f\u7701", "city": "\u897f\u5b89\u5e02", "area": "\u96c1\u5854\u533a", "street_id": "a149ff02cc2d99e6e856fa0a", "detail": 1, "uid": "a149ff02cc2d99e6e856fa0a", "detail_info": {"tag": "\u6587\u5316\u4f20\u5a92;\u5176\u4ed6", "type": "enterprise", "detail_url": "http://api.map.baidu.com/place/detail?uid=a149ff02cc2d99e6e856fa0a&output=html&source=placeapi_v2", "children": []}}, {"name": "\u9655\u897f\u65b0\u5bb6\u56ed\u6587\u5316\u4f20\u64ad\u6709\u9650\u516c\u53f8", "location": {"lat": 34.245109, "lng": 108.907669}, "address": "\u9ad8\u65b0\u4e09\u8def\u8d22\u5bcc\u4e2d\u5fc3\u4e8c\u671fD\u5ea72408", "province": "\u9655\u897f\u7701", "city": "\u897f\u5b89\u5e02", "area": "\u96c1\u5854\u533a", "street_id": "8fdf16efaa1c78ade81e97a0", "detail": 1, "uid": "8fdf16efaa1c78ade81e97a0", "detail_info": {"tag": "\u6587\u5316\u4f20\u5a92;\u5176\u4ed6", "navi_location": {"lng": 108.90761143795, "lat": 34.244984071358}, "type": "enterprise", "detail_url": "http://api.map.baidu.com/place/detail?uid=8fdf16efaa1c78ade81e97a0&output=html&source=placeapi_v2", "children": []}}, {"name": "\u897f\u5b89\u535a\u822a\u6587\u5316\u4f20\u64ad\u6709\u9650\u516c\u53f8", "location": {"lat": 34.237948, "lng": 108.930819}, "address": "\u897f\u5b89\u5e02\u96c1\u5854\u533a\u4e8c\u73af\u5357\u8def\u897f\u6bb5118\u53f7\u5b89\u99a8\u56ed\u5927\u53a619\u5c42", "province": "\u9655\u897f\u7701", "city": "\u897f\u5b89\u5e02", "area": "\u96c1\u5854\u533a", "street_id": "ac2d6382a93b63af6140a907", "detail": 1, "uid": "ac2d6382a93b63af6140a907", "detail_info": {"tag": "\u6587\u5316\u4f20\u5a92;\u5176\u4ed6", "type": "enterprise", "detail_url": "http://api.map.baidu.com/place/detail?uid=ac2d6382a93b63af6140a907&output=html&source=placeapi_v2", "children": []}}, {"name": "\u9655\u897f\u9f99\u9633\u6587\u5316\u4f20\u64ad\u6709\u9650\u516c\u53f8", "location": {"lat": 34.219284, "lng": 108.898746}, "address": "\u9ad8\u65b0\u8def88\u53f7\u5c1a\u54c1\u56fd\u9645c\u5e626\u5c42", "province": "\u9655\u897f\u7701", "city": "\u897f\u5b89\u5e02", "area": "\u96c1\u5854\u533a", "detail": 1, "uid": "2d31807d4631f81d8bfc0648", "detail_info": {"tag": "\u6587\u5316\u4f20\u5a92;\u5176\u4ed6", "type": "enterprise", "detail_url": "http://api.map.baidu.com/place/detail?uid=2d31807d4631f81d8bfc0648&output=html&source=placeapi_v2", "children": []}}, {"name": "\u9655\u897f\u552f\u521b\u6587\u5316\u4f20\u64ad\u6709\u9650\u516c\u53f8", "location": {"lat": 34.252825, "lng": 108.887954}, "address": "\u56e2\u7ed3\u5357\u8def\u4e5d\u5f62\u90533\u53f7\u697c2802\u5ba4", "province": "\u9655\u897f\u7701", "city": "\u897f\u5b89\u5e02", "area": "\u96c1\u5854\u533a", "detail": 1, "uid": "00601cf70a19f14130169b6c", "detail_info": {"tag": "\u6587\u5316\u4f20\u5a92;\u5176\u4ed6", "type": "enterprise", "detail_url": "http://api.map.baidu.com/place/detail?uid=00601cf70a19f14130169b6c&output=html&source=placeapi_v2", "children": []}}, {"name": "\u9655\u897f\u6717\u661f\u6587\u5316\u4f20\u64ad\u6709\u9650\u516c\u53f8", "location": {"lat": 34.237492, "lng": 108.932769}, "address": "\u5357\u4e8c\u73af\u91d1\u53f6\u5927\u53a6\u4f17\u521b\u7a7a\u95f4", "province": "\u9655\u897f\u7701", "city": "\u897f\u5b89\u5e02", "area": "\u96c1\u5854\u533a", "street_id": "c6155e0d5cba37b983a00c18", "detail": 1, "uid": "c6155e0d5cba37b983a00c18", "detail_info": {"tag": "\u6587\u5316\u4f20\u5a92;\u5176\u4ed6", "type": "enterprise", "detail_url": "http://api.map.baidu.com/place/detail?uid=c6155e0d5cba37b983a00c18&output=html&source=placeapi_v2", "children": []}}, {"name": "\u897f\u5b89\u6c47\u7f8e\u5e7f\u544a\u6587\u5316\u4f20\u64ad\u6709\u9650\u516c\u53f8", "location": {"lat": 34.243557, "lng": 108.912838}, "address": "\u9ad8\u65b0\u4e00\u8def5\u53f7\u6b63\u4fe1\u5927\u53a621\u5c42", "province": "\u9655\u897f\u7701", "city": "\u897f\u5b89\u5e02", "area": "\u96c1\u5854\u533a", "street_id": "fed3325e0b4d5bc036b06cbf", "detail": 1, "uid": "fed3325e0b4d5bc036b06cbf", "detail_info": {"tag": "\u6587\u5316\u4f20\u5a92;\u5176\u4ed6", "type": "enterprise", "detail_url": "http://api.map.baidu.com/place/detail?uid=fed3325e0b4d5bc036b06cbf&output=html&source=placeapi_v2", "children": []}}, {"name": "\u9655\u897f\u4e91\u5fd7\u5e7f\u544a\u6587\u5316\u4f20\u64ad\u6709\u9650\u516c\u53f8", "location": {"lat": 34.241715, "lng": 108.899093}, "address": "\u897f\u5b89\u5e02\u9ad8\u65b0\u533a\u79d1\u6280\u8def50\u53f7\u91d1\u6865\u56fd\u9645\u5e7f\u573a11\u5c42", "province": "\u9655\u897f\u7701", "city": "\u897f\u5b89\u5e02", "area": "\u96c1\u5854\u533a", "street_id": "681dd95165d5f32af90cad90", "detail": 1, "uid": "681dd95165d5f32af90cad90", "detail_info": {"tag": "\u6587\u5316\u4f20\u5a92;\u5176\u4ed6", "type": "enterprise", "detail_url": "http://api.map.baidu.com/place/detail?uid=681dd95165d5f32af90cad90&output=html&source=placeapi_v2", "children": []}}, {"name": "\u897f\u5b89\u838e\u7fc1\u5e7f\u544a\u6587\u5316\u4f20\u64ad\u6709\u9650\u516c\u53f8", "location": {"lat": 34.237728, "lng": 108.931396}, "address": "\u4e8c\u73af\u5357\u8def\u897f\u6bb5106-108\u53f7\u7d2b\u7af9\u5927\u53a616\u5c42", "province": "\u9655\u897f\u7701", "city": "\u897f\u5b89\u5e02", "area": "\u96c1\u5854\u533a", "street_id": "5dbc21ebd2df3f1ec61b7525", "detail": 1, "uid": "5dbc21ebd2df3f1ec61b7525", "detail_info": {"tag": "\u6587\u5316\u4f20\u5a92;\u5176\u4ed6", "type": "enterprise", "detail_url": "http://api.map.baidu.com/place/detail?uid=5dbc21ebd2df3f1ec61b7525&output=html&source=placeapi_v2", "children": []}}, {"name": "\u897f\u5b89\u667a\u56fe\u5e7f\u544a\u6587\u5316\u4f20\u64ad\u6709\u9650\u516c\u53f8", "location": {"lat": 34.203641, "lng": 108.951617}, "address": "\u957f\u5b89\u5357\u8def98\u53f7\u957f\u5ef6\u5c452#2\u5355\u514322206", "province": "\u9655\u897f\u7701", "city": "\u897f\u5b89\u5e02", "area": "\u96c1\u5854\u533a", "street_id": "a8dc664b75de8c0446e274e9", "detail": 1, "uid": "a8dc664b75de8c0446e274e9", "detail_info": {"tag": "\u6587\u5316\u4f20\u5a92;\u5176\u4ed6", "type": "enterprise", "detail_url": "http://api.map.baidu.com/place/detail?uid=a8dc664b75de8c0446e274e9&output=html&source=placeapi_v2", "price": "0.0", "children": []}}, {"name": "\u897f\u5b89\u9a8f\u817e\u4f01\u4e1a\u6587\u5316\u4f20\u64ad\u6709\u9650\u516c\u53f8", "location": {"lat": 34.196515, "lng": 108.950756}, "address": "\u957f\u5b89\u5357\u8def\u534e\u57ce\u56fd\u96455\u53f7\u697c1\u5355\u51431004\u5ba4", "province": "\u9655\u897f\u7701", "city": "\u897f\u5b89\u5e02", "area": "\u96c1\u5854\u533a", "street_id": "3113c401f5a021981d58003a", "detail": 1, "uid": "3113c401f5a021981d58003a", "detail_info": {"tag": "\u6587\u5316\u4f20\u5a92;\u5176\u4ed6", "type": "enterprise", "detail_url": "http://api.map.baidu.com/place/detail?uid=3113c401f5a021981d58003a&output=html&source=placeapi_v2", "children": []}}, {"name": "\u897f\u5b89\u6587\u6b63\u5e7f\u544a\u6587\u5316\u4f20\u64ad\u6709\u9650\u516c\u53f8", "location": {"lat": 34.227331, "lng": 108.921971}, "address": "\u9655\u897f\u7701\u897f\u5b89\u5e02\u96c1\u5854\u533a\u592a\u767d\u5357\u8def191", "province": "\u9655\u897f\u7701", "city": "\u897f\u5b89\u5e02", "area": "\u96c1\u5854\u533a", "street_id": "587661e9f272768f22022094", "detail": 1, "uid": "587661e9f272768f22022094", "detail_info": {"tag": "\u6587\u5316\u4f20\u5a92;\u5176\u4ed6", "type": "enterprise", "detail_url": "http://api.map.baidu.com/place/detail?uid=587661e9f272768f22022094&output=html&source=placeapi_v2", "children": []}}, {"name": "\u897f\u5b89\u534e\u4ec1\u5e7f\u544a\u6587\u5316\u4f20\u64ad\u6709\u9650\u516c\u53f8", "location": {"lat": 34.209987, "lng": 108.924066}, "address": "\u9655\u897f\u7701\u897f\u5b89\u5e02\u96c1\u5854\u533a\u7535\u5b50\u56db\u8def\u5357150\u7c73", "province": "\u9655\u897f\u7701", "city": "\u897f\u5b89\u5e02", "area": "\u96c1\u5854\u533a", "street_id": "05c6b56539df2f7121f01763", "telephone": "(029)88442942", "detail": 1, "uid": "05c6b56539df2f7121f01763", "detail_info": {"tag": "\u6587\u5316\u4f20\u5a92;\u5176\u4ed6", "type": "enterprise", "detail_url": "http://api.map.baidu.com/place/detail?uid=05c6b56539df2f7121f01763&output=html&source=placeapi_v2", "children": []}}, {"name": "\u4e0a\u6d77\u5c1a\u672c\u6587\u5316\u4f20\u64ad\u516c\u53f8\u897f\u5b89\u5206\u516c\u53f8", "location": {"lat": 34.231768, "lng": 108.923465}, "address": "\u79d1\u6280\u8def1\u7d2b\u8587\u9f99\u817e\u65b0\u4e16\u754c26\u5c422608", "province": "\u9655\u897f\u7701", "city": "\u897f\u5b89\u5e02", "area": "\u96c1\u5854\u533a", "street_id": "4f282e590ec922e0f03cba64", "detail": 1, "uid": "4f282e590ec922e0f03cba64", "detail_info": {"tag": "\u6587\u5316\u4f20\u5a92;\u5176\u4ed6", "type": "enterprise", "detail_url": "http://api.map.baidu.com/place/detail?uid=4f282e590ec922e0f03cba64&output=html&source=placeapi_v2", "children": []}}, {"name": "\u897f\u5b89\u91d1\u706b\u70ac\u5e7f\u544a\u6587\u5316\u4f20\u64ad\u6709\u9650\u516c\u53f8", "location": {"lat": 34.206855, "lng": 108.904913}, "address": "\u9655\u897f\u7701\u897f\u5b89\u5e02\u96c1\u5854\u533a\u592a\u767d\u5357\u8def\u7d2b\u8587\u5c1a\u5c42\u897f1\u5c422\u5355\u5143507\u5ba4", "province": "\u9655\u897f\u7701", "city": "\u897f\u5b89\u5e02", "area": "\u96c1\u5854\u533a", "street_id": "8740fa707df8267121f01797", "detail": 1, "uid": "8740fa707df8267121f01797", "detail_info": {"tag": "\u6587\u5316\u4f20\u5a92;\u5176\u4ed6", "type": "enterprise", "detail_url": "http://api.map.baidu.com/place/detail?uid=8740fa707df8267121f01797&output=html&source=placeapi_v2", "children": []}}, {"name": "\u897f\u5b89\u521b\u51e1\u5e7f\u544a\u6587\u5316\u4f20\u64ad\u6709\u9650\u516c\u53f8", "location": {"lat": 34.213159, "lng": 108.919203}, "address": "\u9655\u897f\u7701\u897f\u5b89\u5e02\u96c1\u5854\u533a\u7535\u5b50\u57ce\u5546\u5708\u7535\u5b50\u897f\u88573\u53f7", "province": "\u9655\u897f\u7701", "city": "\u897f\u5b89\u5e02", "area": "\u96c1\u5854\u533a", "street_id": "5a1284e93f5845d9bb17e760", "detail": 1, "uid": "5a1284e93f5845d9bb17e760", "detail_info": {"tag": "\u6587\u5316\u4f20\u5a92;\u5176\u4ed6", "type": "enterprise", "detail_url": "http://api.map.baidu.com/place/detail?uid=5a1284e93f5845d9bb17e760&output=html&source=placeapi_v2", "children": []}}, {"name": "\u897f\u5b89\u7d22\u9541\u4f01\u4e1a\u6587\u5316\u4f20\u64ad\u6709\u9650\u516c\u53f8", "location": {"lat": 34.203224, "lng": 108.890635}, "address": "\u7eff\u5730\u5357\u6d772006\u5ba4", "province": "\u9655\u897f\u7701", "city": "\u897f\u5b89\u5e02", "area": "\u96c1\u5854\u533a", "street_id": "105a58ed6a70fedeeedfca26", "detail": 1, "uid": "105a58ed6a70fedeeedfca26", "detail_info": {"tag": "\u6587\u5316\u4f20\u5a92;\u5176\u4ed6", "type": "enterprise", "detail_url": "http://api.map.baidu.com/place/detail?uid=105a58ed6a70fedeeedfca26&output=html&source=placeapi_v2", "price": "0.0", "children": []}}, {"name": "\u897f\u5b89\u805a\u8317\u8f69\u8336\u6587\u5316\u4f20\u64ad\u6709\u9650\u516c\u53f8", "location": {"lat": 34.198457, "lng": 108.852292}, "address": "\u9ad8\u65b0\u533a\u9526\u4e1a\u8def\u897f\u53e388\u53f7\u9526\u5c1a\u540d\u57ce\u5c0f\u533a\u95e8\u9762\u623f", "province": "\u9655\u897f\u7701", "city": "\u897f\u5b89\u5e02", "area": "\u96c1\u5854\u533a", "street_id": "06f1c11fe89c10b2a8059dc7", "detail": 1, "uid": "06f1c11fe89c10b2a8059dc7", "detail_info": {"tag": "\u6587\u5316\u4f20\u5a92;\u5176\u4ed6", "type": "enterprise", "detail_url": "http://api.map.baidu.com/place/detail?uid=06f1c11fe89c10b2a8059dc7&output=html&source=placeapi_v2", "children": []}}, {"name": "\u897f\u5b89\u96c4\u6770\u5e7f\u544a\u6587\u5316\u4f20\u64ad\u6709\u9650\u516c\u53f8", "location": {"lat": 34.277064, "lng": 108.944095}, "address": "\u9752\u5e74\u8def\u8857\u9053\u9752\u5e74\u8def156\u53f71\u5e627\u5c4210701\u53f7", "province": "\u9655\u897f\u7701", "city": "\u897f\u5b89\u5e02", "area": "\u83b2\u6e56\u533a", "street_id": "b3e2385b69c85f79e8e582eb", "detail": 1, "uid": "b3e2385b69c85f79e8e582eb", "detail_info": {"tag": "\u6587\u5316\u4f20\u5a92;\u5176\u4ed6", "type": "enterprise", "detail_url": "http://api.map.baidu.com/place/detail?uid=b3e2385b69c85f79e8e582eb&output=html&source=placeapi_v2", "children": []}}, {"name": "\u897f\u5b89\u62a5\u53cb\u6587\u5316\u4f20\u64ad\u6709\u9650\u8d23\u4efb\u516c\u53f8", "location": {"lat": 34.25916, "lng": 108.942802}, "address": "\u9655\u897f\u7701\u897f\u5b89\u5e02\u7891\u6797\u533a\u56db\u5e9c\u88579\u53f7", "province": "\u9655\u897f\u7701", "city": "\u897f\u5b89\u5e02", "area": "\u7891\u6797\u533a", "street_id": "140c441e70809abb3a13fd89", "detail": 1, "uid": "140c441e70809abb3a13fd89", "detail_info": {"tag": "\u6587\u5316\u4f20\u5a92;\u5176\u4ed6", "type": "enterprise", "detail_url": "http://api.map.baidu.com/place/detail?uid=140c441e70809abb3a13fd89&output=html&source=placeapi_v2", "children": []}}, {"name": "\u9655\u897f\u5f39\u6307\u5f71\u97f3\u6587\u5316\u4f20\u64ad\u6709\u9650\u516c\u53f8", "location": {"lat": 34.251072, "lng": 108.944982}, "address": "\u6731\u96c0\u5927\u8857\u5317\u6bb5\u91d1\u725b\u9505\u7089\u5927\u53a61806\u5ba4", "province": "\u9655\u897f\u7701", "city": "\u897f\u5b89\u5e02", "area": "\u7891\u6797\u533a", "street_id": "a78c973319a0f7e2df1e52bc", "detail": 1, "uid": "a78c973319a0f7e2df1e52bc", "detail_info": {"tag": "\u6587\u5316\u4f20\u5a92;\u5e7f\u64ad\u7535\u89c6", "type": "enterprise", "detail_url": "http://api.map.baidu.com/place/detail?uid=a78c973319a0f7e2df1e52bc&output=html&source=placeapi_v2", "children": []}}, {"name": "\u897f\u5b89\u76db\u4e16\u9713\u88f3\u6c49\u6587\u5316\u4f20\u64ad\u6709\u9650\u516c\u53f8", "location": {"lat": 34.244287, "lng": 108.948582}, "address": "\u9655\u897f\u7701\u897f\u5b89\u5e02\u7891\u6797\u533a\u8350\u798f\u5bfa\u8def", "province": "\u9655\u897f\u7701", "city": "\u897f\u5b89\u5e02", "area": "\u7891\u6797\u533a", "detail": 1, "uid": "d9c1eccacc4c505dc17da2d8", "detail_info": {"tag": "\u6587\u5316\u4f20\u5a92;\u5176\u4ed6", "type": "enterprise", "detail_url": "http://api.map.baidu.com/place/detail?uid=d9c1eccacc4c505dc17da2d8&output=html&source=placeapi_v2", "comment_num": "1", "children": []}}, {"name": "\u897f\u5b89\u745e\u79d1\u5e7f\u544a\u6587\u5316\u4f20\u64ad\u6709\u9650\u516c\u53f8", "location": {"lat": 34.239617, "lng": 108.950169}, "address": "\u957f\u5b89\u5317\u8def14\u53f7\u7701\u4f53\u80b2\u573a\u4f53\u80b2\u5bbe\u99865F", "province": "\u9655\u897f\u7701", "city": "\u897f\u5b89\u5e02", "area": "\u7891\u6797\u533a", "street_id": "4a08e941c15a7f01f82213a7", "detail": 1, "uid": "4a08e941c15a7f01f82213a7", "detail_info": {"tag": "\u6587\u5316\u4f20\u5a92;\u5176\u4ed6", "type": "enterprise", "detail_url": "http://api.map.baidu.com/place/detail?uid=4a08e941c15a7f01f82213a7&output=html&source=placeapi_v2", "price": "0.0", "children": []}}, {"name": "\u897f\u5b89\u5bcc\u514b\u65af\u8bed\u8a00\u6587\u5316\u4f20\u64ad\u6709\u9650\u516c\u53f8", "location": {"lat": 34.245873, "lng": 108.906282}, "address": "\u9655\u897f\u7701\u897f\u5b89\u5e02\u96c1\u5854\u533a\u9ad8\u65b0\u4e09\u8def\u6a59\u4ed5\u7a7a\u95f4B503\u5ba4", "province": "\u9655\u897f\u7701", "city": "\u897f\u5b89\u5e02", "area": "\u96c1\u5854\u533a", "street_id": "3453e17ab5003c9f8bf15d7c", "detail": 1, "uid": "3453e17ab5003c9f8bf15d7c", "detail_info": {"tag": "\u6587\u5316\u4f20\u5a92;\u5176\u4ed6", "navi_location": {"lng": 108.9071366251, "lat": 34.245638552687}, "type": "enterprise", "detail_url": "http://api.map.baidu.com/place/detail?uid=3453e17ab5003c9f8bf15d7c&output=html&source=placeapi_v2", "children": []}}, {"name": "\u897f\u5b89\u4e34\u98ce\u6613\u521b\u6587\u5316\u4f20\u64ad\u6709\u9650\u516c\u53f8", "location": {"lat": 34.269967, "lng": 108.928634}, "address": "\u73af\u57ce\u897f\u8def\u5317\u6bb5240\u53f7\u946b\u76db\u5927\u53a6A708", "province": "\u9655\u897f\u7701", "city": "\u897f\u5b89\u5e02", "area": "\u83b2\u6e56\u533a", "street_id": "1f509601ac7f1e49a0acc440", "detail": 1, "uid": "1f509601ac7f1e49a0acc440", "detail_info": {"tag": "\u6587\u5316\u4f20\u5a92;\u5176\u4ed6", "type": "enterprise", "detail_url": "http://api.map.baidu.com/place/detail?uid=1f509601ac7f1e49a0acc440&output=html&source=placeapi_v2", "children": []}}, {"name": "\u897f\u5b89\u96c4\u5ddd\u5e7f\u544a\u6587\u5316\u4f20\u64ad\u6709\u9650\u516c\u53f8", "location": {"lat": 34.241078, "lng": 108.933079}, "address": "\u9655\u897f\u7701\u897f\u5b89\u5e02\u7891\u6797\u533a\u897f\u4f55\u5bb6\u675114\u51ef\u65cb\u57ce", "province": "\u9655\u897f\u7701", "city": "\u897f\u5b89\u5e02", "area": "\u7891\u6797\u533a", "street_id": "af1cc07a72ed3a0c0f0a7025", "detail": 1, "uid": "af1cc07a72ed3a0c0f0a7025", "detail_info": {"tag": "\u6587\u5316\u4f20\u5a92;\u5176\u4ed6", "type": "enterprise", "detail_url": "http://api.map.baidu.com/place/detail?uid=af1cc07a72ed3a0c0f0a7025&output=html&source=placeapi_v2", "children": []}}, {"name": "\u9655\u897f\u5de8\u51ef\u5e7f\u544a\u6587\u5316\u4f20\u64ad\u6709\u9650\u516c\u53f8", "location": {"lat": 34.249798, "lng": 108.903761}, "address": "\u5357\u4e8c\u73af\u897f\u6bb5\u4e5d\u5ea7\u82b1\u56ed", "province": "\u9655\u897f\u7701", "city": "\u897f\u5b89\u5e02", "area": "\u96c1\u5854\u533a", "street_id": "84b4373bf9ac31203586f41b", "detail": 1, "uid": "84b4373bf9ac31203586f41b", "detail_info": {"tag": "\u6587\u5316\u4f20\u5a92;\u5176\u4ed6", "type": "enterprise", "detail_url": "http://api.map.baidu.com/place/detail?uid=84b4373bf9ac31203586f41b&output=html&source=placeapi_v2", "children": []}}, {"name": "\u897f\u5b89\u5929\u60e0\u6587\u5316\u4f20\u64ad\u5e7f\u544a\u6709\u9650\u516c\u53f8", "location": {"lat": 34.250118, "lng": 108.90331}, "address": "\u4e8c\u73af\u5357\u8def\u897f\u6bb5208\u53f7\u6377\u745e\u5927\u53a612\u5c42-6", "province": "\u9655\u897f\u7701", "city": "\u897f\u5b89\u5e02", "area": "\u96c1\u5854\u533a", "street_id": "54ba5c1071f3564d2b06ce4a", "detail": 1, "uid": "54ba5c1071f3564d2b06ce4a", "detail_info": {"tag": "\u6587\u5316\u4f20\u5a92;\u5176\u4ed6", "type": "enterprise", "detail_url": "http://api.map.baidu.com/place/detail?uid=54ba5c1071f3564d2b06ce4a&output=html&source=placeapi_v2", "children": []}}, {"name": "\u897f\u5b89\u98de\u68a6\u4f53\u80b2\u6587\u5316\u4f20\u64ad\u6709\u9650\u516c\u53f8", "location": {"lat": 34.238463, "lng": 108.938298}, "address": "\u542b\u5149\u8def3513\u519b\u5de5\u793e\u533a", "province": "\u9655\u897f\u7701", "city": "\u897f\u5b89\u5e02", "area": "\u7891\u6797\u533a", "street_id": "b487168a3537b12b26e0a037", "detail": 1, "uid": "b487168a3537b12b26e0a037", "detail_info": {"tag": "\u6587\u5316\u4f20\u5a92;\u5176\u4ed6", "type": "enterprise", "detail_url": "http://api.map.baidu.com/place/detail?uid=b487168a3537b12b26e0a037&output=html&source=placeapi_v2", "children": []}}, {"name": "\u897f\u5b89\u4e2d\u9645\u5e7f\u544a\u6587\u5316\u4f20\u64ad\u6709\u9650\u516c\u53f8", "location": {"lat": 34.23916, "lng": 108.908021}, "address": "\u897f\u5b89\u9ad8\u65b0\u6280\u672f\u4ea7\u4e1a\u5f00\u53d1\u533a\u79d1\u6280\u8def37\u53f7\u6d77\u661f\u57ce\u5e02\u5e7f\u573aB\u5ea714\u5c42", "province": "\u9655\u897f\u7701", "city": "\u897f\u5b89\u5e02", "area": "\u96c1\u5854\u533a", "detail": 1, "uid": "ec67a393b3f4c7f451e5c583", "detail_info": {"tag": "\u6587\u5316\u4f20\u5a92;\u5176\u4ed6", "type": "enterprise", "detail_url": "http://api.map.baidu.com/place/detail?uid=ec67a393b3f4c7f451e5c583&output=html&source=placeapi_v2", "children": []}}, {"name": "\u9655\u897f\u9189\u4e1d\u8def\u5e7f\u544a\u6587\u5316\u4f20\u64ad\u6709\u9650\u516c\u53f8", "location": {"lat": 34.223292, "lng": 108.94431}, "address": "\u6731\u96c0\u5927\u8857132\u53f71\u5e622\u5355\u514322702\u5ba4", "province": "\u9655\u897f\u7701", "city": "\u897f\u5b89\u5e02", "area": "\u96c1\u5854\u533a", "street_id": "5543b6260f62adf7cb213dd0", "detail": 1, "uid": "5543b6260f62adf7cb213dd0", "detail_info": {"tag": "\u6587\u5316\u4f20\u5a92;\u5176\u4ed6", "type": "enterprise", "detail_url": "http://api.map.baidu.com/place/detail?uid=5543b6260f62adf7cb213dd0&output=html&source=placeapi_v2", "price": "0.0", "children": []}}, {"name": "\u9655\u897f\u5929\u65b9\u5e7f\u544a\u6587\u5316\u4f20\u64ad\u6709\u9650\u516c\u53f8", "location": {"lat": 34.19838, "lng": 108.943999}, "address": "\u897f\u5b89\u5e02\u96c1\u5854\u533a\u957f\u5b89\u5357\u8def\u7d2b\u90e1\u957f\u5b89A\u533a", "province": "\u9655\u897f\u7701", "city": "\u897f\u5b89\u5e02", "area": "\u96c1\u5854\u533a", "street_id": "e6ae1fc3e2642ed9744ff138", "detail": 1, "uid": "e6ae1fc3e2642ed9744ff138", "detail_info": {"tag": "\u6587\u5316\u4f20\u5a92;\u5176\u4ed6", "type": "enterprise", "detail_url": "http://api.map.baidu.com/place/detail?uid=e6ae1fc3e2642ed9744ff138&output=html&source=placeapi_v2", "children": []}}, {"name": "\u897f\u5b89\u5c0f\u660e\u51fa\u8da3\u6587\u5316\u4f20\u64ad\u6709\u9650\u516c\u53f8", "location": {"lat": 34.228233, "lng": 108.947452}, "address": "\u5c0f\u5be8\u897f\u8def56\u53f7\u7687\u5bb6\u516c\u9986\u7b2c2\u5e621\u5355\u514310\u5c4211017\u5ba4", "province": "\u9655\u897f\u7701", "city": "\u897f\u5b89\u5e02", "area": "\u96c1\u5854\u533a", "street_id": "246b6852ac08e48bf82d615f", "detail": 1, "uid": "246b6852ac08e48bf82d615f", "detail_info": {"tag": "\u6587\u5316\u4f20\u5a92;\u5176\u4ed6", "type": "enterprise", "detail_url": "http://api.map.baidu.com/place/detail?uid=246b6852ac08e48bf82d615f&output=html&source=placeapi_v2", "children": []}}, {"name": "\u897f\u5b89\u51cc\u6052\u5e7f\u544a\u6587\u5316\u4f20\u64ad\u6709\u9650\u516c\u53f8", "location": {"lat": 34.208284, "lng": 108.926706}, "address": "\u7535\u5b50\u6b63\u8857164\u53f7\u6021\u5174\u5927\u53a61\u5e621\u5355\u51432007\u5ba4", "province": "\u9655\u897f\u7701", "city": "\u897f\u5b89\u5e02", "area": "\u96c1\u5854\u533a", "street_id": "54260036f7be5c1ba1046445", "detail": 1, "uid": "54260036f7be5c1ba1046445", "detail_info": {"tag": "\u6587\u5316\u4f20\u5a92;\u5176\u4ed6", "type": "enterprise", "detail_url": "http://api.map.baidu.com/place/detail?uid=54260036f7be5c1ba1046445&output=html&source=placeapi_v2", "price": "0.0", "children": []}}, {"name": "\u897f\u5b89\u8fd9\u793c\u5e7f\u544a\u6587\u5316\u4f20\u64ad\u6709\u9650\u516c\u53f8", "location": {"lat": 34.227801, "lng": 108.929881}, "address": "\u5409\u7965\u8def84\u53f7\u8c6a\u76db\u65f6\u4ee3A\u5e623\u5355\u514311\u5c4231102\u5ba4", "province": "\u9655\u897f\u7701", "city": "\u897f\u5b89\u5e02", "area": "\u96c1\u5854\u533a", "street_id": "96242657b1ed8346c6effb6a", "detail": 1, "uid": "96242657b1ed8346c6effb6a", "detail_info": {"tag": "\u6587\u5316\u4f20\u5a92;\u5176\u4ed6", "type": "enterprise", "detail_url": "http://api.map.baidu.com/place/detail?uid=96242657b1ed8346c6effb6a&output=html&source=placeapi_v2", "children": []}}, {"name": "\u897f\u5b89\u521b\u9f0e\u5e7f\u544a\u6587\u5316\u4f20\u64ad\u6709\u9650\u516c\u53f8", "location": {"lat": 34.225842, "lng": 108.912163}, "address": "\u7518\u5bb6\u5be8\u4e1c\u4e00\u63921\u53f7\u697c3\u5355\u5143", "province": "\u9655\u897f\u7701", "city": "\u897f\u5b89\u5e02", "area": "\u96c1\u5854\u533a", "street_id": "c11b30863cd3aadaa20464cc", "telephone": "(029)81887301", "detail": 1, "uid": "c11b30863cd3aadaa20464cc", "detail_info": {"tag": "\u6587\u5316\u4f20\u5a92;\u5176\u4ed6", "type": "enterprise", "detail_url": "http://api.map.baidu.com/place/detail?uid=c11b30863cd3aadaa20464cc&output=html&source=placeapi_v2", "children": []}}, {"name": "\u897f\u5b89\u4f9d\u6069\u5e7f\u544a\u6587\u5316\u4f20\u64ad\u6709\u9650\u516c\u53f8", "location": {"lat": 34.210196, "lng": 108.924267}, "address": "\u9655\u897f\u7701\u897f\u5b89\u5e02\u96c1\u5854\u533a\u7535\u5b50\u56db\u8def\u5357100\u7c73", "province": "\u9655\u897f\u7701", "city": "\u897f\u5b89\u5e02", "area": "\u96c1\u5854\u533a", "street_id": "88392a3ec888bf8e78f796a3", "telephone": "(029)89185418,18135666871", "detail": 1, "uid": "88392a3ec888bf8e78f796a3", "detail_info": {"tag": "\u6587\u5316\u4f20\u5a92;\u5176\u4ed6", "type": "enterprise", "detail_url": "http://api.map.baidu.com/place/detail?uid=88392a3ec888bf8e78f796a3&output=html&source=placeapi_v2", "children": []}}, {"name": "\u4ebf\u5fb7\u8bed\u8a00\u6587\u5316\u4f20\u64ad\u6709\u9650\u8d23\u4efb\u516c\u53f8", "location": {"lat": 34.211442, "lng": 108.917495}, "address": "\u9655\u897f\u7701\u897f\u5b89\u5e02\u96c1\u5854\u533a\u897f\u4eac\u4e09\u53f72\u680b11\u5c421102\u53f7", "province": "\u9655\u897f\u7701", "city": "\u897f\u5b89\u5e02", "area": "\u96c1\u5854\u533a", "street_id": "fb10f41ab92dea1235b06c0b", "detail": 1, "uid": "fb10f41ab92dea1235b06c0b", "detail_info": {"tag": "\u6587\u5316\u4f20\u5a92;\u5e7f\u64ad\u7535\u89c6", "type": "enterprise", "detail_url": "http://api.map.baidu.com/place/detail?uid=fb10f41ab92dea1235b06c0b&output=html&source=placeapi_v2", "price": "0.0", "children": []}}, {"name": "\u897f\u5b89\u84dd\u97f3\u5e7f\u544a\u6587\u5316\u4f20\u64ad\u6709\u9650\u516c\u53f8", "location": {"lat": 34.246007, "lng": 108.880355}, "address": "\u79d1\u6280\u8def\u897f\u53e3\u67ab\u97f5\u84dd\u6e7e\u5546\u4e1a\u8857\u5317108", "province": "\u9655\u897f\u7701", "city": "\u897f\u5b89\u5e02", "area": "\u96c1\u5854\u533a", "street_id": "9db451e5bbec5103df1e52fc", "detail": 1, "uid": "9db451e5bbec5103df1e52fc", "detail_info": {"tag": "\u6587\u5316\u4f20\u5a92;\u5176\u4ed6", "type": "enterprise", "detail_url": "http://api.map.baidu.com/place/detail?uid=9db451e5bbec5103df1e52fc&output=html&source=placeapi_v2", "price": "0.0", "children": []}}, {"name": "\u897f\u5b89\u4e54\u8fea\u827a\u672f\u6587\u5316\u4f20\u64ad\u6709\u9650\u516c\u53f8", "location": {"lat": 34.25129, "lng": 108.874857}, "address": "\u5927\u5be8\u8def\u4e0e\u6606\u660e\u6c60\u8def\u4ea4\u53c9\u53e3\u897f100\u7c73", "province": "\u9655\u897f\u7701", "city": "\u897f\u5b89\u5e02", "area": "\u96c1\u5854\u533a", "street_id": "48f6c67154a828b8d618b781", "detail": 1, "uid": "48f6c67154a828b8d618b781", "detail_info": {"tag": "\u6587\u5316\u4f20\u5a92;\u5176\u4ed6", "type": "enterprise", "detail_url": "http://api.map.baidu.com/place/detail?uid=48f6c67154a828b8d618b781&output=html&source=placeapi_v2", "children": []}}, {"name": "\u897f\u5b89\u5b89\u7075\u8f69\u5e7f\u544a\u6587\u5316\u4f20\u64ad\u6709\u9650\u516c\u53f8", "location": {"lat": 34.250257, "lng": 108.850144}, "address": "\u5927\u5be8\u8def\u77f3\u6865\u6b23\u82d18\u53f7\u697c3\u5355\u51431801", "province": "\u9655\u897f\u7701", "city": "\u897f\u5b89\u5e02", "area": "\u96c1\u5854\u533a", "street_id": "59e6b6dcddf1b8d3f8dc85ed", "detail": 1, "uid": "59e6b6dcddf1b8d3f8dc85ed", "detail_info": {"tag": "\u6587\u5316\u4f20\u5a92;\u5176\u4ed6", "type": "enterprise", "detail_url": "http://api.map.baidu.com/place/detail?uid=59e6b6dcddf1b8d3f8dc85ed&output=html&source=placeapi_v2", "children": []}}, {"name": "\u897f\u5b89\u516d\u548c\u56ed\u4f1a\u5c55\u6587\u5316\u4f20\u64ad\u6709\u9650\u516c\u53f8", "location": {"lat": 34.1878, "lng": 108.88724}, "address": "\u9ad8\u65b0\u533a\u9526\u4e1a\u4e8c\u8def\u4e0e\u4e08\u516b\u4e8c\u8def\u5341\u5b57\u4e1c\u5357\u89d2\u9038\u7fe0\u5c1a\u5e9c\u5357\u533a1-70113", "province": "\u9655\u897f\u7701", "city": "\u897f\u5b89\u5e02", "area": "\u96c1\u5854\u533a", "street_id": "70cb8d80c475a6b34d2fdfcd", "detail": 1, "uid": "70cb8d80c475a6b34d2fdfcd", "detail_info": {"tag": "\u6587\u5316\u4f20\u5a92;\u5176\u4ed6", "type": "enterprise", "detail_url": "http://api.map.baidu.com/place/detail?uid=70cb8d80c475a6b34d2fdfcd&output=html&source=placeapi_v2", "children": []}}, {"name": "\u897f\u5b89\u68a6\u7f8e\u5e7f\u544a\u6587\u5316\u4f20\u64ad\u6709\u9650\u516c\u53f8", "location": {"lat": 34.182273, "lng": 108.891483}, "address": "\u9655\u897f\u7701\u897f\u5b89\u5e02\u96c1\u5854\u533aG210(\u897f\u4e07\u8def)", "province": "\u9655\u897f\u7701", "city": "\u897f\u5b89\u5e02", "area": "\u96c1\u5854\u533a", "detail": 1, "uid": "91f3f53ebdc8942fc7f50d66", "detail_info": {"tag": "\u6587\u5316\u4f20\u5a92;\u5176\u4ed6", "type": "enterprise", "detail_url": "http://api.map.baidu.com/place/detail?uid=91f3f53ebdc8942fc7f50d66&output=html&source=placeapi_v2", "children": []}}, {"name": "\u897f\u5b89\u9f13\u5510\u4f01\u4e1a\u6587\u5316\u4f20\u64ad\u6709\u9650\u516c\u53f8", "location": {"lat": 34.175378, "lng": 108.875087}, "address": "\u957f\u5b89\u533a\u9633\u5149\u5929\u5730\u8d2d\u7269\u4e2d\u5fc348-50302\u53f7", "province": "\u9655\u897f\u7701", "city": "\u897f\u5b89\u5e02", "area": "\u957f\u5b89\u533a", "street_id": "2000b2509dc32880eb12e4dd", "detail": 1, "uid": "2000b2509dc32880eb12e4dd", "detail_info": {"tag": "\u6587\u5316\u4f20\u5a92;\u5176\u4ed6", "type": "enterprise", "detail_url": "http://api.map.baidu.com/place/detail?uid=2000b2509dc32880eb12e4dd&output=html&source=placeapi_v2", "price": "0.0", "children": []}}, {"name": "\u9655\u897f\u548c\u5408\u667a\u4e1a\u6587\u5316\u4f20\u64ad\u6709\u9650\u516c\u53f8", "location": {"lat": 34.256682, "lng": 108.943789}, "address": "\u73af\u57ce\u5357\u8def\u897f\u6bb533\u53f7\u65fa\u56ed\u5927\u53a6A\u5ea71901\u5ba4", "province": "\u9655\u897f\u7701", "city": "\u897f\u5b89\u5e02", "area": "\u7891\u6797\u533a", "street_id": "f18facb0269a8379095cb38d", "detail": 1, "uid": "f18facb0269a8379095cb38d", "detail_info": {"tag": "\u6587\u5316\u4f20\u5a92;\u5176\u4ed6", "type": "enterprise", "detail_url": "http://api.map.baidu.com/place/detail?uid=f18facb0269a8379095cb38d&output=html&source=placeapi_v2", "children": []}}, {"name": "\u897f\u5b89\u4e9a\u8fea\u5e7f\u544a\u6587\u5316\u4f20\u64ad\u6709\u9650\u516c\u53f8", "location": {"lat": 34.261338, "lng": 108.945897}, "address": "\u4e94\u5473\u4ec0\u5b5769\u53f7\u4f1f\u4e1a\u5927\u53a6A-13", "province": "\u9655\u897f\u7701", "city": "\u897f\u5b89\u5e02", "area": "\u7891\u6797\u533a", "street_id": "834df85d11bbf4bbf50e77dd", "detail": 1, "uid": "834df85d11bbf4bbf50e77dd", "detail_info": {"tag": "\u6587\u5316\u4f20\u5a92;\u5176\u4ed6", "type": "enterprise", "detail_url": "http://api.map.baidu.com/place/detail?uid=834df85d11bbf4bbf50e77dd&output=html&source=placeapi_v2", "children": []}}, {"name": "\u897f\u5b89\u7231\u8bfa\u5e7f\u544a\u6587\u5316\u4f20\u64ad\u6709\u9650\u516c\u53f8", "location": {"lat": 34.256851, "lng": 108.94819}, "address": "\u9655\u897f\u7701\u897f\u5b89\u5e02\u7891\u6797\u533a\u73af\u57ce\u5357\u8def20\u53f7\u6d77\u8054\u5927\u53a610\u5c4208", "province": "\u9655\u897f\u7701", "city": "\u897f\u5b89\u5e02", "area": "\u7891\u6797\u533a", "street_id": "68c881f3bd6441d6c17da21a", "detail": 1, "uid": "68c881f3bd6441d6c17da21a", "detail_info": {"tag": "\u6587\u5316\u4f20\u5a92;\u5176\u4ed6", "type": "enterprise", "detail_url": "http://api.map.baidu.com/place/detail?uid=68c881f3bd6441d6c17da21a&output=html&source=placeapi_v2", "children": []}}, {"name": "\u897f\u5b89\u6e05\u6d69\u5e7f\u544a\u6587\u5316\u4f20\u64ad\u6709\u9650\u516c\u53f8", "location": {"lat": 34.241666, "lng": 108.933332}, "address": "\u7891\u6797\u533a\u592a\u767d\u8def\u7acb\u4ea4\u897f\u8377\u82b1\u56ed(\u8fd1\u7ea2\u661f\u7f8e\u51ef\u9f99)", "province": "\u9655\u897f\u7701", "city": "\u897f\u5b89\u5e02", "area": "\u7891\u6797\u533a", "street_id": "97709dd56e48b456eedfcaf4", "detail": 1, "uid": "97709dd56e48b456eedfcaf4", "detail_info": {"tag": "\u6587\u5316\u4f20\u5a92;\u5176\u4ed6", "type": "enterprise", "detail_url": "http://api.map.baidu.com/place/detail?uid=97709dd56e48b456eedfcaf4&output=html&source=placeapi_v2", "overall_rating": "2.0", "children": []}}, {"name": "\u897f\u5b89\u71d5\u838e\u5e7f\u544a\u6587\u5316\u4f20\u64ad\u6709\u9650\u516c\u53f8", "location": {"lat": 34.25126, "lng": 108.903709}, "address": "\u4e8c\u73af\u5357\u8def\u897f\u6bb5397\u53f7\u99a8\u6cf0\u82b1\u56ed1\u680b2\u5355\u5143", "province": "\u9655\u897f\u7701", "city": "\u897f\u5b89\u5e02", "area": "\u83b2\u6e56\u533a", "street_id": "fabd4243c0903f584251c0a2", "detail": 1, "uid": "fabd4243c0903f584251c0a2", "detail_info": {"tag": "\u6587\u5316\u4f20\u5a92;\u5176\u4ed6", "type": "enterprise", "detail_url": "http://api.map.baidu.com/place/detail?uid=fabd4243c0903f584251c0a2&output=html&source=placeapi_v2", "price": "0.0", "children": []}}, {"name": "\u897f\u5b89\u5723\u5f71\u5e7f\u544a\u6587\u5316\u4f20\u64ad\u6709\u9650\u516c\u53f8", "location": {"lat": 34.24559, "lng": 108.906842}, "address": "\u9ad8\u65b0\u4e09\u8def\u897f\u9ad8\u667a\u80fd\u5927\u53a6801\u5ba4", "province": "\u9655\u897f\u7701", "city": "\u897f\u5b89\u5e02", "area": "\u96c1\u5854\u533a", "street_id": "d07dd235d27e6d72306212f4", "detail": 1, "uid": "d07dd235d27e6d72306212f4", "detail_info": {"tag": "\u6587\u5316\u4f20\u5a92;\u5176\u4ed6", "type": "enterprise", "detail_url": "http://api.map.baidu.com/place/detail?uid=d07dd235d27e6d72306212f4&output=html&source=placeapi_v2", "price": "0.0", "overall_rating": "5.0", "comment_num": "1", "children": []}}, {"name": "\u897f\u5b89\u76db\u535a\u5e7f\u544a\u6587\u5316\u4f20\u64ad\u6709\u9650\u516c\u53f8", "location": {"lat": 34.265812, "lng": 108.936071}, "address": "\u4e3e\u4eba\u9601\u5927\u53a6912", "province": "\u9655\u897f\u7701", "city": "\u897f\u5b89\u5e02", "area": "\u83b2\u6e56\u533a", "street_id": "4532228a6832825df4b9163b", "detail": 1, "uid": "4532228a6832825df4b9163b", "detail_info": {"tag": "\u6587\u5316\u4f20\u5a92;\u5176\u4ed6", "type": "enterprise", "detail_url": "http://api.map.baidu.com/place/detail?uid=4532228a6832825df4b9163b&output=html&source=placeapi_v2", "children": []}}, {"name": "\u9655\u897f\u5c0f\u8c4c\u8c46\u6f14\u827a\u6587\u5316\u4f20\u64ad\u6709\u9650\u516c\u53f8", "location": {"lat": 34.208055, "lng": 108.949492}, "address": "\u957f\u5ef6\u5821\u674f\u56ed\u5c0f\u533a11\u697c2\u5355\u514311\u5c424\u53f7", "province": "\u9655\u897f\u7701", "city": "\u897f\u5b89\u5e02", "area": "\u96c1\u5854\u533a", "street_id": "a717fd6a86ee53b608f5ebf0", "detail": 1, "uid": "a717fd6a86ee53b608f5ebf0", "detail_info": {"tag": "\u6587\u5316\u4f20\u5a92;\u5176\u4ed6", "type": "enterprise", "detail_url": "http://api.map.baidu.com/place/detail?uid=a717fd6a86ee53b608f5ebf0&output=html&source=placeapi_v2", "children": []}}, {"name": "\u897f\u5b89\u4e0d\u518d\u4f01\u4e1a\u6587\u5316\u4f20\u64ad\u6709\u9650\u516c\u53f8", "location": {"lat": 34.209849, "lng": 108.945121}, "address": "\u9655\u897f\u7701\u897f\u5b89\u5e02\u96c1\u5854\u533a\u6731\u96c0\u5927\u8857\u660e\u5fb7\u666f\u56ed\u5927\u53a62\u697c", "province": "\u9655\u897f\u7701", "city": "\u897f\u5b89\u5e02", "area": "\u96c1\u5854\u533a", "street_id": "bcfcb737d6e5736f0aa8d477", "detail": 1, "uid": "bcfcb737d6e5736f0aa8d477", "detail_info": {"tag": "\u6587\u5316\u4f20\u5a92;\u5176\u4ed6", "type": "enterprise", "detail_url": "http://api.map.baidu.com/place/detail?uid=bcfcb737d6e5736f0aa8d477&output=html&source=placeapi_v2", "children": []}}, {"name": "\u9655\u897f\u6708\u660e\u4f01\u5212\u4f20\u5a92\u6709\u9650\u8d23\u4efb\u516c\u53f8", "location": {"lat": 34.222921, "lng": 108.898676}, "address": "\u9ad8\u65b0\u533a\u5510\u5ef6\u8def37\u53f7CLASS\u56fd\u9645\u516c\u9986C\u5ea72109", "province": "\u9655\u897f\u7701", "city": "\u897f\u5b89\u5e02", "area": "\u96c1\u5854\u533a", "street_id": "d55bb87d7d9944b5e9f853ad", "detail": 1, "uid": "d55bb87d7d9944b5e9f853ad", "detail_info": {"tag": "\u6587\u5316\u4f20\u5a92", "type": "enterprise", "detail_url": "http://api.map.baidu.com/place/detail?uid=d55bb87d7d9944b5e9f853ad&output=html&source=placeapi_v2", "price": "0.0", "children": []}}, {"name": "\u897f\u5b89\u4e3d\u5c14\u5e7f\u544a\u6587\u5316\u4f20\u64ad\u6709\u9650\u516c\u53f8", "location": {"lat": 34.211924, "lng": 108.925464}, "address": "\u7535\u5b50\u6b63\u885788\u53f7\u51ef\u60a6\u534e\u5ead2-10807\u5ba4", "province": "\u9655\u897f\u7701", "city": "\u897f\u5b89\u5e02", "area": "\u96c1\u5854\u533a", "street_id": "cd2a938e1da29ff6095cb3af", "detail": 1, "uid": "cd2a938e1da29ff6095cb3af", "detail_info": {"tag": "\u6587\u5316\u4f20\u5a92;\u5176\u4ed6", "type": "enterprise", "detail_url": "http://api.map.baidu.com/place/detail?uid=cd2a938e1da29ff6095cb3af&output=html&source=placeapi_v2", "children": []}}, {"name": "\u897f\u5b89\u4f53\u6069\u5e7f\u544a\u6587\u5316\u4f20\u64ad\u6709\u9650\u516c\u53f8", "location": {"lat": 34.210197, "lng": 108.92339}, "address": "\u7535\u5b50\u56db\u8def\u5357100\u7c73", "province": "\u9655\u897f\u7701", "city": "\u897f\u5b89\u5e02", "area": "\u96c1\u5854\u533a", "street_id": "52e66f71ac4d9f9804fef57e", "detail": 1, "uid": "52e66f71ac4d9f9804fef57e", "detail_info": {"tag": "\u6587\u5316\u4f20\u5a92;\u5176\u4ed6", "type": "enterprise", "detail_url": "http://api.map.baidu.com/place/detail?uid=52e66f71ac4d9f9804fef57e&output=html&source=placeapi_v2", "children": []}}, {"name": "\u897f\u5b89\u5929\u6775\u5e7f\u544a\u6587\u5316\u4f20\u64ad\u6709\u9650\u516c\u53f8", "location": {"lat": 34.208408, "lng": 108.923132}, "address": "\u9655\u897f\u7701\u897f\u5b89\u5e02\u96c1\u5854\u533a\u7535\u5b50\u4e94\u8857", "province": "\u9655\u897f\u7701", "city": "\u897f\u5b89\u5e02", "area": "\u96c1\u5854\u533a", "street_id": "fcdec9f9965adae090114c83", "detail": 1, "uid": "fcdec9f9965adae090114c83", "detail_info": {"tag": "\u6587\u5316\u4f20\u5a92;\u5176\u4ed6", "type": "enterprise", "detail_url": "http://api.map.baidu.com/place/detail?uid=fcdec9f9965adae090114c83&output=html&source=placeapi_v2", "children": []}}, {"name": "\u897f\u5b89\u7f8e\u68ee\u5e7f\u544a\u6587\u5316\u4f20\u64ad\u6709\u9650\u516c\u53f8", "location": {"lat": 34.239262, "lng": 108.886613}, "address": "\u9655\u897f\u7701\u897f\u5b89\u5e02\u96c1\u5854\u533a\u9ad8\u65b0\u533a\u5510\u5174\u8def11\u53f7\u4e1c\u99a8\u82b1\u56ed4\u53f7\u697c7\u5355\u5143102", "province": "\u9655\u897f\u7701", "city": "\u897f\u5b89\u5e02", "area": "\u96c1\u5854\u533a", "street_id": "906d4bc428e30c92aecb66fc", "detail": 1, "uid": "906d4bc428e30c92aecb66fc", "detail_info": {"tag": "\u6587\u5316\u4f20\u5a92;\u5176\u4ed6", "navi_location": {"lng": 108.88679920035, "lat": 34.239064239638}, "type": "enterprise", "detail_url": "http://api.map.baidu.com/place/detail?uid=906d4bc428e30c92aecb66fc&output=html&source=placeapi_v2", "comment_num": "1", "children": []}}, {"name": "\u5317\u4eac\u4e1d\u8def\u5343\u53e4\u6587\u5316\u4f20\u64ad\u6709\u9650\u516c\u53f8", "location": {"lat": 34.203931, "lng": 108.893519}, "address": "\u9655\u897f\u7701\u897f\u5b89\u5e02\u96c1\u5854\u533a\u4e08\u516b\u4e1c\u8def", "province": "\u9655\u897f\u7701", "city": "\u897f\u5b89\u5e02", "area": "\u96c1\u5854\u533a", "street_id": "0a094feb0847e89eaeb22a38", "detail": 1, "uid": "0a094feb0847e89eaeb22a38", "detail_info": {"tag": "\u6587\u5316\u4f20\u5a92;\u5176\u4ed6", "type": "enterprise", "detail_url": "http://api.map.baidu.com/place/detail?uid=0a094feb0847e89eaeb22a38&output=html&source=placeapi_v2", "children": []}}, {"name": "\u9655\u897f\u5929\u5a31\u5730\u5c1a\u6587\u5316\u4f20\u64ad\u6709\u9650\u516c\u53f8", "location": {"lat": 34.190214, "lng": 108.892053}, "address": "\u9655\u897f\u7701\u897f\u5b89\u5e02\u96c1\u5854\u533a\u5510\u5ef6\u5357\u8defi\u90fd\u4f1a3\u53f7\u697c1\u5355\u51431851\u5ba4", "province": "\u9655\u897f\u7701", "city": "\u897f\u5b89\u5e02", "area": "\u96c1\u5854\u533a", "detail": 1, "uid": "a5c5fd44570875d50d3ddadc", "detail_info": {"tag": "\u6587\u5316\u4f20\u5a92;\u5176\u4ed6", "type": "enterprise", "detail_url": "http://api.map.baidu.com/place/detail?uid=a5c5fd44570875d50d3ddadc&output=html&source=placeapi_v2", "children": []}}, {"name": "\u897f\u5b89\u90a6\u6210\u5e7f\u544a\u6587\u5316\u4f20\u64ad\u6709\u9650\u516c\u53f8", "location": {"lat": 34.256626, "lng": 108.944011}, "address": "\u73af\u57ce\u5357\u8def\u897f\u6bb533\u53f7\u65fa\u56ed\u5927\u53a6B\u5ea74\u5c42405", "province": "\u9655\u897f\u7701", "city": "\u897f\u5b89\u5e02", "area": "\u7891\u6797\u533a", "street_id": "71d5333dd52caee930169be9", "detail": 1, "uid": "71d5333dd52caee930169be9", "detail_info": {"tag": "\u6587\u5316\u4f20\u5a92;\u5176\u4ed6", "type": "enterprise", "detail_url": "http://api.map.baidu.com/place/detail?uid=71d5333dd52caee930169be9&output=html&source=placeapi_v2", "children": []}}, {"name": "\u897f\u5b89\u54c1\u81fb\u827a\u672f\u6587\u5316\u4f20\u64ad\u6709\u9650\u8d23\u4efb\u516c\u53f8", "location": {"lat": 34.236642, "lng": 108.944928}, "address": "\u4e2d\u56fd\u897f\u5b89\u5e02\u5357\u4e8c\u73af\u897f\u6bb521\u53f7\u534e\u878d\u56fd\u9645\u5927\u53a6a\u5ea77\u697cef06\u5ba4", "province": "\u9655\u897f\u7701", "city": "\u897f\u5b89\u5e02", "area": "\u7891\u6797\u533a", "street_id": "c7f2545e40123c594d2fdf60", "detail": 1, "uid": "c7f2545e40123c594d2fdf60", "detail_info": {"tag": "\u6587\u5316\u4f20\u5a92;\u5176\u4ed6", "type": "enterprise", "detail_url": "http://api.map.baidu.com/place/detail?uid=c7f2545e40123c594d2fdf60&output=html&source=placeapi_v2", "children": []}}, {"name": "\u897f\u5b89\u7ae5\u9886\u5929\u4e0b\u827a\u672f\u6587\u5316\u4f20\u64ad\u6709\u9650\u516c\u53f8", "location": {"lat": 34.231479, "lng": 108.930175}, "address": "\u9655\u897f\u7701\u897f\u5b89\u5e02\u96c1\u5854\u533a\u5149\u534e\u8def2-10\u53f7", "province": "\u9655\u897f\u7701", "city": "\u897f\u5b89\u5e02", "area": "\u96c1\u5854\u533a", "street_id": "c611adae7f433f3d734b87c6", "detail": 1, "uid": "c611adae7f433f3d734b87c6", "detail_info": {"tag": "\u6587\u5316\u4f20\u5a92;\u5176\u4ed6", "type": "enterprise", "detail_url": "http://api.map.baidu.com/place/detail?uid=c611adae7f433f3d734b87c6&output=html&source=placeapi_v2", "children": []}}, {"name": "\u897f\u5b89\u5e74\u4ee3\u5e7f\u544a\u6587\u5316\u4f20\u64ad\u6709\u9650\u8d23\u4efb\u516c\u53f8", "location": {"lat": 34.248675, "lng": 108.951905}, "address": "\u5357\u5173\u6b63\u8857\u4e2d\u8d38\u5e7f\u573a15\u53f7\u697c2\u5355\u51432004\u5ba4", "province": "\u9655\u897f\u7701", "city": "\u897f\u5b89\u5e02", "area": "\u7891\u6797\u533a", "street_id": "665bfe9580758a6e49fd3f6d", "detail": 1, "uid": "665bfe9580758a6e49fd3f6d", "detail_info": {"tag": "\u6587\u5316\u4f20\u5a92;\u5176\u4ed6", "type": "enterprise", "detail_url": "http://api.map.baidu.com/place/detail?uid=665bfe9580758a6e49fd3f6d&output=html&source=placeapi_v2", "children": []}}, {"name": "\u9655\u897f\u4f18\u4fe1\u4e92\u8fbe\u5e7f\u544a\u6587\u5316\u4f20\u64ad\u6709\u9650\u516c\u53f8", "location": {"lat": 34.204093, "lng": 108.935824}, "address": "\u897f\u5b89\u96c1\u5854\u533a\u4e08\u516b\u4e1c\u8def\u4e0e\u4e1c\u4eea\u8def\u5341\u5b57\u6995\u9752\u65e0\u754c\u4e00\u53f7\u697c\u4e00\u5355\u51432501", "province": "\u9655\u897f\u7701", "city": "\u897f\u5b89\u5e02", "area": "\u96c1\u5854\u533a", "street_id": "952e091128227cdb9ee321f1", "detail": 1, "uid": "952e091128227cdb9ee321f1", "detail_info": {"tag": "\u6587\u5316\u4f20\u5a92;\u5176\u4ed6", "type": "enterprise", "detail_url": "http://api.map.baidu.com/place/detail?uid=952e091128227cdb9ee321f1&output=html&source=placeapi_v2", "children": []}}, {"name": "\u897f\u5b89\u4e5d\u7565\u5e7f\u544a\u6587\u5316\u4f20\u64ad\u6709\u9650\u8d23\u4efb\u516c\u53f8", "location": {"lat": 34.2336, "lng": 108.939055}, "address": "\u96c1\u5854\u533a\u542b\u5149\u8def\u5357\u6bb51\u53f7\u6021\u548c\u56fd\u9645B\u5ea72303\u5ba4", "province": "\u9655\u897f\u7701", "city": "\u897f\u5b89\u5e02", "area": "\u96c1\u5854\u533a", "street_id": "93b79be4d13b8a3614c8f6d1", "detail": 1, "uid": "93b79be4d13b8a3614c8f6d1", "detail_info": {"tag": "\u6587\u5316\u4f20\u5a92;\u5176\u4ed6", "type": "enterprise", "detail_url": "http://api.map.baidu.com/place/detail?uid=93b79be4d13b8a3614c8f6d1&output=html&source=placeapi_v2", "children": []}}, {"name": "\u897f\u5b89\u767d\u4e91\u9e64\u5e7f\u544a\u6587\u5316\u4f20\u64ad\u6709\u9650\u8d23\u4efb\u516c\u53f8", "location": {"lat": 34.21762, "lng": 108.932579}, "address": "\u6731\u96c0\u5927\u885778\u53f7\u8c6a\u76db\u5927\u53a6A\u5ea79\u5c42902\u5ba4", "province": "\u9655\u897f\u7701", "city": "\u897f\u5b89\u5e02", "area": "\u96c1\u5854\u533a", "street_id": "795d0f3ccd815f9af503b8b1", "detail": 1, "uid": "795d0f3ccd815f9af503b8b1", "detail_info": {"tag": "\u6587\u5316\u4f20\u5a92;\u5176\u4ed6", "type": "enterprise", "detail_url": "http://api.map.baidu.com/place/detail?uid=795d0f3ccd815f9af503b8b1&output=html&source=placeapi_v2", "children": []}}, {"name": "\u94f6\u8272\u683c\u8c03\u5e7f\u544a\u54c1\u724c\u6587\u5316\u4f20\u64ad\u6709\u9650\u516c\u53f8(\u96c1\u5854\u4e16\u7eaa\u5546\u52a1)", "location": {"lat": 34.229868, "lng": 108.927455}, "address": "\u5409\u7965\u8def179\u53f7\u96c1\u5854\u4e16\u7eaa\u5546\u52a14\u5c42B\u5ea7", "province": "\u9655\u897f\u7701", "city": "\u897f\u5b89\u5e02", "area": "\u96c1\u5854\u533a", "street_id": "85993856d35d919bd3ff2391", "telephone": "(029)89520731", "detail": 1, "uid": "85993856d35d919bd3ff2391", "detail_info": {"tag": "\u6587\u5316\u4f20\u5a92", "type": "enterprise", "detail_url": "http://api.map.baidu.com/place/detail?uid=85993856d35d919bd3ff2391&output=html&source=placeapi_v2", "children": []}}, {"name": "\u9655\u897f\u5929\u7f61\u661f\u6587\u5316\u4f20\u64ad\u6709\u9650\u516c\u53f8\u9ad8\u65b0\u533a\u5929\u6e90\u6587\u4f53\u5de5\u827a\u54c1", "location": {"lat": 34.22501, "lng": 108.910838}, "address": "\u9655\u897f\u7701\u897f\u5b89\u5e02\u96c1\u5854\u533a\u767d\u6c99\u8def", "province": "\u9655\u897f\u7701", "city": "\u897f\u5b89\u5e02", "area": "\u96c1\u5854\u533a", "street_id": "fb390fdb33cabf002902e1de", "detail": 1, "uid": "fb390fdb33cabf002902e1de", "detail_info": {"tag": "\u6587\u5316\u4f20\u5a92;\u5176\u4ed6", "type": "enterprise", "detail_url": "http://api.map.baidu.com/place/detail?uid=fb390fdb33cabf002902e1de&output=html&source=placeapi_v2", "children": []}}, {"name": "\u94f6\u8272\u683c\u8c03\u5e7f\u544a\u54c1\u724c\u6587\u5316\u4f20\u64ad\u6709\u9650\u516c\u53f8(\u5409\u7965\u8def)", "location": {"lat": 34.229288, "lng": 108.927624}, "address": "\u5409\u7965\u8def318\u53f7\u946b\u9f99\u5927\u53a68\u5c42", "province": "\u9655\u897f\u7701", "city": "\u897f\u5b89\u5e02", "area": "\u96c1\u5854\u533a", "street_id": "9707b27f7a7912651ee9997e", "detail": 1, "uid": "9707b27f7a7912651ee9997e", "detail_info": {"tag": "\u6587\u5316\u4f20\u5a92;\u5176\u4ed6", "type": "enterprise", "detail_url": "http://api.map.baidu.com/place/detail?uid=9707b27f7a7912651ee9997e&output=html&source=placeapi_v2", "children": []}}, {"name": "\u8b66\u82d1\u4e2d\u8001\u5e74\u6d3b\u52a8\u4e2d\u5fc3", "location": {"lat": 34.278359, "lng": 108.942998}, "address": "\u9655\u897f\u7701\u897f\u5b89\u5e02\u83b2\u6e56\u533a\u9752\u5e74\u4e8c\u5df7\u5efa\u897f\u9910\u9986(\u8b66\u82d1\u996d\u5e97\u65c1)", "province": "\u9655\u897f\u7701", "city": "\u897f\u5b89\u5e02", "area": "\u83b2\u6e56\u533a", "street_id": "26f2d656d2e15f771b94c611", "detail": 1, "uid": "26f2d656d2e15f771b94c611", "detail_info": {"tag": "\u6587\u5316\u4f20\u5a92;\u6587\u5316\u5bab", "navi_location": {"lng": 108.94286372642, "lat": 34.278354060061}, "type": "life", "detail_url": "http://api.map.baidu.com/place/detail?uid=26f2d656d2e15f771b94c611&output=html&source=placeapi_v2", "image_num": "5", "comment_num": "2", "children": []}}, {"name": "\u5b9e\u7528\u653e\u5c04\u5b66\u6742\u5fd7\u793e", "location": {"lat": 34.256773, "lng": 108.94829}, "address": "\u73af\u57ce\u5357\u8def20\u53f7\u6d77\u8054\u5927\u53a66\u5c4205", "province": "\u9655\u897f\u7701", "city": "\u897f\u5b89\u5e02", "area": "\u7891\u6797\u533a", "street_id": "f78aed2764c5758df11937d9", "detail": 1, "uid": "f78aed2764c5758df11937d9", "detail_info": {"tag": "\u6587\u5316\u4f20\u5a92;\u65b0\u95fb\u51fa\u7248", "type": "enterprise", "detail_url": "http://api.map.baidu.com/place/detail?uid=f78aed2764c5758df11937d9&output=html&source=placeapi_v2", "children": []}}, {"name": "\u9526\u8fbe\u5de5\u827a\u5236\u4f5c\u4e2d\u5fc3", "location": {"lat": 34.26452, "lng": 108.948701}, "address": "\u4e2d\u73af\u5e7f\u573aC\u5ea7102\u53f7", "province": "\u9655\u897f\u7701", "city": "\u897f\u5b89\u5e02", "area": "\u7891\u6797\u533a", "street_id": "8c2a4c08672db336e311038f", "telephone": "(029)83791880,(029)87257460,13891925785", "detail": 1, "uid": "8c2a4c08672db336e311038f", "detail_info": {"tag": "\u6587\u5316\u4f20\u5a92", "navi_location": {"lng": 108.94853957906, "lat": 34.263772247576}, "type": "enterprise", "detail_url": "http://api.map.baidu.com/place/detail?uid=8c2a4c08672db336e311038f&output=html&source=placeapi_v2", "comment_num": "1", "children": []}}, {"name": "\u9655\u897f\u5e74\u9274\u793e", "location": {"lat": 34.265305, "lng": 108.947813}, "address": "\u7891\u6797\u533a\u897f\u5927\u885770\u53f7", "province": "\u9655\u897f\u7701", "city": "\u897f\u5b89\u5e02", "area": "\u7891\u6797\u533a", "street_id": "c61bd305e1299d69c37da2ae", "detail": 1, "uid": "c61bd305e1299d69c37da2ae", "detail_info": {"tag": "\u6587\u5316\u4f20\u5a92;\u65b0\u95fb\u51fa\u7248", "type": "life", "detail_url": "http://api.map.baidu.com/place/detail?uid=c61bd305e1299d69c37da2ae&output=html&source=placeapi_v2", "image_num": "8", "children": []}}, {"name": "\u559c\u4e8b\u6742\u5fd7\u793e", "location": {"lat": 34.275684, "lng": 108.945922}, "address": "\u897f\u5b89\u5e02\u83b2\u6e56\u8def18\u53f7", "province": "\u9655\u897f\u7701", "city": "\u897f\u5b89\u5e02", "area": "\u83b2\u6e56\u533a", "street_id": "2730659054331cf9e2110334", "detail": 1, "uid": "2730659054331cf9e2110334", "detail_info": {"tag": "\u6587\u5316\u4f20\u5a92;\u65b0\u95fb\u51fa\u7248", "type": "enterprise", "detail_url": "http://api.map.baidu.com/place/detail?uid=2730659054331cf9e2110334&output=html&source=placeapi_v2", "comment_num": "2", "children": []}}, {"name": "\u5c55\u89c8\u533a", "location": {"lat": 34.251075, "lng": 108.91297}, "address": "\u897f\u5b89\u5e02\u83b2\u6e56\u533a\u52b3\u52a8\u5357\u8def118\u53f7\u897f\u5e02\u57ceF2", "province": "\u9655\u897f\u7701", "city": "\u897f\u5b89\u5e02", "area": "\u83b2\u6e56\u533a", "street_id": "aad9fcfd39f11e3a5fd4fef3", "detail": 1, "uid": "aad9fcfd39f11e3a5fd4fef3", "detail_info": {"tag": "\u6587\u5316\u4f20\u5a92;\u5c55\u89c8\u9986", "indoor_floor": "F2", "type": "scope", "detail_url": "http://api.map.baidu.com/place/detail?uid=aad9fcfd39f11e3a5fd4fef3&output=html&source=placeapi_v2", "children": []}}, {"name": "\u897f\u90e8-\u897f\u90e8\u6742\u5fd7\u793e", "location": {"lat": 34.276417, "lng": 108.927661}, "address": "\u9655\u897f\u7701\u897f\u5b89\u5e02\u7389\u7965\u95e8\u851a\u84dd\u56fd\u9645b\u5ea71502\u5ba4", "province": "\u9655\u897f\u7701", "city": "\u897f\u5b89\u5e02", "area": "\u83b2\u6e56\u533a", "street_id": "c12bfdf27d7110a11c389451", "detail": 1, "uid": "c12bfdf27d7110a11c389451", "detail_info": {"tag": "\u6587\u5316\u4f20\u5a92;\u65b0\u95fb\u51fa\u7248", "type": "enterprise", "detail_url": "http://api.map.baidu.com/place/detail?uid=c12bfdf27d7110a11c389451&output=html&source=placeapi_v2", "children": []}}, {"name": "\u65b0\u519c\u6751\u5546\u62a5\u4e13\u520a\u90e8", "location": {"lat": 34.26898, "lng": 108.928788}, "address": "\u73af\u57ce\u897f\u8def\u5317\u6bb5218\u53f7\u878d\u5408\u5927\u53a6A\u5ea76\u5c42617", "province": "\u9655\u897f\u7701", "city": "\u897f\u5b89\u5e02", "area": "\u83b2\u6e56\u533a", "street_id": "ba1c1f1b8cbd500affa7784f", "detail": 1, "uid": "ba1c1f1b8cbd500affa7784f", "detail_info": {"tag": "\u6587\u5316\u4f20\u5a92;\u65b0\u95fb\u51fa\u7248", "type": "enterprise", "detail_url": "http://api.map.baidu.com/place/detail?uid=ba1c1f1b8cbd500affa7784f&output=html&source=placeapi_v2", "children": []}}, {"name": "\u897f\u5b89\u7535\u5b50\u79d1\u6280\u5927\u5b66-\u4f1a\u8bae\u4e2d\u5fc3", "location": {"lat": 34.239741, "lng": 108.924951}, "address": "\u592a\u767d\u5357\u8def2\u897f\u5b89\u7535\u5b50\u79d1\u6280\u5927\u5b66\u9644\u8fd1", "province": "\u9655\u897f\u7701", "city": "\u897f\u5b89\u5e02", "area": "\u96c1\u5854\u533a", "street_id": "32eb320e1bd4c1c0095cb3e5", "detail": 1, "uid": "32eb320e1bd4c1c0095cb3e5", "detail_info": {"tag": "\u6587\u5316\u4f20\u5a92;\u5c55\u89c8\u9986", "type": "education", "detail_url": "http://api.map.baidu.com/place/detail?uid=32eb320e1bd4c1c0095cb3e5&output=html&source=placeapi_v2", "children": []}}, {"name": "\u897f\u5b89\u6559\u80b2\u7535\u89c6\u5bb6\u6709\u559c\u4e8b\u680f\u76ee\u7ec4", "location": {"lat": 34.26898, "lng": 108.928788}, "address": "\u73af\u57ce\u897f\u8def\u5317\u6bb5218\u53f7\u878d\u5408\u5927\u53a6A\u5ea75\u5c42504", "province": "\u9655\u897f\u7701", "city": "\u897f\u5b89\u5e02", "area": "\u83b2\u6e56\u533a", "street_id": "463a5b3a9c66b3b9373a718d", "detail": 1, "uid": "463a5b3a9c66b3b9373a718d", "detail_info": {"tag": "\u6587\u5316\u4f20\u5a92;\u5e7f\u64ad\u7535\u89c6", "type": "enterprise", "detail_url": "http://api.map.baidu.com/place/detail?uid=463a5b3a9c66b3b9373a718d&output=html&source=placeapi_v2", "children": []}}, {"name": "\u6700\u5730\u4ea7\u6742\u5fd7\u793e", "location": {"lat": 34.242233, "lng": 108.89783}, "address": "\u65fa\u5ea7\u56fd\u9645\u57ceC31\u5c423101", "province": "\u9655\u897f\u7701", "city": "\u897f\u5b89\u5e02", "area": "\u96c1\u5854\u533a", "street_id": "f05f16f66552f5fa4c3a59f7", "detail": 1, "uid": "f05f16f66552f5fa4c3a59f7", "detail_info": {"tag": "\u6587\u5316\u4f20\u5a92;\u65b0\u95fb\u51fa\u7248", "navi_location": {"lng": 108.8978788035, "lat": 34.242341248331}, "type": "enterprise", "detail_url": "http://api.map.baidu.com/place/detail?uid=f05f16f66552f5fa4c3a59f7&output=html&source=placeapi_v2", "children": []}}, {"name": "\u9633\u5149\u5370\u52a1", "location": {"lat": 34.237265, "lng": 108.922448}, "address": "\u897f\u5b89\u7535\u5b50\u79d1\u6280\u5927\u5b66\u5317\u6821\u533a\u5185", "province": "\u9655\u897f\u7701", "city": "\u897f\u5b89\u5e02", "area": "\u96c1\u5854\u533a", "street_id": "33f58ed376d9c36d9de3210b", "detail": 1, "uid": "33f58ed376d9c36d9de3210b", "detail_info": {"tag": "\u6587\u5316\u4f20\u5a92", "navi_location": {"lng": 108.92235944412, "lat": 34.237330476242}, "type": "enterprise", "detail_url": "http://api.map.baidu.com/place/detail?uid=33f58ed376d9c36d9de3210b&output=html&source=placeapi_v2", "children": []}}, {"name": "\u6f58\u5bb6\u5e84\u8001\u5e74\u6d3b\u52a8\u5ba4", "location": {"lat": 34.202876, "lng": 108.940856}, "address": "\u4e08\u516b\u4e1c\u8def\u9644\u8fd1", "province": "\u9655\u897f\u7701", "city": "\u897f\u5b89\u5e02", "area": "\u96c1\u5854\u533a", "street_id": "b41c7bd337c0410fc16c1453", "detail": 1, "uid": "b41c7bd337c0410fc16c1453", "detail_info": {"tag": "\u6587\u5316\u4f20\u5a92;\u6587\u5316\u5bab", "type": "life", "detail_url": "http://api.map.baidu.com/place/detail?uid=b41c7bd337c0410fc16c1453&output=html&source=placeapi_v2", "image_num": "4", "comment_num": "1", "children": []}}, {"name": "MaKE PRIVATE\u7f8e\u672f\u9986", "location": {"lat": 34.23132, "lng": 108.9518}, "address": "\u957f\u5b89\u4e2d\u8def38\u53f7\u5c0f\u5be8\u9886\u7ee3\u57ce\u8d1f1\u5c42", "province": "\u9655\u897f\u7701", "city": "\u897f\u5b89\u5e02", "area": "\u96c1\u5854\u533a", "street_id": "c2d6dc521b3930a90c0a70b4", "detail": 1, "uid": "c2d6dc521b3930a90c0a70b4", "detail_info": {"tag": "\u6587\u5316\u4f20\u5a92;\u7f8e\u672f\u9986", "navi_location": {"lng": 108.95181248242, "lat": 34.231397355209}, "type": "scope", "detail_url": "http://api.map.baidu.com/place/detail?uid=c2d6dc521b3930a90c0a70b4&output=html&source=placeapi_v2", "overall_rating": "0.0", "comment_num": "0", "children": []}}, {"name": "\u6d77\u534e\u5370\u52a1", "location": {"lat": 34.221674, "lng": 108.897696}, "address": "\u5510\u5ef6\u8def35\u53f7\u65fa\u5ea7\u73b0\u4ee3\u57ceB\u5ea71\u5c42", "province": "\u9655\u897f\u7701", "city": "\u897f\u5b89\u5e02", "area": "\u96c1\u5854\u533a", "street_id": "cadcc4daab81fc8b9f82eafe", "telephone": "(029)88444714", "detail": 1, "uid": "cadcc4daab81fc8b9f82eafe", "detail_info": {"tag": "\u6587\u5316\u4f20\u5a92", "navi_location": {"lng": 108.89787145895, "lat": 34.221684586056}, "type": "enterprise", "detail_url": "http://api.map.baidu.com/place/detail?uid=cadcc4daab81fc8b9f82eafe&output=html&source=placeapi_v2", "children": []}}, {"name": "\u897f\u5b89\u79e6\u6da6\u5e7f\u544a\u4f20\u64ad\u6709\u9650\u516c\u53f8", "location": {"lat": 34.228593, "lng": 108.928862}, "address": "\u5409\u7965\u8def298\u53f7\u957f\u6d77\u5927\u53a6H\u3001I\u5ea712", "province": "\u9655\u897f\u7701", "city": "\u897f\u5b89\u5e02", "area": "\u96c1\u5854\u533a", "street_id": "58b474538cc5c59de5e96588", "detail": 1, "uid": "58b474538cc5c59de5e96588", "detail_info": {"tag": "\u6587\u5316\u4f20\u5a92;\u5176\u4ed6", "type": "enterprise", "detail_url": "http://api.map.baidu.com/place/detail?uid=58b474538cc5c59de5e96588&output=html&source=placeapi_v2", "children": []}}, {"name": "\u897f\u5b89\u7d2b\u66e6\u5e7f\u544a\u6587\u4f20\u64ad\u516c\u53f8", "location": {"lat": 34.231846, "lng": 108.920944}, "address": "\u79d1\u6280\u8def10\u53f7\u534e\u5965\u5927\u53a6B\u5ea76\u697c601", "province": "\u9655\u897f\u7701", "city": "\u897f\u5b89\u5e02", "area": "\u96c1\u5854\u533a", "street_id": "2582cdb944449607250bd032", "detail": 1, "uid": "2582cdb944449607250bd032", "detail_info": {"tag": "\u6587\u5316\u4f20\u5a92;\u5176\u4ed6", "type": "enterprise", "detail_url": "http://api.map.baidu.com/place/detail?uid=2582cdb944449607250bd032&output=html&source=placeapi_v2", "children": []}}, {"name": "\u897f\u5b89\u77f3\u6cb9\u5927\u5b66-\u793e\u533a\u8001\u4eba\u6d3b\u52a8\u5ba4", "location": {"lat": 34.220175, "lng": 108.937361}, "address": "\u7535\u5b50\u4e8c\u8def18\u53f7", "province": "\u9655\u897f\u7701", "city": "\u897f\u5b89\u5e02", "area": "\u96c1\u5854\u533a", "street_id": "39fde5e559d7dd31aaf7292a", "detail": 1, "uid": "5943de52551c532b43afe631", "detail_info": {"tag": "\u6587\u5316\u4f20\u5a92;\u6587\u5316\u5bab", "type": "life", "detail_url": "http://api.map.baidu.com/place/detail?uid=5943de52551c532b43afe631&output=html&source=placeapi_v2", "overall_rating": "0.0", "image_num": "2", "comment_num": "1", "children": []}}, {"name": "\u571f\u95e8\u8857\u9053\u60e0\u6c11\u5317\u574a\u793e\u533a\u5b66\u4e60\u4e2d\u5fc3", "location": {"lat": 34.264841, "lng": 108.891254}, "address": "\u83b2\u6e56\u533a\u4e30\u9550\u897f\u8def102-1", "province": "\u9655\u897f\u7701", "city": "\u897f\u5b89\u5e02", "area": "\u83b2\u6e56\u533a", "street_id": "74cf41cced3bd817f9dc8529", "detail": 1, "uid": "74cf41cced3bd817f9dc8529", "detail_info": {"tag": "\u6587\u5316\u4f20\u5a92;\u6587\u5316\u5bab", "navi_location": {"lng": 108.89147630884, "lat": 34.264764543262}, "type": "life", "detail_url": "http://api.map.baidu.com/place/detail?uid=74cf41cced3bd817f9dc8529&output=html&source=placeapi_v2", "image_num": "8", "comment_num": "1", "children": []}}, {"name": "\u5f90\u4e49\u751f\u827a\u672f\u9986", "location": {"lat": 34.199699, "lng": 108.86375}, "address": "\u9655\u897f\u7701\u897f\u5b89\u5e02\u96c1\u5854\u533a\u4e08\u516b\u516d\u8def\u9526\u4e1a76\u5f90\u4e49\u751f\u7f8e\u672f\u9986\u5317\u95e8", "province": "\u9655\u897f\u7701", "city": "\u897f\u5b89\u5e02", "area": "\u96c1\u5854\u533a", "street_id": "5f5b3eaf4174176e0c0e6b96", "detail": 1, "uid": "5f5b3eaf4174176e0c0e6b96", "detail_info": {"tag": "\u6587\u5316\u4f20\u5a92;\u7f8e\u672f\u9986", "type": "scope", "detail_url": "http://api.map.baidu.com/place/detail?uid=5f5b3eaf4174176e0c0e6b96&output=html&source=placeapi_v2", "children": []}}, {"name": "\u5929\u5929\u4e50\u4e2d\u8001\u5e74\u6d3b\u52a8\u4e2d\u5fc3(\u9752\u5e74\u4e00\u5df7)", "location": {"lat": 34.277732, "lng": 108.944817}, "address": "\u9752\u5e74\u4e00\u5df711", "province": "\u9655\u897f\u7701", "city": "\u897f\u5b89\u5e02", "area": "\u83b2\u6e56\u533a", "street_id": "cc2e038dac98190581a12ef3", "detail": 1, "uid": "cc2e038dac98190581a12ef3", "detail_info": {"tag": "\u6587\u5316\u4f20\u5a92;\u6587\u5316\u5bab", "type": "life", "detail_url": "http://api.map.baidu.com/place/detail?uid=cc2e038dac98190581a12ef3&output=html&source=placeapi_v2", "overall_rating": "0.0", "image_num": "5", "comment_num": "1", "children": []}}, {"name": "\u9655\u897f\u5efa\u82d1\u5927\u53a6-\u591a\u529f\u80fd\u5385", "location": {"lat": 34.260839, "lng": 108.94525}, "address": "\u6731\u96c0\u95e8\u91cc\u5357\u5e7f\u6d4e\u885738\u53f7\u9655\u897f\u5efa\u82d1\u5927\u53a6", "province": "\u9655\u897f\u7701", "city": "\u897f\u5b89\u5e02", "area": "\u7891\u6797\u533a", "street_id": "894507cdd9a84f604e554701", "telephone": "(029)87606999", "detail": 1, "uid": "894507cdd9a84f604e554701", "detail_info": {"tag": "\u6587\u5316\u4f20\u5a92;\u5c55\u89c8\u9986", "type": "scope", "detail_url": "http://api.map.baidu.com/place/detail?uid=894507cdd9a84f604e554701&output=html&source=placeapi_v2", "children": []}}, {"name": "\u300a\u7a0e\u6536\u4e0e\u793e\u4f1a\u300b\u6742\u5fd7\u793e", "location": {"lat": 34.263499, "lng": 108.938631}, "address": "\u542b\u5149\u885728\u53f7\u534e\u6c47\u5927\u53a67\u5c42", "province": "\u9655\u897f\u7701", "city": "\u897f\u5b89\u5e02", "area": "\u83b2\u6e56\u533a", "street_id": "611199de50dacd5d96ca0773", "detail": 1, "uid": "611199de50dacd5d96ca0773", "detail_info": {"tag": "\u6587\u5316\u4f20\u5a92;\u65b0\u95fb\u51fa\u7248", "type": "enterprise", "detail_url": "http://api.map.baidu.com/place/detail?uid=611199de50dacd5d96ca0773&output=html&source=placeapi_v2", "children": []}}, {"name": "\u4e2d\u56fd\u65e5\u62a5\u793e\u9655\u897f\u8bb0\u8005\u7ad9", "location": {"lat": 34.247111, "lng": 108.909803}, "address": "\u5357\u4e8c\u73af\u897f\u6bb5180\u53f7\u8d22\u5bcc\u4e2d\u5fc3C\u5ea721\u5c42", "province": "\u9655\u897f\u7701", "city": "\u897f\u5b89\u5e02", "area": "\u96c1\u5854\u533a", "street_id": "9e526e856ef04a6303ec0129", "detail": 1, "uid": "9e526e856ef04a6303ec0129", "detail_info": {"tag": "\u6587\u5316\u4f20\u5a92;\u65b0\u95fb\u51fa\u7248", "type": "enterprise", "detail_url": "http://api.map.baidu.com/place/detail?uid=9e526e856ef04a6303ec0129&output=html&source=placeapi_v2", "children": []}}, {"name": "\u9655\u897f\u5c71\u5ddd\u5e7f\u544a\u4f20\u64ad\u6709\u9650\u516c\u53f8", "location": {"lat": 34.243015, "lng": 108.914665}, "address": "\u9ad8\u65b0\u8def8\u53f7\u4e3d\u534e\u79d1\u6280\u5927\u53a616\u5c42D\u5ba4", "province": "\u9655\u897f\u7701", "city": "\u897f\u5b89\u5e02", "area": "\u96c1\u5854\u533a", "street_id": "5f43cfb7ac4fbc8f95f08c02", "detail": 1, "uid": "5f43cfb7ac4fbc8f95f08c02", "detail_info": {"tag": "\u6587\u5316\u4f20\u5a92;\u5176\u4ed6", "type": "enterprise", "detail_url": "http://api.map.baidu.com/place/detail?uid=5f43cfb7ac4fbc8f95f08c02&output=html&source=placeapi_v2", "children": []}}, {"name": "\u897f\u5b89\u6587\u7406\u5b66\u9662-\u6559\u804c\u5de5\u4f53\u80b2\u6d3b\u52a8\u4e2d\u5fc3", "location": {"lat": 34.2209, "lng": 108.913699}, "address": "\u897f\u5b89\u6587\u7406\u5b66\u9662\u5185", "province": "\u9655\u897f\u7701", "city": "\u897f\u5b89\u5e02", "area": "\u96c1\u5854\u533a", "street_id": "65611d5c78e92a1e82a12e02", "detail": 1, "uid": "65611d5c78e92a1e82a12e02", "detail_info": {"tag": "\u6587\u5316\u4f20\u5a92;\u6587\u5316\u5bab", "type": "education", "detail_url": "http://api.map.baidu.com/place/detail?uid=65611d5c78e92a1e82a12e02&output=html&source=placeapi_v2", "overall_rating": "0.0", "children": []}}, {"name": "\u4e2d\u822a\u5de5\u4e1a\u5e86\u5b89\u8001\u5e72\u90e8\u6d3b\u52a8\u4e2d\u5fc3", "location": {"lat": 34.26778, "lng": 108.890606}, "address": "\u9655\u897f\u7701\u897f\u5b89\u5e02\u83b2\u6e56\u533a\u56e2\u7ed3\u4e8c\u8def18", "province": "\u9655\u897f\u7701", "city": "\u897f\u5b89\u5e02", "area": "\u83b2\u6e56\u533a", "street_id": "957a784729bec8e500ff2db6", "detail": 1, "uid": "957a784729bec8e500ff2db6", "detail_info": {"tag": "\u6587\u5316\u4f20\u5a92;\u6587\u5316\u5bab", "type": "life", "detail_url": "http://api.map.baidu.com/place/detail?uid=957a784729bec8e500ff2db6&output=html&source=placeapi_v2", "image_num": "5", "children": []}}, {"name": "\u4e07\u9f0e\u5de5\u4f5c\u5ba4", "location": {"lat": 34.242237, "lng": 108.894179}, "address": "\u79d1\u6280\u8def\u5929\u5730\u6e90\u6770\u5ea7\u5e7f\u573a10\u5c421005", "province": "\u9655\u897f\u7701", "city": "\u897f\u5b89\u5e02", "area": "\u96c1\u5854\u533a", "street_id": "0a1500434f26b5b1ce06a469", "detail": 1, "uid": "0a1500434f26b5b1ce06a469", "detail_info": {"tag": "\u6587\u5316\u4f20\u5a92;\u7f8e\u672f\u9986", "type": "scope", "detail_url": "http://api.map.baidu.com/place/detail?uid=0a1500434f26b5b1ce06a469&output=html&source=placeapi_v2", "children": []}}, {"name": "\u5929\u6717\u68ee\u67cf\u5927\u9152\u5e97-\u4e3d\u6676\u591a\u529f\u80fd\u5385", "location": {"lat": 34.242086, "lng": 108.878337}, "address": "\u4e08\u516b\u5317\u8def380\u53f7\u5929\u6717\u68ee\u67cf\u5927\u9152\u5e973\u5c42", "province": "\u9655\u897f\u7701", "city": "\u897f\u5b89\u5e02", "area": "\u96c1\u5854\u533a", "street_id": "e09ab9a693f4233cf8221395", "telephone": "(029)84118888", "detail": 1, "uid": "e09ab9a693f4233cf8221395", "detail_info": {"tag": "\u6587\u5316\u4f20\u5a92;\u5c55\u89c8\u9986", "type": "life", "detail_url": "http://api.map.baidu.com/place/detail?uid=e09ab9a693f4233cf8221395&output=html&source=placeapi_v2", "image_num": "1", "children": []}}, {"name": "\u9655\u897f\u91d1\u77f3\u4e66\u753b\u9662", "location": {"lat": 34.231707, "lng": 108.892373}, "address": "\u79d1\u6280\u4e8c\u8def\u6e05\u534e\u79d1\u6280\u56ed\u6e05\u626c\u5927\u53a6B\u5ea71\u5c42", "province": "\u9655\u897f\u7701", "city": "\u897f\u5b89\u5e02", "area": "\u96c1\u5854\u533a", "street_id": "3c5f308daded9f7e3be4a690", "detail": 1, "uid": "3c5f308daded9f7e3be4a690", "detail_info": {"tag": "\u6587\u5316\u4f20\u5a92;\u7f8e\u672f\u9986", "navi_location": {"lng": 108.89237321479, "lat": 34.231523675385}, "type": "enterprise", "detail_url": "http://api.map.baidu.com/place/detail?uid=3c5f308daded9f7e3be4a690&output=html&source=placeapi_v2", "children": []}}, {"name": "\u4e09\u79e6\u90fd\u5e02\u62a5(\u83b2\u6e56\u53d1\u884c\u7ad9)", "location": {"lat": 34.278482, "lng": 108.944787}, "address": "\u9752\u5e74\u4e00\u5df718", "province": "\u9655\u897f\u7701", "city": "\u897f\u5b89\u5e02", "area": "\u83b2\u6e56\u533a", "street_id": "28facafb5d777336130daac8", "telephone": "(029)87339107", "detail": 1, "uid": "28facafb5d777336130daac8", "detail_info": {"tag": "\u6587\u5316\u4f20\u5a92;\u65b0\u95fb\u51fa\u7248", "type": "enterprise", "detail_url": "http://api.map.baidu.com/place/detail?uid=28facafb5d777336130daac8&output=html&source=placeapi_v2", "children": []}}, {"name": "\u897f\u5b89\u5b8f\u6cf0\u5370\u5237\u5382\u4e1a\u52a1\u5904", "location": {"lat": 34.265242, "lng": 108.947715}, "address": "\u897f\u5927\u885774", "province": "\u9655\u897f\u7701", "city": "\u897f\u5b89\u5e02", "area": "\u7891\u6797\u533a", "street_id": "1122df3eb63abda60b69d9f8", "detail": 1, "uid": "1122df3eb63abda60b69d9f8", "detail_info": {"tag": "\u6587\u5316\u4f20\u5a92", "type": "enterprise", "detail_url": "http://api.map.baidu.com/place/detail?uid=1122df3eb63abda60b69d9f8&output=html&source=placeapi_v2", "children": []}}, {"name": "\u897f\u5b89\u5e02\u83b2\u6e56\u533a\u6c11\u822a\u793e\u533a\u5987\u5973\u4e4b\u5bb6", "location": {"lat": 34.259023, "lng": 108.91481}, "address": "\u5e86\u5b89\u6c11\u822a\u5e7c\u513f\u56ed\u9644\u8fd1", "province": "\u9655\u897f\u7701", "city": "\u897f\u5b89\u5e02", "area": "\u83b2\u6e56\u533a", "detail": 1, "uid": "4cfd7e7794cd72824f6d46cc", "detail_info": {"tag": "\u6587\u5316\u4f20\u5a92;\u6587\u5316\u5bab", "navi_location": {"lng": 108.91485243433, "lat": 34.259044187869}, "type": "life", "detail_url": "http://api.map.baidu.com/place/detail?uid=4cfd7e7794cd72824f6d46cc&output=html&source=placeapi_v2", "image_num": "1", "children": []}}, {"name": "\u897f\u5317\u5de5\u4e1a\u5927\u5b66-\u671f\u520a\u7f16\u8f91\u90e8", "location": {"lat": 34.24804, "lng": 108.922274}, "address": "\u53cb\u8c0a\u897f\u8def127\u53f7", "province": "\u9655\u897f\u7701", "city": "\u897f\u5b89\u5e02", "area": "\u7891\u6797\u533a", "street_id": "8b587275598176964f6d4602", "detail": 1, "uid": "8b587275598176964f6d4602", "detail_info": {"tag": "\u6587\u5316\u4f20\u5a92;\u65b0\u95fb\u51fa\u7248", "type": "education", "detail_url": "http://api.map.baidu.com/place/detail?uid=8b587275598176964f6d4602&output=html&source=placeapi_v2", "children": []}}, {"name": "\u6bdb\u5dfe\u827a\u672f\u9986(\u4e16\u7eaa\u91d1\u82b1\u7f8e\u5c45\u751f\u6d3b\u5bb6)", "location": {"lat": 34.26484, "lng": 108.938366}, "address": "\u897f\u5927\u8857\u793e\u4f1a\u8def12\u53f7B1\u5c42B43", "province": "\u9655\u897f\u7701", "city": "\u897f\u5b89\u5e02", "area": "\u83b2\u6e56\u533a", "street_id": "c88d0c2db308827c4bcc4ac0", "detail": 1, "uid": "c88d0c2db308827c4bcc4ac0", "detail_info": {"tag": "\u6587\u5316\u4f20\u5a92;\u7f8e\u672f\u9986", "type": "scope", "detail_url": "http://api.map.baidu.com/place/detail?uid=c88d0c2db308827c4bcc4ac0&output=html&source=placeapi_v2", "children": []}}, {"name": "\u79bb\u9000\u4f11\u4eba\u5458\u6d3b\u52a8\u4e2d\u5fc3", "location": {"lat": 34.235391, "lng": 108.92447}, "address": "\u9655\u897f\u7701\u897f\u5b89\u5e02\u96c1\u5854\u533a\u7535\u5b50\u5927\u9053\u4e2d\u6bb5", "province": "\u9655\u897f\u7701", "city": "\u897f\u5b89\u5e02", "area": "\u96c1\u5854\u533a", "street_id": "bc6ee233ba53c73ef5b91610", "detail": 1, "uid": "bc6ee233ba53c73ef5b91610", "detail_info": {"tag": "\u6587\u5316\u4f20\u5a92;\u6587\u5316\u5bab", "type": "education", "detail_url": "http://api.map.baidu.com/place/detail?uid=bc6ee233ba53c73ef5b91610&output=html&source=placeapi_v2", "overall_rating": "0.0", "children": []}}, {"name": "\u897f\u5b89\u6587\u7406\u5b66\u9662-\u5927\u5b66\u751f\u827a\u672f\u56e2", "location": {"lat": 34.218213, "lng": 108.910402}, "address": "\u592a\u767d\u5357\u8def168\u53f7", "province": "\u9655\u897f\u7701", "city": "\u897f\u5b89\u5e02", "area": "\u96c1\u5854\u533a", "street_id": "7be4bb83518e3a43f7b9166d", "detail": 1, "uid": "7be4bb83518e3a43f7b9166d", "detail_info": {"tag": "\u6587\u5316\u4f20\u5a92;\u827a\u672f\u56e2\u4f53", "navi_location": {"lng": 108.9106959415, "lat": 34.218218022787}, "type": "enterprise", "detail_url": "http://api.map.baidu.com/place/detail?uid=7be4bb83518e3a43f7b9166d&output=html&source=placeapi_v2", "children": []}}, {"name": "\u897f\u5b89\u4e50\u9ad8\u513f\u7ae5\u521b\u610f\u6d3b\u52a8\u4e2d\u5fc3", "location": {"lat": 34.251101, "lng": 108.892602}, "address": "\u5927\u5be8\u8def1\u53f7\u534e\u5e9c\u65b0\u6843\u56ed1\u5e621\u5355\u514311003\u5ba4", "province": "\u9655\u897f\u7701", "city": "\u897f\u5b89\u5e02", "area": "\u96c1\u5854\u533a", "street_id": "1dd4b3f133858a6817b54bda", "detail": 1, "uid": "1dd4b3f133858a6817b54bda", "detail_info": {"tag": "\u6587\u5316\u4f20\u5a92;\u6587\u5316\u5bab", "type": "life", "detail_url": "http://api.map.baidu.com/place/detail?uid=1dd4b3f133858a6817b54bda&output=html&source=placeapi_v2", "overall_rating": "5.0", "image_num": "5", "comment_num": "3", "children": []}}, {"name": "2011\u4e2d\u56fd\u897f\u5317\u65c5\u6e38\u7f51\u4e0a\u535a\u89c8\u4f1a", "location": {"lat": 34.236757, "lng": 108.944997}, "address": "\u9655\u897f\u7701\u897f\u5b89\u5e02\u5357\u4e8c\u73af\u897f\u6bb521\u53f7\u534e\u878d\u56fd\u9645\u5546\u52a1\u5927\u53a6b\u5ea7604\u5ba4", "province": "\u9655\u897f\u7701", "city": "\u897f\u5b89\u5e02", "area": "\u7891\u6797\u533a", "street_id": "00331219c06072fbeddfcaff", "detail": 1, "uid": "c1ed1d35d29cc6a70aa8d4e0", "detail_info": {"tag": "\u6587\u5316\u4f20\u5a92;\u5c55\u89c8\u9986", "type": "enterprise", "detail_url": "http://api.map.baidu.com/place/detail?uid=c1ed1d35d29cc6a70aa8d4e0&output=html&source=placeapi_v2", "children": []}}, {"name": "\u67ab\u53f6\u60e0\u667a\u793e\u533a\u4e2d\u5fc3\u8001\u5e74\u6d3b\u52a8\u4e2d\u5fc3", "location": {"lat": 34.235906, "lng": 108.90684}, "address": "\u79d1\u6280\u4e00\u8def149\u53f7\u9644\u8fd1", "province": "\u9655\u897f\u7701", "city": "\u897f\u5b89\u5e02", "area": "\u96c1\u5854\u533a", "street_id": "751f133684507f363310afdf", "detail": 1, "uid": "751f133684507f363310afdf", "detail_info": {"tag": "\u6587\u5316\u4f20\u5a92;\u6587\u5316\u5bab", "navi_location": {"lng": 108.9067807488, "lat": 34.235977329125}, "type": "life", "detail_url": "http://api.map.baidu.com/place/detail?uid=751f133684507f363310afdf&output=html&source=placeapi_v2", "image_num": "1", "children": []}}, {"name": "\u83ab\u6bd4\u65af\u5e7f\u544a\u4f20\u64ad\u516c\u53f8", "location": {"lat": 34.221906, "lng": 108.898678}, "address": "\u5510\u5ef6\u8def35\u53f7\u65fa\u5ea7\u73b0\u4ee3\u57ceD\u5ea7", "province": "\u9655\u897f\u7701", "city": "\u897f\u5b89\u5e02", "area": "\u96c1\u5854\u533a", "street_id": "4c8d34944d882093882fb50e", "detail": 1, "uid": "4c8d34944d882093882fb50e", "detail_info": {"tag": "\u6587\u5316\u4f20\u5a92;\u5176\u4ed6", "navi_location": {"lng": 108.89874416635, "lat": 34.222035989931}, "type": "enterprise", "detail_url": "http://api.map.baidu.com/place/detail?uid=4c8d34944d882093882fb50e&output=html&source=placeapi_v2", "children": []}}, {"name": "\u897f\u949e\u804c\u5de5\u6d3b\u52a8\u4e2d\u5fc3", "location": {"lat": 34.269336, "lng": 108.877241}, "address": "\u897f\u5b89\u5e02\u83b2\u6e56\u533a\u6c49\u57ce\u5357\u8def153\u53f7", "province": "\u9655\u897f\u7701", "city": "\u897f\u5b89\u5e02", "area": "\u83b2\u6e56\u533a", "street_id": "480b24d03388aff19cec2b60", "detail": 1, "uid": "480b24d03388aff19cec2b60", "detail_info": {"tag": "\u6587\u5316\u4f20\u5a92;\u6587\u5316\u5bab", "type": "life", "detail_url": "http://api.map.baidu.com/place/detail?uid=480b24d03388aff19cec2b60&output=html&source=placeapi_v2", "image_num": "4", "children": []}}, {"name": "\u66f2\u6c5f\u56fd\u9645\u4f1a\u5c55\u4e2d\u5fc3", "location": {"lat": 34.202181, "lng": 108.957121}, "address": "\u9655\u897f\u7701\u897f\u5b89\u5e02\u96c1\u5854\u533a\u96c1\u5c55\u8def1\u53f7", "province": "\u9655\u897f\u7701", "city": "\u897f\u5b89\u5e02", "area": "\u96c1\u5854\u533a", "street_id": "9c8c6837e3f0ca9b4bcc4a9f", "telephone": "(029)62885705", "detail": 1, "uid": "9c8c6837e3f0ca9b4bcc4a9f", "detail_info": {"tag": "\u6587\u5316\u4f20\u5a92;\u5c55\u89c8\u9986", "navi_location": {"lng": 108.95679299359, "lat": 34.204137663972}, "type": "scope", "detail_url": "http://api.map.baidu.com/place/detail?uid=9c8c6837e3f0ca9b4bcc4a9f&output=html&source=placeapi_v2", "overall_rating": "4.1", "comment_num": "15", "children": []}}, {"name": "\u66f2\u6c5f\u56fd\u9645\u4f1a\u8bae\u4e2d\u5fc3", "location": {"lat": 34.200027, "lng": 108.961422}, "address": "\u9655\u897f\u7701\u897f\u5b89\u5e02\u96c1\u5854\u533a\u6c47\u65b0\u8def15\u53f7", "province": "\u9655\u897f\u7701", "city": "\u897f\u5b89\u5e02", "area": "\u96c1\u5854\u533a", "street_id": "d82e1388d66bf2ee9d82ea12", "detail": 1, "uid": "d82e1388d66bf2ee9d82ea12", "detail_info": {"tag": "\u6587\u5316\u4f20\u5a92;\u5c55\u89c8\u9986", "navi_location": {"lng": 108.95983975213, "lat": 34.199502735375}, "type": "scope", "detail_url": "http://api.map.baidu.com/place/detail?uid=d82e1388d66bf2ee9d82ea12&output=html&source=placeapi_v2", "overall_rating": "4.0", "comment_num": "4", "children": []}}, {"name": "\u897f\u5b89\u7f8e\u672f\u9986", "location": {"lat": 34.217404, "lng": 108.969784}, "address": "\u66f2\u6c5f\u65b0\u533a\u5927\u5510\u4e0d\u591c\u57ce1\u533a", "province": "\u9655\u897f\u7701", "city": "\u897f\u5b89\u5e02", "area": "\u96c1\u5854\u533a", "street_id": "0ce65c2d81bc93272d47333e", "detail": 1, "uid": "0ce65c2d81bc93272d47333e", "detail_info": {"tag": "\u6587\u5316\u4f20\u5a92;\u7f8e\u672f\u9986", "navi_location": {"lng": 108.9704651774, "lat": 34.21745888688}, "type": "scope", "detail_url": "http://api.map.baidu.com/place/detail?uid=0ce65c2d81bc93272d47333e&output=html&source=placeapi_v2", "overall_rating": "4.4", "comment_num": "3", "children": []}}, {"name": "\u9655\u897f\u5e7f\u64ad\u7535\u89c6\u53f0", "location": {"lat": 34.216981, "lng": 108.952208}, "address": "\u957f\u5ef6\u5821\u8857\u9053\u957f\u5b89\u5357\u8def336\u53f7", "province": "\u9655\u897f\u7701", "city": "\u897f\u5b89\u5e02", "area": "\u96c1\u5854\u533a", "street_id": "beabdbf458a278987069d354", "telephone": "(029)85238916", "detail": 1, "uid": "beabdbf458a278987069d354", "detail_info": {"tag": "\u6587\u5316\u4f20\u5a92;\u5e7f\u64ad\u7535\u89c6", "navi_location": {"lng": 108.95290388409, "lat": 34.216585341961}, "type": "enterprise", "detail_url": "http://api.map.baidu.com/place/detail?uid=beabdbf458a278987069d354&output=html&source=placeapi_v2", "overall_rating": "4.0", "comment_num": "10", "children": []}}, {"name": "\u897f\u5b89\u5e7f\u64ad\u7535\u89c6\u53f0", "location": {"lat": 34.212418, "lng": 108.984409}, "address": "\u897f\u5b89\u5e02\u96c1\u5854\u533a\u66f2\u6c5f\u65b0\u533a\u66f2\u6c5f\u6c60\u897f\u8def60\u53f7", "province": "\u9655\u897f\u7701", "city": "\u897f\u5b89\u5e02", "area": "\u96c1\u5854\u533a", "street_id": "0b386c148e404a6788fc06b7", "detail": 1, "uid": "0b386c148e404a6788fc06b7", "detail_info": {"tag": "\u6587\u5316\u4f20\u5a92;\u5e7f\u64ad\u7535\u89c6", "navi_location": {"lng": 108.98496059892, "lat": 34.211942810049}, "type": "enterprise", "detail_url": "http://api.map.baidu.com/place/detail?uid=0b386c148e404a6788fc06b7&output=html&source=placeapi_v2", "overall_rating": "3.7", "comment_num": "4", "children": []}}, {"name": "3D\u9519\u89c9\u4f53\u9a8c\u9986", "location": {"lat": 34.22249, "lng": 108.986853}, "address": "\u897f\u5b89\u5e02\u96c1\u5854\u533a\u66f2\u6c5f\u6d77\u6d0b\u516c\u56ed\u9ec4\u91d1\u6d77\u5cb8\u5546\u4e1a\u88572-02\u53f7(\u897f\u5b89\u66f2\u6c5f\u6d77\u6d0b\u6781\u5730\u516c\u56ed\u6e38\u5ba2\u4e2d\u5fc3)", "province": "\u9655\u897f\u7701", "city": "\u897f\u5b89\u5e02", "area": "\u96c1\u5854\u533a", "street_id": "915fc2f8fdc03a6bbea240ed", "telephone": "(029)85214907", "detail": 1, "uid": "915fc2f8fdc03a6bbea240ed", "detail_info": {"tag": "\u6587\u5316\u4f20\u5a92;\u5c55\u89c8\u9986", "navi_location": {"lng": 108.98668224994, "lat": 34.222737834336}, "type": "scope", "detail_url": "http://api.map.baidu.com/place/detail?uid=915fc2f8fdc03a6bbea240ed&output=html&source=placeapi_v2", "overall_rating": "4.1", "comment_num": "9", "children": []}}, {"name": "\u725b\u80cc\u6881\u56fd\u5bb6\u7ea7\u81ea\u7136\u4fdd\u62a4\u533a\u751f\u7269\u591a\u6837\u6027\u5c55\u793a\u9986", "location": {"lat": 34.179244, "lng": 108.958397}, "address": "\u675c\u9675\u4e1c\u8def\u91d1\u7f9a\u5927\u53a611\u5c42", "province": "\u9655\u897f\u7701", "city": "\u897f\u5b89\u5e02", "area": "\u957f\u5b89\u533a", "street_id": "85080aa4dd09db40fda778c0", "detail": 1, "uid": "85080aa4dd09db40fda778c0", "detail_info": {"tag": "\u6587\u5316\u4f20\u5a92;\u5c55\u89c8\u9986", "navi_location": {"lng": 108.95825076647, "lat": 34.179084755561}, "type": "scope", "detail_url": "http://api.map.baidu.com/place/detail?uid=85080aa4dd09db40fda778c0&output=html&source=placeapi_v2", "overall_rating": "1.0", "children": []}}, {"name": "\u827a\u946b\u6587\u5316", "location": {"lat": 34.223077, "lng": 109.005868}, "address": "\u96c1\u7fd4\u8def\u65b0\u534e\u5c0f\u5b66\u5411\u4e1c50\u8def\u5357", "province": "\u9655\u897f\u7701", "city": "\u897f\u5b89\u5e02", "area": "\u96c1\u5854\u533a", "street_id": "4ef29c73d588a1f12b02e1b1", "detail": 1, "uid": "4ef29c73d588a1f12b02e1b1", "detail_info": {"tag": "\u6587\u5316\u4f20\u5a92;\u5176\u4ed6", "type": "enterprise", "detail_url": "http://api.map.baidu.com/place/detail?uid=4ef29c73d588a1f12b02e1b1&output=html&source=placeapi_v2", "children": []}}, {"name": "\u66f2\u6c5f\u5e7f\u7535\u4e2d\u5fc3", "location": {"lat": 34.212374, "lng": 108.984476}, "address": "\u96c1\u5854\u533a\u8299\u84c9\u897f\u8def91\u53f7(\u8fd1\u5927\u5510\u8299\u84c9\u56ed\u5357\u95e8)", "province": "\u9655\u897f\u7701", "city": "\u897f\u5b89\u5e02", "area": "\u96c1\u5854\u533a", "street_id": "1bf095bb528a067bb1077d92", "detail": 1, "uid": "5f50dc2fa2e8cef4ab059d61", "detail_info": {"tag": "\u6587\u5316\u4f20\u5a92;\u5e7f\u64ad\u7535\u89c6", "navi_location": {"lng": 108.98494826878, "lat": 34.212712222281}, "type": "enterprise", "detail_url": "http://api.map.baidu.com/place/detail?uid=5f50dc2fa2e8cef4ab059d61&output=html&source=placeapi_v2", "overall_rating": "5.0", "comment_num": "4", "children": []}}, {"name": "\u897f\u5b89\u5e02\u9752\u5c11\u5e74\u5bab", "location": {"lat": 34.270301, "lng": 108.958534}, "address": "\u9655\u897f\u7701\u897f\u5b89\u5e02\u65b0\u57ce\u533a\u897f\u65b0\u88574\u53f7", "province": "\u9655\u897f\u7701", "city": "\u897f\u5b89\u5e02", "area": "\u65b0\u57ce\u533a", "street_id": "6ee010208291a1ef52e5c506", "telephone": "(029)87216033", "detail": 1, "uid": "6ee010208291a1ef52e5c506", "detail_info": {"tag": "\u6587\u5316\u4f20\u5a92;\u6587\u5316\u5bab", "navi_location": {"lng": 108.95867126417, "lat": 34.270587142316}, "type": "life", "detail_url": "http://api.map.baidu.com/place/detail?uid=6ee010208291a1ef52e5c506&output=html&source=placeapi_v2", "overall_rating": "3.5", "image_num": "11", "comment_num": "4", "children": []}}, {"name": "\u66f2\u6c5f\u56fd\u9645\u4f1a\u5c55\u4e2d\u5fc3-B4\u9986", "location": {"lat": 34.201098, "lng": 108.958296}, "address": "\u96c1\u5c55\u8def3\u53f7", "province": "\u9655\u897f\u7701", "city": "\u897f\u5b89\u5e02", "area": "\u96c1\u5854\u533a", "street_id": "2dddab53cf5be60ee6073890", "detail": 1, "uid": "2dddab53cf5be60ee6073890", "detail_info": {"tag": "\u6587\u5316\u4f20\u5a92;\u5c55\u89c8\u9986", "navi_location": {"lng": 108.95802848526, "lat": 34.201611520839}, "type": "scope", "detail_url": "http://api.map.baidu.com/place/detail?uid=2dddab53cf5be60ee6073890&output=html&source=placeapi_v2", "comment_num": "1", "children": []}}, {"name": "\u534e\u5546\u6587\u5316\u4f20\u5a92\u4e2d\u5fc3", "location": {"lat": 34.214301, "lng": 109.0197}, "address": "\u9655\u897f\u7701\u897f\u5b89\u5e02\u96c1\u5854\u533a\u5357\u4e09\u73af\u4e0e\u96c1\u7fd4\u8def\u4ea4\u53c9\u53e3\u4e1c\u5317150\u7c73", "province": "\u9655\u897f\u7701", "city": "\u897f\u5b89\u5e02", "area": "\u96c1\u5854\u533a", "street_id": "960dc48acc7b91c1ca213d00", "detail": 1, "uid": "960dc48acc7b91c1ca213d00", "detail_info": {"tag": "\u6587\u5316\u4f20\u5a92;\u65b0\u95fb\u51fa\u7248", "navi_location": {"lng": 109.02083644346, "lat": 34.216798082921}, "type": "enterprise", "detail_url": "http://api.map.baidu.com/place/detail?uid=960dc48acc7b91c1ca213d00&output=html&source=placeapi_v2", "comment_num": "2", "children": []}}, {"name": "\u897f\u5b89\u5e02\u7fa4\u4f17\u827a\u672f\u9986", "location": {"lat": 34.256878, "lng": 108.961003}, "address": "\u9655\u897f\u7701\u897f\u5b89\u5e02\u7891\u6797\u533a\u6587\u827a\u5317\u8def197\u53f7", "province": "\u9655\u897f\u7701", "city": "\u897f\u5b89\u5e02", "area": "\u7891\u6797\u533a", "street_id": "f5e3bcaec16605c15e17c306", "telephone": "(029)87853307", "detail": 1, "uid": "f5e3bcaec16605c15e17c306", "detail_info": {"tag": "\u6587\u5316\u4f20\u5a92;\u7f8e\u672f\u9986", "navi_location": {"lng": 108.96054704196, "lat": 34.256945433401}, "type": "scope", "detail_url": "http://api.map.baidu.com/place/detail?uid=f5e3bcaec16605c15e17c306&output=html&source=placeapi_v2", "overall_rating": "3.0", "comment_num": "0", "children": []}}, {"name": "\u9655\u897f\u5e08\u8303\u5927\u5b66-\u5b66\u672f\u6d3b\u52a8\u4e2d\u5fc3", "location": {"lat": 34.212561, "lng": 108.961637}, "address": "\u9655\u897f\u7701\u897f\u5b89\u5e02\u957f\u5b89\u5357\u8def199\u53f7", "province": "\u9655\u897f\u7701", "city": "\u897f\u5b89\u5e02", "area": "\u96c1\u5854\u533a", "street_id": "d4034eb344a6f9f5c0364408", "telephone": "(029)85308844", "detail": 1, "uid": "d4034eb344a6f9f5c0364408", "detail_info": {"tag": "\u6587\u5316\u4f20\u5a92;\u6587\u5316\u5bab", "navi_location": {"lng": 108.96124540982, "lat": 34.21274701404}, "type": "education", "detail_url": "http://api.map.baidu.com/place/detail?uid=d4034eb344a6f9f5c0364408&output=html&source=placeapi_v2", "comment_num": "1", "children": []}}, {"name": "\u79e6\u5cad", "location": {"lat": 34.266054, "lng": 108.998631}, "address": "\u4e92\u52a9\u8def\u897f\u90e8\u7535\u529b\u56fd\u9645\u5546\u52a1\u4e2d\u5fc311\u5c42", "province": "\u9655\u897f\u7701", "city": "\u897f\u5b89\u5e02", "area": "\u7891\u6797\u533a", "street_id": "73f8376aded1c6e16f20b986", "detail": 1, "uid": "73f8376aded1c6e16f20b986", "detail_info": {"tag": "\u6587\u5316\u4f20\u5a92;\u6587\u5316\u5bab", "navi_location": {"lng": 108.99865351293, "lat": 34.265953438821}, "type": "life", "detail_url": "http://api.map.baidu.com/place/detail?uid=73f8376aded1c6e16f20b986&output=html&source=placeapi_v2", "overall_rating": "0.0", "image_num": "1", "children": []}}, {"name": "\u66f2\u6c5f\u56fd\u9645\u4f1a\u5c55\u4e2d\u5fc3-B1\u9986", "location": {"lat": 34.201419, "lng": 108.954969}, "address": "\u9655\u897f\u7701\u897f\u5b89\u5e02\u96c1\u5854\u533a\u4f1a\u5c55\u8def\u9644\u8fd1", "province": "\u9655\u897f\u7701", "city": "\u897f\u5b89\u5e02", "area": "\u96c1\u5854\u533a", "street_id": "5c2dc21dd4a92f046fc02c54", "telephone": "(029)87655118", "detail": 1, "uid": "5c2dc21dd4a92f046fc02c54", "detail_info": {"tag": "\u6587\u5316\u4f20\u5a92;\u5c55\u89c8\u9986", "navi_location": {"lng": 108.95496268982, "lat": 34.201610457191}, "type": "scope", "detail_url": "http://api.map.baidu.com/place/detail?uid=5c2dc21dd4a92f046fc02c54&output=html&source=placeapi_v2", "overall_rating": "0.0", "children": []}}, {"name": "\u897f\u5b89\u5e02\u7eba\u7ec7\u57ce\u5de5\u4eba\u6587\u5316\u5bab", "location": {"lat": 34.267778, "lng": 109.071233}, "address": "\u897f\u5b89\u5e02\u705e\u6865\u533a\u7eba\u7ec7\u57ce\u6b63\u8857216\u53f7", "province": "\u9655\u897f\u7701", "city": "\u897f\u5b89\u5e02", "area": "\u705e\u6865\u533a", "street_id": "9f97b1c543517306b64f542b", "detail": 1, "uid": "9f97b1c543517306b64f542b", "detail_info": {"tag": "\u6587\u5316\u4f20\u5a92;\u6587\u5316\u5bab", "navi_location": {"lng": 109.07126605268, "lat": 34.268111855506}, "type": "life", "detail_url": "http://api.map.baidu.com/place/detail?uid=9f97b1c543517306b64f542b&output=html&source=placeapi_v2", "image_num": "9", "comment_num": "2", "children": []}}, {"name": "\u7891\u6797\u533a\u5c11\u5e74\u5bab", "location": {"lat": 34.258931, "lng": 108.960074}, "address": "\u4e09\u5b66\u88573\u53f7", "province": "\u9655\u897f\u7701", "city": "\u897f\u5b89\u5e02", "area": "\u7891\u6797\u533a", "street_id": "7531b024d4e5e15ab8bd6313", "telephone": "(029)87212797", "detail": 1, "uid": "7531b024d4e5e15ab8bd6313", "detail_info": {"tag": "\u6587\u5316\u4f20\u5a92;\u6587\u5316\u5bab", "navi_location": {"lng": 108.96042762123, "lat": 34.2591031584}, "type": "life", "detail_url": "http://api.map.baidu.com/place/detail?uid=7531b024d4e5e15ab8bd6313&output=html&source=placeapi_v2", "image_num": "20", "comment_num": "3", "children": []}}, {"name": "\u9655\u897f\u4f20\u5a92\u7f51", "location": {"lat": 34.255747, "lng": 108.978457}, "address": "\u592a\u4e59\u8def\u5317\u53e3218\u53f7\u9644\u8fd1", "province": "\u9655\u897f\u7701", "city": "\u897f\u5b89\u5e02", "area": "\u7891\u6797\u533a", "street_id": "f6ecac1302aca29109b93a82", "detail": 1, "uid": "f6ecac1302aca29109b93a82", "detail_info": {"tag": "\u6587\u5316\u4f20\u5a92;\u5176\u4ed6", "navi_location": {"lng": 108.97861955465, "lat": 34.255648732437}, "type": "enterprise", "detail_url": "http://api.map.baidu.com/place/detail?uid=f6ecac1302aca29109b93a82&output=html&source=placeapi_v2", "comment_num": "2", "children": []}}, {"name": "\u9655\u897f\u7f8e\u672f\u9986", "location": {"lat": 34.266277, "lng": 108.957816}, "address": "\u9655\u897f\u7701\u897f\u5b89\u5e02\u65b0\u57ce\u533a\u4e1c\u5927\u8857587\u53f7", "province": "\u9655\u897f\u7701", "city": "\u897f\u5b89\u5e02", "area": "\u65b0\u57ce\u533a", "street_id": "07a700a38ef6048f276e9863", "telephone": "(029)87279054", "detail": 1, "uid": "07a700a38ef6048f276e9863", "detail_info": {"tag": "\u6587\u5316\u4f20\u5a92;\u7f8e\u672f\u9986", "navi_location": {"lng": 108.95747858934, "lat": 34.265954906718}, "type": "scope", "detail_url": "http://api.map.baidu.com/place/detail?uid=07a700a38ef6048f276e9863&output=html&source=placeapi_v2", "overall_rating": "3.0", "comment_num": "7", "children": []}}, {"name": "\u9655\u897f\u7701\u4f1a\u5c55\u4e2d\u5fc3", "location": {"lat": 34.27655, "lng": 108.962187}, "address": "\u897f\u4e94\u8def85\u53f7", "province": "\u9655\u897f\u7701", "city": "\u897f\u5b89\u5e02", "area": "\u65b0\u57ce\u533a", "street_id": "2527be1ed55f33b24afc8d30", "detail": 1, "uid": "2527be1ed55f33b24afc8d30", "detail_info": {"tag": "\u6587\u5316\u4f20\u5a92;\u5c55\u89c8\u9986", "navi_location": {"lng": 108.9617824447, "lat": 34.276411000476}, "type": "scope", "detail_url": "http://api.map.baidu.com/place/detail?uid=2527be1ed55f33b24afc8d30&output=html&source=placeapi_v2", "comment_num": "1", "children": []}}, {"name": "\u9655\u897f\u4eba\u6c11\u51fa\u7248\u793e", "location": {"lat": 34.277387, "lng": 108.953858}, "address": "\u5317\u5927\u8857147\u53f7", "province": "\u9655\u897f\u7701", "city": "\u897f\u5b89\u5e02", "area": "\u65b0\u57ce\u533a", "street_id": "d6c5d991aaff349530169bf7", "detail": 1, "uid": "d6c5d991aaff349530169bf7", "detail_info": {"tag": "\u6587\u5316\u4f20\u5a92;\u65b0\u95fb\u51fa\u7248", "navi_location": {"lng": 108.95362287794, "lat": 34.277385018287}, "type": "enterprise", "detail_url": "http://api.map.baidu.com/place/detail?uid=d6c5d991aaff349530169bf7&output=html&source=placeapi_v2", "comment_num": "2", "children": []}}, {"name": "\u601d\u6e90\u5b66\u751f\u6d3b\u52a8\u4e2d\u5fc3", "location": {"lat": 34.24864, "lng": 108.990212}, "address": "\u54b8\u5b81\u897f\u8def28\u53f7\u897f\u5b89\u4ea4\u901a\u5927\u5b66", "province": "\u9655\u897f\u7701", "city": "\u897f\u5b89\u5e02", "area": "\u7891\u6797\u533a", "street_id": "14076deee97bd7f402294f6d", "detail": 1, "uid": "14076deee97bd7f402294f6d", "detail_info": {"tag": "\u6587\u5316\u4f20\u5a92;\u6587\u5316\u5bab", "navi_location": {"lng": 108.99020304071, "lat": 34.24849237656}, "type": "education", "detail_url": "http://api.map.baidu.com/place/detail?uid=14076deee97bd7f402294f6d&output=html&source=placeapi_v2", "overall_rating": "3.7", "comment_num": "1", "children": []}}, {"name": "\u8d3e\u5e73\u51f9\u6587\u5316\u827a\u672f\u9986", "location": {"lat": 34.241117, "lng": 108.974755}, "address": "\u5efa\u8bbe\u4e1c\u8def\u897f\u5b89\u5efa\u7b51\u79d1\u6280\u5927\u5b66\u5357\u9662\u5185", "province": "\u9655\u897f\u7701", "city": "\u897f\u5b89\u5e02", "area": "\u7891\u6797\u533a", "street_id": "05dd7d5f85dbf27cad080fce", "telephone": "(029)81370923", "detail": 1, "uid": "05dd7d5f85dbf27cad080fce", "detail_info": {"tag": "\u6587\u5316\u4f20\u5a92;\u7f8e\u672f\u9986", "navi_location": {"lng": 108.97441666614, "lat": 34.24099254588}, "type": "scope", "detail_url": "http://api.map.baidu.com/place/detail?uid=05dd7d5f85dbf27cad080fce&output=html&source=placeapi_v2", "overall_rating": "4.0", "children": []}}, {"name": "\u6c38\u5b81\u56fd\u9645\u7f8e\u672f\u9986", "location": {"lat": 34.258704, "lng": 108.952222}, "address": "\u5357\u5927\u88572\u53f7", "province": "\u9655\u897f\u7701", "city": "\u897f\u5b89\u5e02", "area": "\u7891\u6797\u533a", "street_id": "b821a65f7dd57caff90cad64", "detail": 1, "uid": "b821a65f7dd57caff90cad64", "detail_info": {"tag": "\u6587\u5316\u4f20\u5a92;\u7f8e\u672f\u9986", "navi_location": {"lng": 108.95240569463, "lat": 34.25910282416}, "type": "scope", "detail_url": "http://api.map.baidu.com/place/detail?uid=b821a65f7dd57caff90cad64&output=html&source=placeapi_v2", "overall_rating": "4.3", "comment_num": "0", "children": []}}, {"name": "\u66f2\u6c5f\u56fd\u9645\u4f1a\u5c55\u4e2d\u5fc3-B2\u9986", "location": {"lat": 34.201449, "lng": 108.955987}, "address": "\u9655\u897f\u7701\u897f\u5b89\u5e02\u96c1\u5854\u533a\u66f2\u6c5f\u56fd\u9645\u4f1a\u5c55\u4e2d\u5fc3B2\u9986", "province": "\u9655\u897f\u7701", "city": "\u897f\u5b89\u5e02", "area": "\u96c1\u5854\u533a", "street_id": "cbf84b48256f76d3b04c4926", "detail": 1, "uid": "cbf84b48256f76d3b04c4926", "detail_info": {"tag": "\u6587\u5316\u4f20\u5a92;\u5c55\u89c8\u9986", "type": "scope", "detail_url": "http://api.map.baidu.com/place/detail?uid=cbf84b48256f76d3b04c4926&output=html&source=placeapi_v2", "children": []}}, {"name": "\u9655\u897f\u7701\u8001\u5e72\u90e8\u6d3b\u52a8\u4e2d\u5fc3", "location": {"lat": 34.276594, "lng": 108.962917}, "address": "\u65b0\u57ce\u533a\u897f\u4e94\u8def81\u53f7(\u9769\u547d\u516c\u56ed\u897f\u9694\u58c1)", "province": "\u9655\u897f\u7701", "city": "\u897f\u5b89\u5e02", "area": "\u65b0\u57ce\u533a", "street_id": "5211d219659e6c257dc87618", "detail": 1, "uid": "5211d219659e6c257dc87618", "detail_info": {"tag": "\u6587\u5316\u4f20\u5a92;\u6587\u5316\u5bab", "navi_location": {"lng": 108.96287529623, "lat": 34.276421353142}, "type": "life", "detail_url": "http://api.map.baidu.com/place/detail?uid=5211d219659e6c257dc87618&output=html&source=placeapi_v2", "overall_rating": "1.0", "image_num": "8", "comment_num": "2", "children": []}}, {"name": "\u4e09\u79e6\u90fd\u5e02\u62a5", "location": {"lat": 34.256946, "lng": 108.978427}, "address": "\u9655\u897f\u7701\u897f\u5b89\u5e02\u73af\u57ce\u5357\u8def\u4e1c\u6bb51\u53f7", "province": "\u9655\u897f\u7701", "city": "\u897f\u5b89\u5e02", "area": "\u7891\u6797\u533a", "street_id": "8a267d0769ca16b9d5b74ec3", "telephone": "(029)82244483,(029)82240786,(029)82243110,(029)82255333,(029)82255222", "detail": 1, "uid": "8a267d0769ca16b9d5b74ec3", "detail_info": {"tag": "\u6587\u5316\u4f20\u5a92;\u65b0\u95fb\u51fa\u7248", "navi_location": {"lng": 108.97860737093, "lat": 34.256945465252}, "type": "enterprise", "detail_url": "http://api.map.baidu.com/place/detail?uid=8a267d0769ca16b9d5b74ec3&output=html&source=placeapi_v2", "comment_num": "1", "children": []}}, {"name": "\u897f\u5b89\u5730\u56fe\u51fa\u7248\u793e", "location": {"lat": 34.24726, "lng": 108.961307}, "address": "\u53cb\u8c0a\u4e1c\u8def334\u53f7", "province": "\u9655\u897f\u7701", "city": "\u897f\u5b89\u5e02", "area": "\u7891\u6797\u533a", "street_id": "4642844a6f7d3ed9c9fa5f6d", "telephone": "(029)87604196", "detail": 1, "uid": "4642844a6f7d3ed9c9fa5f6d", "detail_info": {"tag": "\u6587\u5316\u4f20\u5a92;\u65b0\u95fb\u51fa\u7248", "navi_location": {"lng": 108.96131686283, "lat": 34.247423323824}, "type": "enterprise", "detail_url": "http://api.map.baidu.com/place/detail?uid=4642844a6f7d3ed9c9fa5f6d&output=html&source=placeapi_v2", "comment_num": "4", "children": []}}, {"name": "\u7d22\u83f2\u7279\u56fd\u9645\u4f1a\u5c55\u4e2d\u5fc3", "location": {"lat": 34.271826, "lng": 108.965155}, "address": "\u9655\u897f\u7701\u897f\u5b89\u5e02\u65b0\u57ce\u533a\u4e1c\u65b0\u8857319\u53f7", "province": "\u9655\u897f\u7701", "city": "\u897f\u5b89\u5e02", "area": "\u65b0\u57ce\u533a", "street_id": "491fab44b7e5ba402bd7abc5", "telephone": "(029)87928888", "detail": 1, "uid": "491fab44b7e5ba402bd7abc5", "detail_info": {"tag": "\u6587\u5316\u4f20\u5a92;\u5c55\u89c8\u9986", "navi_location": {"lng": 108.96597647682, "lat": 34.271809984037}, "type": "scope", "detail_url": "http://api.map.baidu.com/place/detail?uid=491fab44b7e5ba402bd7abc5&output=html&source=placeapi_v2", "overall_rating": "0.0", "children": []}}, {"name": "\u897f\u5b89\u5e02\u8001\u5e72\u90e8\u6d3b\u52a8\u4e2d\u5fc3", "location": {"lat": 34.262701, "lng": 108.995165}, "address": "\u5b89\u5e02\u7891\u6797\u533a\u5174\u5e86\u8def33\u53f7", "province": "\u9655\u897f\u7701", "city": "\u897f\u5b89\u5e02", "area": "\u7891\u6797\u533a", "street_id": "1020060fddcd50a61894c606", "telephone": "(029)83226554", "detail": 1, "uid": "1020060fddcd50a61894c606", "detail_info": {"tag": "\u6587\u5316\u4f20\u5a92;\u6587\u5316\u5bab", "navi_location": {"lng": 108.99481835296, "lat": 34.262648743349}, "type": "life", "detail_url": "http://api.map.baidu.com/place/detail?uid=1020060fddcd50a61894c606&output=html&source=placeapi_v2", "image_num": "12", "comment_num": "2", "children": []}}, {"name": "\u897f\u5b89\u5c0f\u5929\u9e45\u827a\u672f\u56e2", "location": {"lat": 34.202045, "lng": 108.957236}, "address": "\u66f2\u6c5f\u56fd\u9645\u4f1a\u5c55\u4e2d\u5fc3A\u99862\u697c", "province": "\u9655\u897f\u7701", "city": "\u897f\u5b89\u5e02", "area": "\u96c1\u5854\u533a", "telephone": "(029)62885876", "detail": 1, "uid": "0541e73412083821d8131881", "detail_info": {"tag": "\u6587\u5316\u4f20\u5a92;\u827a\u672f\u56e2\u4f53", "navi_location": {"lng": 108.95686765895, "lat": 34.201631235809}, "type": "enterprise", "detail_url": "http://api.map.baidu.com/place/detail?uid=0541e73412083821d8131881&output=html&source=placeapi_v2", "comment_num": "1", "children": []}}, {"name": "\u592a\u9633\u82b1\u827a\u672f\u56e2(\u54b8\u5b81\u4e2d\u8def\u5206\u90e8)", "location": {"lat": 34.256353, "lng": 109.010329}, "address": "\u54b8\u5b81\u4e2d\u8def51\u53f7\u673a\u52d8\u5927\u53a62\u697c", "province": "\u9655\u897f\u7701", "city": "\u897f\u5b89\u5e02", "area": "\u7891\u6797\u533a", "street_id": "b0d056f2602d0c7ecac3db25", "telephone": "(029)83220211", "detail": 1, "uid": "b0d056f2602d0c7ecac3db25", "detail_info": {"tag": "\u6587\u5316\u4f20\u5a92;\u827a\u672f\u56e2\u4f53", "navi_location": {"lng": 109.01023594258, "lat": 34.256792701392}, "type": "enterprise", "detail_url": "http://api.map.baidu.com/place/detail?uid=b0d056f2602d0c7ecac3db25&output=html&source=placeapi_v2", "comment_num": "1", "children": []}}, {"name": "\u897f\u5b89\u5e02\u8bf4\u5531\u827a\u672f\u56e2(\u592a\u4e59\u8def)", "location": {"lat": 34.250879, "lng": 108.97837}, "address": "\u897f\u5b89\u5e02\u7891\u6797\u533a\u592a\u4e59\u8def168\u53f7", "province": "\u9655\u897f\u7701", "city": "\u897f\u5b89\u5e02", "area": "\u7891\u6797\u533a", "street_id": "8fde79ccfca95fc195ca073c", "detail": 1, "uid": "8fde79ccfca95fc195ca073c", "detail_info": {"tag": "\u6587\u5316\u4f20\u5a92;\u827a\u672f\u56e2\u4f53", "type": "enterprise", "detail_url": "http://api.map.baidu.com/place/detail?uid=8fde79ccfca95fc195ca073c&output=html&source=placeapi_v2", "comment_num": "4", "children": []}}, {"name": "\u66f2\u6c5f\u56fd\u9645\u4f1a\u5c55\u4e2d\u5fc3-B3\u9986", "location": {"lat": 34.200869, "lng": 108.956727}, "address": "\u9655\u897f\u7701\u897f\u5b89\u5e02\u96c1\u5854\u533a\u5927\u96c1\u5854\u8857\u9053\u96c1\u5c55\u8def1\u53f7\u66f2\u6c5f\u56fd\u9645\u4f1a\u5c55\u4e2d\u5fc3", "province": "\u9655\u897f\u7701", "city": "\u897f\u5b89\u5e02", "area": "\u96c1\u5854\u533a", "street_id": "0978b4b6ff3ca253b13c8191", "detail": 1, "uid": "0978b4b6ff3ca253b13c8191", "detail_info": {"tag": "\u6587\u5316\u4f20\u5a92;\u5c55\u89c8\u9986", "type": "scope", "detail_url": "http://api.map.baidu.com/place/detail?uid=0978b4b6ff3ca253b13c8191&output=html&source=placeapi_v2", "comment_num": "1", "children": []}}, {"name": "\u897f\u5b89\u5c0f\u5929\u9e45\u827a\u672f\u56e2", "location": {"lat": 34.232908, "lng": 108.99031}, "address": "\u897f\u5f71\u8def289\u53f7\u897f\u5b89\u5de5\u7a0b\u6280\u672f\u5b66\u6821\u4e09\u697c", "province": "\u9655\u897f\u7701", "city": "\u897f\u5b89\u5e02", "area": "\u96c1\u5854\u533a", "street_id": "3d7c33fa97fc941a871541d5", "detail": 1, "uid": "3d7c33fa97fc941a871541d5", "detail_info": {"tag": "\u6587\u5316\u4f20\u5a92;\u827a\u672f\u56e2\u4f53", "type": "enterprise", "detail_url": "http://api.map.baidu.com/place/detail?uid=3d7c33fa97fc941a871541d5&output=html&source=placeapi_v2", "children": []}}, {"name": "\u96c1\u5854\u7f8e\u672f\u9986", "location": {"lat": 34.223829, "lng": 108.952729}, "address": "\u957f\u5b89\u5357\u8def2\u53f7\u96c1\u5854\u6587\u5316\u65b0\u5929\u5730\u8d2d\u7269\u5e7f\u573a1\u5c42", "province": "\u9655\u897f\u7701", "city": "\u897f\u5b89\u5e02", "area": "\u96c1\u5854\u533a", "street_id": "a3256117110a6065e8e58204", "detail": 1, "uid": "a3256117110a6065e8e58204", "detail_info": {"tag": "\u6587\u5316\u4f20\u5a92;\u7f8e\u672f\u9986", "navi_location": {"lng": 108.95217512566, "lat": 34.224271718722}, "type": "scope", "detail_url": "http://api.map.baidu.com/place/detail?uid=a3256117110a6065e8e58204&output=html&source=placeapi_v2", "comment_num": "1", "children": []}}, {"name": "\u4e2d\u8d1d\u5143\u513f\u7ae5\u827a\u672f\u4e2d\u5fc3", "location": {"lat": 34.256956, "lng": 108.96095}, "address": "\u7891\u6797\u533a\u6587\u827a\u5317\u8def197\u53f7\uff08\u6587\u660c\u95e8\u5341\u5b57\u4e1c\u5357\u89d2\uff0c\u7fa4\u4f17\u827a\u672f\u9986\u8d1f\u4e00\u5c42\uff09", "province": "\u9655\u897f\u7701", "city": "\u897f\u5b89\u5e02", "area": "\u7891\u6797\u533a", "street_id": "39d43f82a6141b85a8059ddb", "telephone": "(029)87852465", "detail": 1, "uid": "39d43f82a6141b85a8059ddb", "detail_info": {"tag": "\u6587\u5316\u4f20\u5a92;\u827a\u672f\u56e2\u4f53", "navi_location": {"lng": 108.96054172848, "lat": 34.256683943417}, "type": "enterprise", "detail_url": "http://api.map.baidu.com/place/detail?uid=39d43f82a6141b85a8059ddb&output=html&source=placeapi_v2", "comment_num": "2", "children": []}}, {"name": "\u65b0\u57ce\u533a\u5c11\u5e74\u5bab", "location": {"lat": 34.268166, "lng": 108.956658}, "address": "\u897f\u4e00\u8def181\u53f7", "province": "\u9655\u897f\u7701", "city": "\u897f\u5b89\u5e02", "area": "\u65b0\u57ce\u533a", "street_id": "550fd5f9b4905879931fc906", "telephone": "(029)87272182", "detail": 1, "uid": "550fd5f9b4905879931fc906", "detail_info": {"tag": "\u6587\u5316\u4f20\u5a92;\u6587\u5316\u5bab", "navi_location": {"lng": 108.95664857571, "lat": 34.26805956582}, "type": "life", "detail_url": "http://api.map.baidu.com/place/detail?uid=550fd5f9b4905879931fc906&output=html&source=placeapi_v2", "image_num": "19", "comment_num": "1", "children": []}}, {"name": "\u897f\u5b89\u9a6c\u4e0a\u5e7f\u544a\u6587\u5316\u4f20\u64ad\u6709\u9650\u516c\u53f8", "location": {"lat": 34.243296, "lng": 109.02776}, "address": "\u9655\u897f\u7701\u897f\u5b89\u5e02\u96c1\u5854\u533a\u5eb7\u5b81\u8def8\u53f7", "province": "\u9655\u897f\u7701", "city": "\u897f\u5b89\u5e02", "area": "\u96c1\u5854\u533a", "street_id": "0cb1008da70c37f38bdb7355", "detail": 1, "uid": "0cb1008da70c37f38bdb7355", "detail_info": {"tag": "\u6587\u5316\u4f20\u5a92;\u5176\u4ed6", "type": "enterprise", "detail_url": "http://api.map.baidu.com/place/detail?uid=0cb1008da70c37f38bdb7355&output=html&source=placeapi_v2", "children": []}}, {"name": "X-MOCA\u827a\u672f\u9986", "location": {"lat": 34.215102, "lng": 109.018777}, "address": "\u9655\u897f\u7701\u897f\u5b89\u5e02\u96c1\u5854\u533a\u5357\u4e09\u73afXMOCA\u827a\u672f\u9986", "province": "\u9655\u897f\u7701", "city": "\u897f\u5b89\u5e02", "area": "\u96c1\u5854\u533a", "street_id": "1a10053b119b6b29e215f9d6", "detail": 1, "uid": "aa1a653b2e4744ee7369d3a8", "detail_info": {"tag": "\u6587\u5316\u4f20\u5a92;\u7f8e\u672f\u9986", "navi_location": {"lng": 109.01807945402, "lat": 34.214981112668}, "type": "scope", "detail_url": "http://api.map.baidu.com/place/detail?uid=aa1a653b2e4744ee7369d3a8&output=html&source=placeapi_v2", "overall_rating": "3.5", "comment_num": "0", "children": []}}, {"name": "\u897f\u5b89\u5e02\u705e\u6865\u533a\u6587\u5316\u9986", "location": {"lat": 34.277592, "lng": 109.075403}, "address": "\u7eba\u4e00\u8def108\u53f7", "province": "\u9655\u897f\u7701", "city": "\u897f\u5b89\u5e02", "area": "\u705e\u6865\u533a", "street_id": "b1c556e89803b40cb426552b", "detail": 1, "uid": "b1c556e89803b40cb426552b", "detail_info": {"tag": "\u6587\u5316\u4f20\u5a92;\u6587\u5316\u5bab", "type": "life", "detail_url": "http://api.map.baidu.com/place/detail?uid=b1c556e89803b40cb426552b&output=html&source=placeapi_v2", "image_num": "3", "comment_num": "0", "children": []}}, {"name": "\u7897\u7897\u8154", "location": {"lat": 34.229524, "lng": 108.954792}, "address": "\u897f\u5b89\u5e02\u96c1\u5854\u533a\u957f\u5b89\u4e2d\u8def123\u53f7\u8d5b\u683c\u56fd\u9645\u8d2d\u7269\u4e2d\u5fc3F6", "province": "\u9655\u897f\u7701", "city": "\u897f\u5b89\u5e02", "area": "\u96c1\u5854\u533a", "street_id": "f3c71c00d5d935d4932ca318", "detail": 1, "uid": "f3c71c00d5d935d4932ca318", "detail_info": {"tag": "\u6587\u5316\u4f20\u5a92;\u827a\u672f\u56e2\u4f53", "indoor_floor": "F6", "type": "cater", "detail_url": "http://api.map.baidu.com/place/detail?uid=f3c71c00d5d935d4932ca318&output=html&source=placeapi_v2", "price": "50.0", "overall_rating": "4.5", "comment_num": "200", "di_review_keyword": [], "children": []}}, {"name": "\u9655\u897f\u7535\u89c6\u53f0\u5e7f\u544a\u4e2d\u5fc3", "location": {"lat": 34.217031, "lng": 108.953417}, "address": "\u957f\u5b89\u5357\u8def493\u53f7\u822a\u5929\u5927\u53a62-4\u5c42", "province": "\u9655\u897f\u7701", "city": "\u897f\u5b89\u5e02", "area": "\u96c1\u5854\u533a", "street_id": "5c60124214870cde1576439c", "detail": 1, "uid": "5c60124214870cde1576439c", "detail_info": {"tag": "\u6587\u5316\u4f20\u5a92;\u5e7f\u64ad\u7535\u89c6", "type": "enterprise", "detail_url": "http://api.map.baidu.com/place/detail?uid=5c60124214870cde1576439c&output=html&source=placeapi_v2", "overall_rating": "3.8", "children": []}}, {"name": "\u897f\u90e8\u6cd5\u5236\u62a5\u793e", "location": {"lat": 34.244789, "lng": 108.99514}, "address": "\u5357\u4e8c\u73af\u4e1c\u6bb562\u53f7\u4f1f\u4e1a\u90fd\u5e02\u8fdc\u666f\u5927\u53a64/5\u5c42BCD\u6237", "province": "\u9655\u897f\u7701", "city": "\u897f\u5b89\u5e02", "area": "\u7891\u6797\u533a", "street_id": "f948a1ce9b174cfbaccb6658", "detail": 1, "uid": "f948a1ce9b174cfbaccb6658", "detail_info": {"tag": "\u6587\u5316\u4f20\u5a92;\u65b0\u95fb\u51fa\u7248", "navi_location": {"lng": 108.99531870823, "lat": 34.244771803619}, "type": "enterprise", "detail_url": "http://api.map.baidu.com/place/detail?uid=f948a1ce9b174cfbaccb6658&output=html&source=placeapi_v2", "children": []}}, {"name": "\u7687\u57ce\u7f8e\u672f\u9986", "location": {"lat": 34.27583, "lng": 108.97123}, "address": "\u897f\u5b89\u5e02\u65b0\u57ce\u533a\u5c1a\u4fed\u8def360\u53f7", "province": "\u9655\u897f\u7701", "city": "\u897f\u5b89\u5e02", "area": "\u65b0\u57ce\u533a", "street_id": "be2416e648da5f7471455b12", "detail": 1, "uid": "be2416e648da5f7471455b12", "detail_info": {"tag": "\u6587\u5316\u4f20\u5a92;\u7f8e\u672f\u9986", "navi_location": {"lng": 108.97097105545, "lat": 34.276262245072}, "type": "scope", "detail_url": "http://api.map.baidu.com/place/detail?uid=be2416e648da5f7471455b12&output=html&source=placeapi_v2", "overall_rating": "3.3", "comment_num": "3", "children": []}}, {"name": "\u9655\u897f\u5b89\u4eba\u6587\u5316\u4f20\u64ad\u6709\u9650\u516c\u53f8", "location": {"lat": 34.27909, "lng": 108.969026}, "address": "\u89e3\u653e\u8def318\u53f7\u897f\u5b89\u4e66\u520a\u6279\u53d1\u5e02\u573a1-4\u53f7", "province": "\u9655\u897f\u7701", "city": "\u897f\u5b89\u5e02", "area": "\u65b0\u57ce\u533a", "street_id": "5f84da9807b20535ca1b95f0", "detail": 1, "uid": "2137be2689cb958301897200", "detail_info": {"tag": "\u6587\u5316\u4f20\u5a92;\u5176\u4ed6", "type": "enterprise", "detail_url": "http://api.map.baidu.com/place/detail?uid=2137be2689cb958301897200&output=html&source=placeapi_v2", "comment_num": "2", "children": []}}, {"name": "\u822a\u5929\u79d1\u6280\u6d3b\u52a8\u4e2d\u5fc3", "location": {"lat": 34.172586, "lng": 108.962291}, "address": "\u5409\u6cf0\u8def\u4e0e\u822a\u5929\u897f\u8def\u4ea4\u53c9\u53e3\u4e1c\u5317100\u7c73", "province": "\u9655\u897f\u7701", "city": "\u897f\u5b89\u5e02", "area": "\u957f\u5b89\u533a", "street_id": "a5ef680f88d463aab9df8fc5", "detail": 1, "uid": "a5ef680f88d463aab9df8fc5", "detail_info": {"tag": "\u6587\u5316\u4f20\u5a92;\u6587\u5316\u5bab", "type": "life", "detail_url": "http://api.map.baidu.com/place/detail?uid=a5ef680f88d463aab9df8fc5&output=html&source=placeapi_v2", "image_num": "7", "comment_num": "1", "children": []}}, {"name": "\u66f2\u6c5f\u56fd\u9645\u4f1a\u5c55\u4e2d\u5fc3-A\u533a", "location": {"lat": 34.202656, "lng": 108.956935}, "address": "\u96c1\u5c55\u8def1\u53f7\u66f2\u6c5f\u56fd\u9645\u4f1a\u5c55\u4e2d\u5fc3(\u96c1\u5c55\u8def)\u9644\u8fd1", "province": "\u9655\u897f\u7701", "city": "\u897f\u5b89\u5e02", "area": "\u96c1\u5854\u533a", "street_id": "a320740fbbf65a67b11e368d", "telephone": "(029)62885705", "detail": 1, "uid": "a320740fbbf65a67b11e368d", "detail_info": {"tag": "\u6587\u5316\u4f20\u5a92;\u5c55\u89c8\u9986", "navi_location": {"lng": 108.95685536384, "lat": 34.20162542478}, "type": "scope", "detail_url": "http://api.map.baidu.com/place/detail?uid=a320740fbbf65a67b11e368d&output=html&source=placeapi_v2", "overall_rating": "4.5", "comment_num": "3", "children": []}}, {"name": "\u7687\u57ce\u6d77\u822a\u9152\u5e97-\u6d77\u8f69\u5385", "location": {"lat": 34.269683, "lng": 108.962194}, "address": "\u9655\u897f\u7701\u897f\u5b89\u5e02\u65b0\u57ce\u533a\u4e1c\u65b0\u8857258\u53f7\u7687\u57ce\u6d77\u822a\u9152\u5e975\u697c", "province": "\u9655\u897f\u7701", "city": "\u897f\u5b89\u5e02", "area": "\u65b0\u57ce\u533a", "street_id": "7ca0287ff7452dbff72310cc", "telephone": "(029)87482888", "detail": 1, "uid": "7ca0287ff7452dbff72310cc", "detail_info": {"tag": "\u6587\u5316\u4f20\u5a92;\u5c55\u89c8\u9986", "navi_location": {"lng": 108.96189224188, "lat": 34.270157650722}, "type": "scope", "detail_url": "http://api.map.baidu.com/place/detail?uid=7ca0287ff7452dbff72310cc&output=html&source=placeapi_v2", "children": []}}, {"name": "\u897f\u5b89\u4ea4\u901a\u5927\u5b66(\u5174\u5e86\u6821\u533a)-\u5927\u5b66\u751f\u6587\u4f53\u6559\u80b2\u4e2d\u5fc3", "location": {"lat": 34.251704, "lng": 108.986983}, "address": "\u9655\u897f\u7701\u897f\u5b89\u5e02\u7891\u6797\u533a\u54b8\u5b81\u897f\u8def28\u53f7\u897f\u5b89\u4ea4\u901a\u5927\u5b66\u5185", "province": "\u9655\u897f\u7701", "city": "\u897f\u5b89\u5e02", "area": "\u7891\u6797\u533a", "street_id": "5ab7c4f0a9b9c53e76e5b633", "detail": 1, "uid": "5ab7c4f0a9b9c53e76e5b633", "detail_info": {"tag": "\u6587\u5316\u4f20\u5a92;\u6587\u5316\u5bab", "navi_location": {"lng": 108.98738306209, "lat": 34.251698842844}, "type": "education", "detail_url": "http://api.map.baidu.com/place/detail?uid=5ab7c4f0a9b9c53e76e5b633&output=html&source=placeapi_v2", "overall_rating": "0.0", "comment_num": "2", "children": []}}, {"name": "\u897f\u5317\u5730\u8d28\u7f16\u8f91\u90e8", "location": {"lat": 34.247008, "lng": 108.954942}, "address": "\u53cb\u8c0a\u4e1c\u8def438\u53f7", "province": "\u9655\u897f\u7701", "city": "\u897f\u5b89\u5e02", "area": "\u7891\u6797\u533a", "street_id": "59a82c529120be96a8f7297a", "detail": 1, "uid": "59a82c529120be96a8f7297a", "detail_info": {"tag": "\u6587\u5316\u4f20\u5a92;\u65b0\u95fb\u51fa\u7248", "navi_location": {"lng": 108.95503916347, "lat": 34.247004512604}, "type": "enterprise", "detail_url": "http://api.map.baidu.com/place/detail?uid=59a82c529120be96a8f7297a&output=html&source=placeapi_v2", "comment_num": "3", "children": []}}, {"name": "\u9655\u897f\u4e66\u753b\u9662", "location": {"lat": 34.239496, "lng": 108.970398}, "address": "\u96c1\u5854\u8def\u4e2d\u6bb533\u53f7\u91d1\u90fd\u56fd\u9645\u5927\u53a6", "province": "\u9655\u897f\u7701", "city": "\u897f\u5b89\u5e02", "area": "\u7891\u6797\u533a", "street_id": "6f417afd642e014e0ab93af7", "telephone": "(029)85538270", "detail": 1, "uid": "6f417afd642e014e0ab93af7", "detail_info": {"tag": "\u6587\u5316\u4f20\u5a92;\u7f8e\u672f\u9986", "navi_location": {"lng": 108.97018310767, "lat": 34.239495506053}, "type": "life", "detail_url": "http://api.map.baidu.com/place/detail?uid=6f417afd642e014e0ab93af7&output=html&source=placeapi_v2", "image_num": "6", "comment_num": "2", "children": []}}, {"name": "\u9526\u6c5f\u4e4b\u661f\u5efa\u56fd\u95e8\u5e97-\u4f1a\u8bae\u4e2d\u5fc3", "location": {"lat": 34.258341, "lng": 108.979961}, "address": "\u73af\u57ce\u4e1c\u8def5\u53f7", "province": "\u9655\u897f\u7701", "city": "\u897f\u5b89\u5e02", "area": "\u7891\u6797\u533a", "street_id": "5b9f2e346a3baf3cf72310c2", "detail": 1, "uid": "5b9f2e346a3baf3cf72310c2", "detail_info": {"tag": "\u6587\u5316\u4f20\u5a92;\u5c55\u89c8\u9986", "navi_location": {"lng": 108.97969360196, "lat": 34.2582652951}, "type": "scope", "detail_url": "http://api.map.baidu.com/place/detail?uid=5b9f2e346a3baf3cf72310c2&output=html&source=placeapi_v2", "overall_rating": "5.0", "comment_num": "1", "children": []}}, {"name": "\u897f\u5b89\u601d\u5b5a\u521b\u610f\u6587\u5316\u6709\u9650\u516c\u53f8", "location": {"lat": 34.196138, "lng": 108.969589}, "address": "\u897f\u5b89\u5e02\u66f2\u6c5f\u65b0\u533a\u884c\u653f\u5546\u52a1\u5546\u52a1\u4e2d\u5fc3\u8363\u534e\u56fd\u9645\u5927\u53a61\u5e621\u5355\u514311310\u5ba4", "province": "\u9655\u897f\u7701", "city": "\u897f\u5b89\u5e02", "area": "\u96c1\u5854\u533a", "street_id": "4897da15de7e5dc87f29bdfe", "detail": 1, "uid": "4897da15de7e5dc87f29bdfe", "detail_info": {"tag": "\u6587\u5316\u4f20\u5a92;\u5176\u4ed6", "type": "enterprise", "detail_url": "http://api.map.baidu.com/place/detail?uid=4897da15de7e5dc87f29bdfe&output=html&source=placeapi_v2", "children": []}}, {"name": "\u897f\u5b89\u661f\u5c1a\u5f71\u89c6\u6587\u5316\u4f20\u64ad\u6709\u9650\u516c\u53f8", "location": {"lat": 34.273811, "lng": 108.968014}, "address": "\u897f\u5b89\u65b0\u57ce\u533a\u897f\u4e09\u8def\u594b\u52c7\u5df7\u4e1c\u5149\u56fd\u9645\u5e7f\u573a2\u53f7\u697c6\u697c", "province": "\u9655\u897f\u7701", "city": "\u897f\u5b89\u5e02", "area": "\u65b0\u57ce\u533a", "street_id": "cd9a835a384baecabe48426d", "detail": 1, "uid": "cd9a835a384baecabe48426d", "detail_info": {"tag": "\u516c\u53f8\u4f01\u4e1a;\u516c\u53f8", "navi_location": {"lng": 108.96817231637, "lat": 34.273852188528}, "type": "enterprise", "detail_url": "http://api.map.baidu.com/place/detail?uid=cd9a835a384baecabe48426d&output=html&source=placeapi_v2", "children": []}}, {"name": "\u6c49\u89de\u5c45", "location": {"lat": 34.179065, "lng": 108.991677}, "address": "\u822a\u5929\u5927\u9053\u531750\u7c73", "province": "\u9655\u897f\u7701", "city": "\u897f\u5b89\u5e02", "area": "\u957f\u5b89\u533a", "street_id": "ca3f76b8fd301c52d3ff2372", "detail": 1, "uid": "ca3f76b8fd301c52d3ff2372", "detail_info": {"tag": "\u6587\u5316\u4f20\u5a92;\u6587\u5316\u5bab", "type": "life", "detail_url": "http://api.map.baidu.com/place/detail?uid=ca3f76b8fd301c52d3ff2372&output=html&source=placeapi_v2", "overall_rating": "3.8", "image_num": "3", "comment_num": "0", "children": []}}, {"name": "\u9655\u897f\u7701\u5e7f\u64ad\u7535\u89c6\u7814\u7a76\u6240", "location": {"lat": 34.25219, "lng": 108.966267}, "address": "\u957f\u80dc\u8857\u4e2d\u6bb5\u5efa\u897f\u885710\u53f7", "province": "\u9655\u897f\u7701", "city": "\u897f\u5b89\u5e02", "area": "\u7891\u6797\u533a", "street_id": "7d40b79de253c7d4afee7a33", "detail": 1, "uid": "7d40b79de253c7d4afee7a33", "detail_info": {"tag": "\u6587\u5316\u4f20\u5a92;\u5e7f\u64ad\u7535\u89c6", "navi_location": {"lng": 108.96666720009, "lat": 34.252111946951}, "type": "enterprise", "detail_url": "http://api.map.baidu.com/place/detail?uid=7d40b79de253c7d4afee7a33&output=html&source=placeapi_v2", "comment_num": "1", "children": []}}, {"name": "\u9655\u897f\u4ea4\u901a\u5e7f\u64ad\u7535\u53f0", "location": {"lat": 34.216516, "lng": 108.952334}, "address": "\u957f\u5b89\u5357\u8def336\u53f7", "province": "\u9655\u897f\u7701", "city": "\u897f\u5b89\u5e02", "area": "\u96c1\u5854\u533a", "street_id": "f757e6eebe9e4117260bd054", "telephone": "(029)85231619", "detail": 1, "uid": "f757e6eebe9e4117260bd054", "detail_info": {"tag": "\u6587\u5316\u4f20\u5a92;\u5e7f\u64ad\u7535\u89c6", "navi_location": {"lng": 108.95299048254, "lat": 34.216514270471}, "type": "enterprise", "detail_url": "http://api.map.baidu.com/place/detail?uid=f757e6eebe9e4117260bd054&output=html&source=placeapi_v2", "comment_num": "2", "children": []}}, {"name": "\u897f\u5b89\u5e02\u4eba\u529b\u8d44\u6e90\u548c\u793e\u4f1a\u4fdd\u969c\u5927\u53a6-\u4f1a\u8bae\u4e2d\u5fc3", "location": {"lat": 34.248033, "lng": 109.015325}, "address": "\u5efa\u5de5\u8def28A\u4eba\u529b\u8d44\u6e90\u548c\u793e\u4f1a\u4fdd\u969c\u5927\u53a615\u697c", "province": "\u9655\u897f\u7701", "city": "\u897f\u5b89\u5e02", "area": "\u96c1\u5854\u533a", "street_id": "52ca2ba4f396232ea5da3951", "detail": 1, "uid": "52ca2ba4f396232ea5da3951", "detail_info": {"tag": "\u6587\u5316\u4f20\u5a92;\u5c55\u89c8\u9986", "navi_location": {"lng": 109.01534242224, "lat": 34.248406918299}, "type": "scope", "detail_url": "http://api.map.baidu.com/place/detail?uid=52ca2ba4f396232ea5da3951&output=html&source=placeapi_v2", "comment_num": "1", "children": []}}]
