九天健英台球,108.8913714158313,34.24095781756336,aa4afa8e3c752eebfbdc8538,"{'name': '九天健英台球', 'location': {'lat': 34.245012, 'lng': 108.902571}, 'address': '高新四路甲字8号嘉龙大厦', 'province': '陕西省', 'city': '西安市', 'area': '雁塔区', 'street_id': 'aa4afa8e3c752eebfbdc8538', 'detail': 1, 'uid': 'aa4afa8e3c752eebfbdc8538', 'detail_info': {'tag': '运动健身;体育场馆', 'type': 'life', 'detail_url': 'http://api.map.baidu.com/place/detail?uid=aa4afa8e3c752eebfbdc8538&output=html&source=placeapi_v2', 'image_num': '10', 'comment_num': '1', 'children': []}}"
"{'name': '九天健英台球', 'location': {'lat': 34.245012, 'lng': 108.902571}, 'address': '高新四路甲字8号嘉龙大厦', 'province': '陕西省', 'city': '西安市', 'area': '雁塔区', 'street_id': 'aa4afa8e3c752eebfbdc8538', 'detail': 1, 'uid': 'aa4afa8e3c752eebfbdc8538', 'detail_info': {'tag': '运动健身;体育场馆', 'type': 'life', 'detail_url': 'http://api.map.baidu.com/place/detail?uid=aa4afa8e3c752eebfbdc8538&output=html&source=placeapi_v2', 'image_num': '10', 'comment_num': '1', 'children': []}}"
尚上舞蹈工作室,108.9013733665334,34.23145050148152,196afcdb1eb716e9fa0cad10,"{'name': '尚上舞蹈工作室', 'location': {'lat': 34.235511, 'lng': 108.912577}, 'address': '高新路与科技路十字东南角合力紫郡A座19楼', 'province': '陕西省', 'city': '西安市', 'area': '雁塔区', 'street_id': '196afcdb1eb716e9fa0cad10', 'detail': 1, 'uid': '196afcdb1eb716e9fa0cad10', 'detail_info': {'tag': '运动健身;健身中心', 'type': 'life', 'detail_url': 'http://api.map.baidu.com/place/detail?uid=196afcdb1eb716e9fa0cad10&output=html&source=placeapi_v2', 'overall_rating': '5.0', 'image_num': '100', 'comment_num': '5', 'children': []}}"
"{'name': '尚上舞蹈工作室', 'location': {'lat': 34.235511, 'lng': 108.912577}, 'address': '高新路与科技路十字东南角合力紫郡A座19楼', 'province': '陕西省', 'city': '西安市', 'area': '雁塔区', 'street_id': '196afcdb1eb716e9fa0cad10', 'detail': 1, 'uid': '196afcdb1eb716e9fa0cad10', 'detail_info': {'tag': '运动健身;健身中心', 'type': 'life', 'detail_url': 'http://api.map.baidu.com/place/detail?uid=196afcdb1eb716e9fa0cad10&output=html&source=placeapi_v2', 'overall_rating': '5.0', 'image_num': '100', 'comment_num': '5', 'children': []}}"
西北风俱乐部,108.84187939902274,34.27456147951418,7e9c4596ee0546b259f6bead,"{'name': '西北风俱乐部', 'location': {'lat': 34.279303, 'lng': 108.852892}, 'address': '阿房二路西北风俱乐部', 'province': '陕西省', 'city': '西安市', 'area': '未央区', 'street_id': '7e9c4596ee0546b259f6bead', 'detail': 1, 'uid': '7e9c4596ee0546b259f6bead', 'detail_info': {'tag': '运动健身;体育场馆', 'navi_location': {'lng': 108.85284972617, 'lat': 34.279657205951}, 'type': 'life', 'detail_url': 'http://api.map.baidu.com/place/detail?uid=7e9c4596ee0546b259f6bead&output=html&source=placeapi_v2', 'overall_rating': '3.8', 'image_num': '8', 'comment_num': '0', 'children': []}}"
"{'name': '西北风俱乐部', 'location': {'lat': 34.279303, 'lng': 108.852892}, 'address': '阿房二路西北风俱乐部', 'province': '陕西省', 'city': '西安市', 'area': '未央区', 'street_id': '7e9c4596ee0546b259f6bead', 'detail': 1, 'uid': '7e9c4596ee0546b259f6bead', 'detail_info': {'tag': '运动健身;体育场馆', 'navi_location': {'lng': 108.85284972617, 'lat': 34.279657205951}, 'type': 'life', 'detail_url': 'http://api.map.baidu.com/place/detail?uid=7e9c4596ee0546b259f6bead&output=html&source=placeapi_v2', 'overall_rating': '3.8', 'image_num': '8', 'comment_num': '0', 'children': []}}"
Hi Lady女王健身,108.87692315626627,34.24889289150125,864b955377d09ccfeee4a599,"{'name': 'Hi Lady女王健身', 'location': {'lat': 34.25309, 'lng': 108.888077}, 'address': '安琪儿妇产医院北侧九行道3层', 'province': '陕西省', 'city': '西安市', 'area': '雁塔区', 'street_id': '864b955377d09ccfeee4a599', 'detail': 1, 'uid': '864b955377d09ccfeee4a599', 'detail_info': {'tag': '运动健身;健身中心', 'type': 'life', 'detail_url': 'http://api.map.baidu.com/place/detail?uid=864b955377d09ccfeee4a599&output=html&source=placeapi_v2', 'image_num': '1', 'children': []}}"
"{'name': 'Hi Lady女王健身', 'location': {'lat': 34.25309, 'lng': 108.888077}, 'address': '安琪儿妇产医院北侧九行道3层', 'province': '陕西省', 'city': '西安市', 'area': '雁塔区', 'street_id': '864b955377d09ccfeee4a599', 'detail': 1, 'uid': '864b955377d09ccfeee4a599', 'detail_info': {'tag': '运动健身;健身中心', 'type': 'life', 'detail_url': 'http://api.map.baidu.com/place/detail?uid=864b955377d09ccfeee4a599&output=html&source=placeapi_v2', 'image_num': '1', 'children': []}}"
英博跆拳道馆,108.8885835672934,34.245837831172544,2ea0aa6a9df4d786a4c756e0,"{'name': '英博跆拳道馆', 'location': {'lat': 34.249907, 'lng': 108.899776}, 'address': '陕西省西安市雁塔区群贤路36号', 'province': '陕西省', 'city': '西安市', 'area': '雁塔区', 'street_id': '2ea0aa6a9df4d786a4c756e0', 'telephone': '(029)89634969', 'detail': 1, 'uid': '2ea0aa6a9df4d786a4c756e0', 'detail_info': {'tag': '运动健身;体育场馆', 'type': 'life', 'detail_url': 'http://api.map.baidu.com/place/detail?uid=2ea0aa6a9df4d786a4c756e0&output=html&source=placeapi_v2', 'image_num': '1', 'children': []}}"
"{'name': '英博跆拳道馆', 'location': {'lat': 34.249907, 'lng': 108.899776}, 'address': '陕西省西安市雁塔区群贤路36号', 'province': '陕西省', 'city': '西安市', 'area': '雁塔区', 'street_id': '2ea0aa6a9df4d786a4c756e0', 'telephone': '(029)89634969', 'detail': 1, 'uid': '2ea0aa6a9df4d786a4c756e0', 'detail_info': {'tag': '运动健身;体育场馆', 'type': 'life', 'detail_url': 'http://api.map.baidu.com/place/detail?uid=2ea0aa6a9df4d786a4c756e0&output=html&source=placeapi_v2', 'image_num': '1', 'children': []}}"
艾菲特健身(高新店),108.89398184263727,34.228215604210384,671eadc4a857b918e81e97e3,"{'name': '艾菲特健身(高新店)', 'location': {'lat': 34.232259, 'lng': 108.905185}, 'address': '高新区枫叶苑南区14号楼(近华润万家)', 'province': '陕西省', 'city': '西安市', 'area': '雁塔区', 'street_id': '671eadc4a857b918e81e97e3', 'telephone': '(029)88352772', 'detail': 1, 'uid': '671eadc4a857b918e81e97e3', 'detail_info': {'tag': '运动健身;健身中心', 'type': 'life', 'detail_url': 'http://api.map.baidu.com/place/detail?uid=671eadc4a857b918e81e97e3&output=html&source=placeapi_v2', 'overall_rating': '4.3', 'image_num': '9', 'comment_num': '5', 'children': []}}"
"{'name': '艾菲特健身(高新店)', 'location': {'lat': 34.232259, 'lng': 108.905185}, 'address': '高新区枫叶苑南区14号楼(近华润万家)', 'province': '陕西省', 'city': '西安市', 'area': '雁塔区', 'street_id': '671eadc4a857b918e81e97e3', 'telephone': '(029)88352772', 'detail': 1, 'uid': '671eadc4a857b918e81e97e3', 'detail_info': {'tag': '运动健身;健身中心', 'type': 'life', 'detail_url': 'http://api.map.baidu.com/place/detail?uid=671eadc4a857b918e81e97e3&output=html&source=placeapi_v2', 'overall_rating': '4.3', 'image_num': '9', 'comment_num': '5', 'children': []}}"
紫薇高尔夫球俱乐部,108.8569302901217,34.17068431957273,d5464cf823a70f4efda778d2,"{'name': '紫薇高尔夫球俱乐部', 'location': {'lat': 34.175195, 'lng': 108.86796}, 'address': '陕西省西安市长安区创业大道10号', 'province': '陕西省', 'city': '西安市', 'area': '长安区', 'street_id': 'd5464cf823a70f4efda778d2', 'detail': 1, 'uid': 'd5464cf823a70f4efda778d2', 'detail_info': {'tag': '运动健身;体育场馆', 'navi_location': {'lng': 108.86795688296, 'lat': 34.175573308723}, 'type': 'life', 'detail_url': 'http://api.map.baidu.com/place/detail?uid=d5464cf823a70f4efda778d2&output=html&source=placeapi_v2', 'overall_rating': '1.0', 'image_num': '1', 'comment_num': '2', 'children': []}}"
"{'name': '紫薇高尔夫球俱乐部', 'location': {'lat': 34.175195, 'lng': 108.86796}, 'address': '陕西省西安市长安区创业大道10号', 'province': '陕西省', 'city': '西安市', 'area': '长安区', 'street_id': 'd5464cf823a70f4efda778d2', 'detail': 1, 'uid': 'd5464cf823a70f4efda778d2', 'detail_info': {'tag': '运动健身;体育场馆', 'navi_location': {'lng': 108.86795688296, 'lat': 34.175573308723}, 'type': 'life', 'detail_url': 'http://api.map.baidu.com/place/detail?uid=d5464cf823a70f4efda778d2&output=html&source=placeapi_v2', 'overall_rating': '1.0', 'image_num': '1', 'comment_num': '2', 'children': []}}"
威仕顿健身俱乐部,108.86420401463894,34.1725036639902,9a6a9e7f2e5ad391b34c49e4,"{'name': '威仕顿健身俱乐部', 'location': {'lat': 34.176885, 'lng': 108.875264}, 'address': '陕西省西安市长安区西部大道博士路阳光天地3F(靠近林隐天下)', 'province': '陕西省', 'city': '西安市', 'area': '长安区', 'street_id': '9a6a9e7f2e5ad391b34c49e4', 'detail': 1, 'uid': '9a6a9e7f2e5ad391b34c49e4', 'detail_info': {'tag': '运动健身;健身中心', 'type': 'life', 'detail_url': 'http://api.map.baidu.com/place/detail?uid=9a6a9e7f2e5ad391b34c49e4&output=html&source=placeapi_v2', 'image_num': '1', 'children': []}}"
"{'name': '威仕顿健身俱乐部', 'location': {'lat': 34.176885, 'lng': 108.875264}, 'address': '陕西省西安市长安区西部大道博士路阳光天地3F(靠近林隐天下)', 'province': '陕西省', 'city': '西安市', 'area': '长安区', 'street_id': '9a6a9e7f2e5ad391b34c49e4', 'detail': 1, 'uid': '9a6a9e7f2e5ad391b34c49e4', 'detail_info': {'tag': '运动健身;健身中心', 'type': 'life', 'detail_url': 'http://api.map.baidu.com/place/detail?uid=9a6a9e7f2e5ad391b34c49e4&output=html&source=placeapi_v2', 'image_num': '1', 'children': []}}"
超越健身银泰城店,108.93615116771329,34.22486265126272,7fd72311ec5038865dbe86b5,"{'name': '超越健身银泰城店', 'location': {'lat': 34.229439, 'lng': 108.947263}, 'address': '雁塔区小寨西路26号', 'province': '陕西省', 'city': '西安市', 'area': '雁塔区', 'street_id': '7fd72311ec5038865dbe86b5', 'telephone': '(029)88168185', 'detail': 1, 'uid': '7fd72311ec5038865dbe86b5', 'detail_info': {'tag': '运动健身;健身中心', 'navi_location': {'lng': 108.94690440881, 'lat': 34.229076507289}, 'type': 'life', 'detail_url': 'http://api.map.baidu.com/place/detail?uid=7fd72311ec5038865dbe86b5&output=html&source=placeapi_v2', 'price': '1272', 'overall_rating': '4.3', 'image_num': '65', 'comment_num': '10', 'children': []}}"
"{'name': '超越健身银泰城店', 'location': {'lat': 34.229439, 'lng': 108.947263}, 'address': '雁塔区小寨西路26号', 'province': '陕西省', 'city': '西安市', 'area': '雁塔区', 'street_id': '7fd72311ec5038865dbe86b5', 'telephone': '(029)88168185', 'detail': 1, 'uid': '7fd72311ec5038865dbe86b5', 'detail_info': {'tag': '运动健身;健身中心', 'navi_location': {'lng': 108.94690440881, 'lat': 34.229076507289}, 'type': 'life', 'detail_url': 'http://api.map.baidu.com/place/detail?uid=7fd72311ec5038865dbe86b5&output=html&source=placeapi_v2', 'price': '1272', 'overall_rating': '4.3', 'image_num': '65', 'comment_num': '10', 'children': []}}"
西安电子科技大学-体育馆,108.91149147197298,34.23386747080463,ada3ddafc75d4ba26f4760e3,"{'name': '西安电子科技大学-体育馆', 'location': {'lat': 34.238027, 'lng': 108.922677}, 'address': '信息大道附近', 'province': '陕西省', 'city': '西安市', 'area': '雁塔区', 'street_id': 'ada3ddafc75d4ba26f4760e3', 'detail': 1, 'uid': 'ada3ddafc75d4ba26f4760e3', 'detail_info': {'tag': '运动健身;体育场馆', 'type': 'life', 'detail_url': 'http://api.map.baidu.com/place/detail?uid=ada3ddafc75d4ba26f4760e3&output=html&source=placeapi_v2', 'overall_rating': '3.0', 'image_num': '6', 'children': []}}"
"{'name': '西安电子科技大学-体育馆', 'location': {'lat': 34.238027, 'lng': 108.922677}, 'address': '信息大道附近', 'province': '陕西省', 'city': '西安市', 'area': '雁塔区', 'street_id': 'ada3ddafc75d4ba26f4760e3', 'detail': 1, 'uid': 'ada3ddafc75d4ba26f4760e3', 'detail_info': {'tag': '运动健身;体育场馆', 'type': 'life', 'detail_url': 'http://api.map.baidu.com/place/detail?uid=ada3ddafc75d4ba26f4760e3&output=html&source=placeapi_v2', 'overall_rating': '3.0', 'image_num': '6', 'children': []}}"
婧然瑜伽会所,108.90314061687747,34.20476201163401,52b215ade860cd07ddee8b8e,"{'name': '婧然瑜伽会所', 'location': {'lat': 34.208819, 'lng': 108.914324}, 'address': '陕西省西安市雁塔区电子五路融侨馨苑星光大道北门59105房(尚书房北侧)', 'province': '陕西省', 'city': '西安市', 'area': '雁塔区', 'telephone': '(029)81889886,18629489387', 'detail': 1, 'uid': '52b215ade860cd07ddee8b8e', 'detail_info': {'tag': '运动健身;健身中心', 'type': 'life', 'detail_url': 'http://api.map.baidu.com/place/detail?uid=52b215ade860cd07ddee8b8e&output=html&source=placeapi_v2', 'overall_rating': '4.5', 'image_num': '52', 'comment_num': '36', 'children': []}}"
"{'name': '婧然瑜伽会所', 'location': {'lat': 34.208819, 'lng': 108.914324}, 'address': '陕西省西安市雁塔区电子五路融侨馨苑星光大道北门59105房(尚书房北侧)', 'province': '陕西省', 'city': '西安市', 'area': '雁塔区', 'telephone': '(029)81889886,18629489387', 'detail': 1, 'uid': '52b215ade860cd07ddee8b8e', 'detail_info': {'tag': '运动健身;健身中心', 'type': 'life', 'detail_url': 'http://api.map.baidu.com/place/detail?uid=52b215ade860cd07ddee8b8e&output=html&source=placeapi_v2', 'overall_rating': '4.5', 'image_num': '52', 'comment_num': '36', 'children': []}}"
来力台球会所,108.90608970680645,34.2241849100383,4f52460945eefe8f157643d7,"{'name': '来力台球会所', 'location': {'lat': 34.228278, 'lng': 108.917285}, 'address': '沙井村334号', 'province': '陕西省', 'city': '西安市', 'area': '雁塔区', 'street_id': '4f52460945eefe8f157643d7', 'detail': 1, 'uid': '4f52460945eefe8f157643d7', 'detail_info': {'tag': '运动健身;体育场馆', 'type': 'life', 'detail_url': 'http://api.map.baidu.com/place/detail?uid=4f52460945eefe8f157643d7&output=html&source=placeapi_v2', 'price': '26.5', 'overall_rating': '3.2', 'image_num': '7', 'comment_num': '1', 'children': []}}"
"{'name': '来力台球会所', 'location': {'lat': 34.228278, 'lng': 108.917285}, 'address': '沙井村334号', 'province': '陕西省', 'city': '西安市', 'area': '雁塔区', 'street_id': '4f52460945eefe8f157643d7', 'detail': 1, 'uid': '4f52460945eefe8f157643d7', 'detail_info': {'tag': '运动健身;体育场馆', 'type': 'life', 'detail_url': 'http://api.map.baidu.com/place/detail?uid=4f52460945eefe8f157643d7&output=html&source=placeapi_v2', 'price': '26.5', 'overall_rating': '3.2', 'image_num': '7', 'comment_num': '1', 'children': []}}"
西安文理学院-体育馆,108.90268235325907,34.21701846378152,75d0881ad8adff4d3a04b15a,"{'name': '西安文理学院-体育馆', 'location': {'lat': 34.22108, 'lng': 108.913878}, 'address': '太白南路168号西安文理学院', 'province': '陕西省', 'city': '西安市', 'area': '雁塔区', 'street_id': '75d0881ad8adff4d3a04b15a', 'detail': 1, 'uid': '75d0881ad8adff4d3a04b15a', 'detail_info': {'tag': '运动健身;体育场馆', 'navi_location': {'lng': 108.9133921426, 'lat': 34.221285066763}, 'type': 'life', 'detail_url': 'http://api.map.baidu.com/place/detail?uid=75d0881ad8adff4d3a04b15a&output=html&source=placeapi_v2', 'overall_rating': '5.0', 'image_num': '2', 'comment_num': '4', 'children': []}}"
"{'name': '西安文理学院-体育馆', 'location': {'lat': 34.22108, 'lng': 108.913878}, 'address': '太白南路168号西安文理学院', 'province': '陕西省', 'city': '西安市', 'area': '雁塔区', 'street_id': '75d0881ad8adff4d3a04b15a', 'detail': 1, 'uid': '75d0881ad8adff4d3a04b15a', 'detail_info': {'tag': '运动健身;体育场馆', 'navi_location': {'lng': 108.9133921426, 'lat': 34.221285066763}, 'type': 'life', 'detail_url': 'http://api.map.baidu.com/place/detail?uid=75d0881ad8adff4d3a04b15a&output=html&source=placeapi_v2', 'overall_rating': '5.0', 'image_num': '2', 'comment_num': '4', 'children': []}}"
漫行瑜伽,108.87373805239956,34.19652953084732,899f9655defe08a1da2f281d,"{'name': '漫行瑜伽', 'location': {'lat': 34.200753, 'lng': 108.884857}, 'address': '锦业路绿地中央广场5幢1单元1层10111号', 'province': '陕西省', 'city': '西安市', 'area': '雁塔区', 'street_id': '899f9655defe08a1da2f281d', 'telephone': '13165722328', 'detail': 1, 'uid': '899f9655defe08a1da2f281d', 'detail_info': {'tag': '运动健身;健身中心', 'type': 'life', 'detail_url': 'http://api.map.baidu.com/place/detail?uid=899f9655defe08a1da2f281d&output=html&source=placeapi_v2', 'image_num': '3', 'children': []}}"
"{'name': '漫行瑜伽', 'location': {'lat': 34.200753, 'lng': 108.884857}, 'address': '锦业路绿地中央广场5幢1单元1层10111号', 'province': '陕西省', 'city': '西安市', 'area': '雁塔区', 'street_id': '899f9655defe08a1da2f281d', 'telephone': '13165722328', 'detail': 1, 'uid': '899f9655defe08a1da2f281d', 'detail_info': {'tag': '运动健身;健身中心', 'type': 'life', 'detail_url': 'http://api.map.baidu.com/place/detail?uid=899f9655defe08a1da2f281d&output=html&source=placeapi_v2', 'image_num': '3', 'children': []}}"
西安电子科技大学-足球场,108.91331946512862,34.23335007252469,006f2782a3f2508c42d63ee3,"{'name': '西安电子科技大学-足球场', 'location': {'lat': 34.237535, 'lng': 108.9245}, 'address': '二环南路西段136号', 'province': '陕西省', 'city': '西安市', 'area': '雁塔区', 'street_id': '006f2782a3f2508c42d63ee3', 'detail': 1, 'uid': '006f2782a3f2508c42d63ee3', 'detail_info': {'tag': '运动健身;体育场馆', 'type': 'life', 'detail_url': 'http://api.map.baidu.com/place/detail?uid=006f2782a3f2508c42d63ee3&output=html&source=placeapi_v2', 'image_num': '1', 'children': []}}"
"{'name': '西安电子科技大学-足球场', 'location': {'lat': 34.237535, 'lng': 108.9245}, 'address': '二环南路西段136号', 'province': '陕西省', 'city': '西安市', 'area': '雁塔区', 'street_id': '006f2782a3f2508c42d63ee3', 'detail': 1, 'uid': '006f2782a3f2508c42d63ee3', 'detail_info': {'tag': '运动健身;体育场馆', 'type': 'life', 'detail_url': 'http://api.map.baidu.com/place/detail?uid=006f2782a3f2508c42d63ee3&output=html&source=placeapi_v2', 'image_num': '1', 'children': []}}"
西安雁塔区青姿禅苑健身中心,108.93669628798554,34.2272468239059,63dfcea70288c5dc9b68b48a,"{'name': '西安雁塔区青姿禅苑健身中心', 'location': {'lat': 34.231833, 'lng': 108.947808}, 'address': '西安雁塔区兴善寺西街新加坡小区办公楼五层', 'province': '陕西省', 'city': '西安市', 'area': '雁塔区', 'street_id': '63dfcea70288c5dc9b68b48a', 'detail': 1, 'uid': '63dfcea70288c5dc9b68b48a', 'detail_info': {'tag': '运动健身;健身中心', 'type': 'life', 'detail_url': 'http://api.map.baidu.com/place/detail?uid=63dfcea70288c5dc9b68b48a&output=html&source=placeapi_v2', 'image_num': '4', 'children': []}}"
"{'name': '西安雁塔区青姿禅苑健身中心', 'location': {'lat': 34.231833, 'lng': 108.947808}, 'address': '西安雁塔区兴善寺西街新加坡小区办公楼五层', 'province': '陕西省', 'city': '西安市', 'area': '雁塔区', 'street_id': '63dfcea70288c5dc9b68b48a', 'detail': 1, 'uid': '63dfcea70288c5dc9b68b48a', 'detail_info': {'tag': '运动健身;健身中心', 'type': 'life', 'detail_url': 'http://api.map.baidu.com/place/detail?uid=63dfcea70288c5dc9b68b48a&output=html&source=placeapi_v2', 'image_num': '4', 'children': []}}"
海蓝游泳俱乐部(兰乔圣菲店),108.90117317733805,34.210055801966384,720008bddcba31694d2fdff8,"{'name': '海蓝游泳俱乐部(兰乔圣菲店)', 'location': {'lat': 34.214104, 'lng': 108.912364}, 'address': '电子三路36号兰乔圣菲小区北京银行东侧', 'province': '陕西省', 'city': '西安市', 'area': '雁塔区', 'street_id': '720008bddcba31694d2fdff8', 'detail': 1, 'uid': '720008bddcba31694d2fdff8', 'detail_info': {'tag': '运动健身;体育场馆', 'type': 'life', 'detail_url': 'http://api.map.baidu.com/place/detail?uid=720008bddcba31694d2fdff8&output=html&source=placeapi_v2', 'overall_rating': '4.0', 'image_num': '13', 'children': []}}"
"{'name': '海蓝游泳俱乐部(兰乔圣菲店)', 'location': {'lat': 34.214104, 'lng': 108.912364}, 'address': '电子三路36号兰乔圣菲小区北京银行东侧', 'province': '陕西省', 'city': '西安市', 'area': '雁塔区', 'street_id': '720008bddcba31694d2fdff8', 'detail': 1, 'uid': '720008bddcba31694d2fdff8', 'detail_info': {'tag': '运动健身;体育场馆', 'type': 'life', 'detail_url': 'http://api.map.baidu.com/place/detail?uid=720008bddcba31694d2fdff8&output=html&source=placeapi_v2', 'overall_rating': '4.0', 'image_num': '13', 'children': []}}"
千水莲瑜伽(西大街会所),108.9347986072406,34.26046998545267,da0ed00231a7da098f1a8910,"{'name': '千水莲瑜伽(西大街会所)', 'location': {'lat': 34.265032, 'lng': 108.945899}, 'address': '陕西省西安市碑林区南广济街金泰丰大厦6层', 'province': '陕西省', 'city': '西安市', 'area': '碑林区', 'street_id': 'da0ed00231a7da098f1a8910', 'telephone': '(029)87625345', 'detail': 1, 'uid': 'da0ed00231a7da098f1a8910', 'detail_info': {'tag': '运动健身;健身中心', 'type': 'life', 'detail_url': 'http://api.map.baidu.com/place/detail?uid=da0ed00231a7da098f1a8910&output=html&source=placeapi_v2', 'price': '736', 'overall_rating': '4.6', 'image_num': '100', 'comment_num': '12', 'children': []}}"
"{'name': '千水莲瑜伽(西大街会所)', 'location': {'lat': 34.265032, 'lng': 108.945899}, 'address': '陕西省西安市碑林区南广济街金泰丰大厦6层', 'province': '陕西省', 'city': '西安市', 'area': '碑林区', 'street_id': 'da0ed00231a7da098f1a8910', 'telephone': '(029)87625345', 'detail': 1, 'uid': 'da0ed00231a7da098f1a8910', 'detail_info': {'tag': '运动健身;健身中心', 'type': 'life', 'detail_url': 'http://api.map.baidu.com/place/detail?uid=da0ed00231a7da098f1a8910&output=html&source=placeapi_v2', 'price': '736', 'overall_rating': '4.6', 'image_num': '100', 'comment_num': '12', 'children': []}}"
莱福士健身会所,108.88136413398543,34.24690151792158,1a597947bca659709c9d6889,"{'name': '莱福士健身会所', 'location': {'lat': 34.251038, 'lng': 108.892536}, 'address': '大寨路1号', 'province': '陕西省', 'city': '西安市', 'area': '雁塔区', 'street_id': '1a597947bca659709c9d6889', 'telephone': '(029)87553827,(029)87553837', 'detail': 1, 'uid': '1a597947bca659709c9d6889', 'detail_info': {'tag': '运动健身;健身中心', 'type': 'life', 'detail_url': 'http://api.map.baidu.com/place/detail?uid=1a597947bca659709c9d6889&output=html&source=placeapi_v2', 'image_num': '14', 'comment_num': '1', 'children': []}}"
"{'name': '莱福士健身会所', 'location': {'lat': 34.251038, 'lng': 108.892536}, 'address': '大寨路1号', 'province': '陕西省', 'city': '西安市', 'area': '雁塔区', 'street_id': '1a597947bca659709c9d6889', 'telephone': '(029)87553827,(029)87553837', 'detail': 1, 'uid': '1a597947bca659709c9d6889', 'detail_info': {'tag': '运动健身;健身中心', 'type': 'life', 'detail_url': 'http://api.map.baidu.com/place/detail?uid=1a597947bca659709c9d6889&output=html&source=placeapi_v2', 'image_num': '14', 'comment_num': '1', 'children': []}}"
西安A+体育舞蹈俱乐部,108.92474400191905,34.24773788536251,4860d794745aeab3b726555a,"{'name': '西安A+体育舞蹈俱乐部', 'location': {'lat': 34.252119, 'lng': 108.935883}, 'address': '唐延路6号交通大厦', 'province': '陕西省', 'city': '西安市', 'area': '碑林区', 'street_id': '4860d794745aeab3b726555a', 'detail': 1, 'uid': '4860d794745aeab3b726555a', 'detail_info': {'tag': '运动健身;健身中心', 'navi_location': {'lng': 108.9358854314, 'lat': 34.252006271258}, 'type': 'life', 'detail_url': 'http://api.map.baidu.com/place/detail?uid=4860d794745aeab3b726555a&output=html&source=placeapi_v2', 'overall_rating': '0.0', 'image_num': '2', 'comment_num': '1', 'children': []}}"
"{'name': '西安A+体育舞蹈俱乐部', 'location': {'lat': 34.252119, 'lng': 108.935883}, 'address': '唐延路6号交通大厦', 'province': '陕西省', 'city': '西安市', 'area': '碑林区', 'street_id': '4860d794745aeab3b726555a', 'detail': 1, 'uid': '4860d794745aeab3b726555a', 'detail_info': {'tag': '运动健身;健身中心', 'navi_location': {'lng': 108.9358854314, 'lat': 34.252006271258}, 'type': 'life', 'detail_url': 'http://api.map.baidu.com/place/detail?uid=4860d794745aeab3b726555a&output=html&source=placeapi_v2', 'overall_rating': '0.0', 'image_num': '2', 'comment_num': '1', 'children': []}}"
同力羽毛球馆,108.87712195594804,34.204833436436836,8eb48fa1384450bff32d8371,"{'name': '同力羽毛球馆', 'location': {'lat': 34.209009, 'lng': 108.888264}, 'address': '陕西省西安市雁塔区唐延路省体育训练中心内', 'province': '陕西省', 'city': '西安市', 'area': '雁塔区', 'street_id': '8eb48fa1384450bff32d8371', 'detail': 1, 'uid': '8eb48fa1384450bff32d8371', 'detail_info': {'tag': '运动健身;体育场馆', 'navi_location': {'lng': 108.88797107582, 'lat': 34.20862938871}, 'type': 'life', 'detail_url': 'http://api.map.baidu.com/place/detail?uid=8eb48fa1384450bff32d8371&output=html&source=placeapi_v2', 'overall_rating': '2.9', 'image_num': '2', 'comment_num': '1', 'children': []}}"
"{'name': '同力羽毛球馆', 'location': {'lat': 34.209009, 'lng': 108.888264}, 'address': '陕西省西安市雁塔区唐延路省体育训练中心内', 'province': '陕西省', 'city': '西安市', 'area': '雁塔区', 'street_id': '8eb48fa1384450bff32d8371', 'detail': 1, 'uid': '8eb48fa1384450bff32d8371', 'detail_info': {'tag': '运动健身;体育场馆', 'navi_location': {'lng': 108.88797107582, 'lat': 34.20862938871}, 'type': 'life', 'detail_url': 'http://api.map.baidu.com/place/detail?uid=8eb48fa1384450bff32d8371&output=html&source=placeapi_v2', 'overall_rating': '2.9', 'image_num': '2', 'comment_num': '1', 'children': []}}"
瑞丽健身,108.87391506337423,34.19578390519882,1d893f698a6ccc869c09f795,"{'name': '瑞丽健身', 'location': {'lat': 34.200004, 'lng': 108.885034}, 'address': '丈八沟街道锦业路与丈八二路十字向北300米海珀香庭大厅二楼', 'province': '陕西省', 'city': '西安市', 'area': '雁塔区', 'street_id': '1d893f698a6ccc869c09f795', 'detail': 1, 'uid': '1d893f698a6ccc869c09f795', 'detail_info': {'tag': '运动健身;健身中心', 'type': 'life', 'detail_url': 'http://api.map.baidu.com/place/detail?uid=1d893f698a6ccc869c09f795&output=html&source=placeapi_v2', 'image_num': '1', 'children': []}}"
"{'name': '瑞丽健身', 'location': {'lat': 34.200004, 'lng': 108.885034}, 'address': '丈八沟街道锦业路与丈八二路十字向北300米海珀香庭大厅二楼', 'province': '陕西省', 'city': '西安市', 'area': '雁塔区', 'street_id': '1d893f698a6ccc869c09f795', 'detail': 1, 'uid': '1d893f698a6ccc869c09f795', 'detail_info': {'tag': '运动健身;健身中心', 'type': 'life', 'detail_url': 'http://api.map.baidu.com/place/detail?uid=1d893f698a6ccc869c09f795&output=html&source=placeapi_v2', 'image_num': '1', 'children': []}}"
西北工业大学-体育馆,108.91314919919272,34.2465153289372,189713b7721f2472a10464dd,"{'name': '西北工业大学-体育馆', 'location': {'lat': 34.250701, 'lng': 108.924326}, 'address': '柳荫路', 'province': '陕西省', 'city': '西安市', 'area': '碑林区', 'street_id': '189713b7721f2472a10464dd', 'detail': 1, 'uid': '189713b7721f2472a10464dd', 'detail_info': {'tag': '运动健身;体育场馆', 'type': 'life', 'detail_url': 'http://api.map.baidu.com/place/detail?uid=189713b7721f2472a10464dd&output=html&source=placeapi_v2', 'overall_rating': '2.0', 'image_num': '10', 'comment_num': '0', 'children': []}}"
"{'name': '西北工业大学-体育馆', 'location': {'lat': 34.250701, 'lng': 108.924326}, 'address': '柳荫路', 'province': '陕西省', 'city': '西安市', 'area': '碑林区', 'street_id': '189713b7721f2472a10464dd', 'detail': 1, 'uid': '189713b7721f2472a10464dd', 'detail_info': {'tag': '运动健身;体育场馆', 'type': 'life', 'detail_url': 'http://api.map.baidu.com/place/detail?uid=189713b7721f2472a10464dd&output=html&source=placeapi_v2', 'overall_rating': '2.0', 'image_num': '10', 'comment_num': '0', 'children': []}}"
滚石轮滑俱乐部(鱼化寨店),108.86035468048995,34.23516507189999,981b442cabe8649941afe6b7,"{'name': '滚石轮滑俱乐部(鱼化寨店)', 'location': {'lat': 34.239649, 'lng': 108.871441}, 'address': '鱼斗路66号子非鱼KTV三楼', 'province': '陕西省', 'city': '西安市', 'area': '雁塔区', 'street_id': '981b442cabe8649941afe6b7', 'detail': 1, 'uid': '981b442cabe8649941afe6b7', 'detail_info': {'tag': '运动健身;体育场馆', 'type': 'life', 'detail_url': 'http://api.map.baidu.com/place/detail?uid=981b442cabe8649941afe6b7&output=html&source=placeapi_v2', 'image_num': '11', 'children': []}}"
"{'name': '滚石轮滑俱乐部(鱼化寨店)', 'location': {'lat': 34.239649, 'lng': 108.871441}, 'address': '鱼斗路66号子非鱼KTV三楼', 'province': '陕西省', 'city': '西安市', 'area': '雁塔区', 'street_id': '981b442cabe8649941afe6b7', 'detail': 1, 'uid': '981b442cabe8649941afe6b7', 'detail_info': {'tag': '运动健身;体育场馆', 'type': 'life', 'detail_url': 'http://api.map.baidu.com/place/detail?uid=981b442cabe8649941afe6b7&output=html&source=placeapi_v2', 'image_num': '11', 'children': []}}"
金鹰桌球俱乐部,108.81629437430553,34.26385560857851,b2625b5dba7b6a705810930f,"{'name': '金鹰桌球俱乐部', 'location': {'lat': 34.268511, 'lng': 108.8274}, 'address': '陕西省西安市未央区天台一路北150米', 'province': '陕西省', 'city': '西安市', 'area': '未央区', 'street_id': 'b2625b5dba7b6a705810930f', 'detail': 1, 'uid': 'b2625b5dba7b6a705810930f', 'detail_info': {'tag': '运动健身;体育场馆', 'type': 'life', 'detail_url': 'http://api.map.baidu.com/place/detail?uid=b2625b5dba7b6a705810930f&output=html&source=placeapi_v2', 'image_num': '1', 'children': []}}"
"{'name': '金鹰桌球俱乐部', 'location': {'lat': 34.268511, 'lng': 108.8274}, 'address': '陕西省西安市未央区天台一路北150米', 'province': '陕西省', 'city': '西安市', 'area': '未央区', 'street_id': 'b2625b5dba7b6a705810930f', 'detail': 1, 'uid': 'b2625b5dba7b6a705810930f', 'detail_info': {'tag': '运动健身;体育场馆', 'type': 'life', 'detail_url': 'http://api.map.baidu.com/place/detail?uid=b2625b5dba7b6a705810930f&output=html&source=placeapi_v2', 'image_num': '1', 'children': []}}"
昭辉桌球休闲会所,108.85375514160478,34.2707240577001,12d1fd111cd229b66168587b,"{'name': '昭辉桌球休闲会所', 'location': {'lat': 34.275325, 'lng': 108.864792}, 'address': '大庆路983号2层', 'province': '陕西省', 'city': '西安市', 'area': '莲湖区', 'street_id': '34c41143055fd5294d2fdf3e', 'telephone': '18700795095', 'detail': 1, 'uid': '12d1fd111cd229b66168587b', 'detail_info': {'tag': '休闲娱乐;游戏场所', 'type': 'life', 'detail_url': 'http://api.map.baidu.com/place/detail?uid=12d1fd111cd229b66168587b&output=html&source=placeapi_v2', 'overall_rating': '4.4', 'image_num': '34', 'comment_num': '21', 'children': []}}"
"{'name': '昭辉桌球休闲会所', 'location': {'lat': 34.275325, 'lng': 108.864792}, 'address': '大庆路983号2层', 'province': '陕西省', 'city': '西安市', 'area': '莲湖区', 'street_id': '34c41143055fd5294d2fdf3e', 'telephone': '18700795095', 'detail': 1, 'uid': '12d1fd111cd229b66168587b', 'detail_info': {'tag': '休闲娱乐;游戏场所', 'type': 'life', 'detail_url': 'http://api.map.baidu.com/place/detail?uid=12d1fd111cd229b66168587b&output=html&source=placeapi_v2', 'overall_rating': '4.4', 'image_num': '34', 'comment_num': '21', 'children': []}}"
华城游泳健身馆,108.91821671349203,34.22391882295658,53349ee373fa3b77230262b5,"{'name': '华城游泳健身馆', 'location': {'lat': 34.228177, 'lng': 108.92938}, 'address': '吉祥路168号豪盛时代内', 'province': '陕西省', 'city': '西安市', 'area': '雁塔区', 'street_id': '53349ee373fa3b77230262b5', 'detail': 1, 'uid': '53349ee373fa3b77230262b5', 'detail_info': {'tag': '运动健身;健身中心', 'type': 'life', 'detail_url': 'http://api.map.baidu.com/place/detail?uid=53349ee373fa3b77230262b5&output=html&source=placeapi_v2', 'price': '36', 'overall_rating': '4.1', 'image_num': '60', 'comment_num': '100', 'children': []}}"
"{'name': '华城游泳健身馆', 'location': {'lat': 34.228177, 'lng': 108.92938}, 'address': '吉祥路168号豪盛时代内', 'province': '陕西省', 'city': '西安市', 'area': '雁塔区', 'street_id': '53349ee373fa3b77230262b5', 'detail': 1, 'uid': '53349ee373fa3b77230262b5', 'detail_info': {'tag': '运动健身;健身中心', 'type': 'life', 'detail_url': 'http://api.map.baidu.com/place/detail?uid=53349ee373fa3b77230262b5&output=html&source=placeapi_v2', 'price': '36', 'overall_rating': '4.1', 'image_num': '60', 'comment_num': '100', 'children': []}}"
天朗森柏大酒店-室内游泳池,108.86722170393551,34.23772683932329,569b76124ce947c033169b2b,"{'name': '天朗森柏大酒店-室内游泳池', 'location': {'lat': 34.242086, 'lng': 108.878338}, 'address': '丈八北路380号天朗森柏大酒店内', 'province': '陕西省', 'city': '西安市', 'area': '雁塔区', 'street_id': '569b76124ce947c033169b2b', 'telephone': '(029)84118888', 'detail': 1, 'uid': '569b76124ce947c033169b2b', 'detail_info': {'tag': '运动健身;体育场馆', 'type': 'life', 'detail_url': 'http://api.map.baidu.com/place/detail?uid=569b76124ce947c033169b2b&output=html&source=placeapi_v2', 'overall_rating': '0.0', 'image_num': '1', 'children': []}}"
"{'name': '天朗森柏大酒店-室内游泳池', 'location': {'lat': 34.242086, 'lng': 108.878338}, 'address': '丈八北路380号天朗森柏大酒店内', 'province': '陕西省', 'city': '西安市', 'area': '雁塔区', 'street_id': '569b76124ce947c033169b2b', 'telephone': '(029)84118888', 'detail': 1, 'uid': '569b76124ce947c033169b2b', 'detail_info': {'tag': '运动健身;体育场馆', 'type': 'life', 'detail_url': 'http://api.map.baidu.com/place/detail?uid=569b76124ce947c033169b2b&output=html&source=placeapi_v2', 'overall_rating': '0.0', 'image_num': '1', 'children': []}}"
蜕变瑜伽,108.91521670704984,34.20164906308514,165e62d38a87cf83dbd89184,"{'name': '蜕变瑜伽', 'location': {'lat': 34.205845, 'lng': 108.92637}, 'address': '西安市雁塔区电子正街雁塔商务b座4楼', 'province': '陕西省', 'city': '西安市', 'area': '雁塔区', 'street_id': 'dfc633759fdcb6c54bcc4ad4', 'telephone': '17791396393', 'detail': 1, 'uid': '165e62d38a87cf83dbd89184', 'detail_info': {'tag': '运动健身;健身中心', 'type': 'life', 'detail_url': 'http://api.map.baidu.com/place/detail?uid=165e62d38a87cf83dbd89184&output=html&source=placeapi_v2', 'overall_rating': '5.0', 'image_num': '44', 'comment_num': '4', 'children': []}}"
"{'name': '蜕变瑜伽', 'location': {'lat': 34.205845, 'lng': 108.92637}, 'address': '西安市雁塔区电子正街雁塔商务b座4楼', 'province': '陕西省', 'city': '西安市', 'area': '雁塔区', 'street_id': 'dfc633759fdcb6c54bcc4ad4', 'telephone': '17791396393', 'detail': 1, 'uid': '165e62d38a87cf83dbd89184', 'detail_info': {'tag': '运动健身;健身中心', 'type': 'life', 'detail_url': 'http://api.map.baidu.com/place/detail?uid=165e62d38a87cf83dbd89184&output=html&source=placeapi_v2', 'overall_rating': '5.0', 'image_num': '44', 'comment_num': '4', 'children': []}}"
西北工业大学友谊西路校区-翱翔体育馆,108.91305508905303,34.24676864527447,85733dd27d164f991188243e,"{'name': '西北工业大学友谊西路校区-翱翔体育馆', 'location': {'lat': 34.250953, 'lng': 108.924232}, 'address': '陕西西安友谊西路127号', 'province': '陕西省', 'city': '西安市', 'area': '碑林区', 'street_id': '85733dd27d164f991188243e', 'detail': 1, 'uid': '85733dd27d164f991188243e', 'detail_info': {'tag': '运动健身;体育场馆', 'type': 'life', 'detail_url': 'http://api.map.baidu.com/place/detail?uid=85733dd27d164f991188243e&output=html&source=placeapi_v2', 'overall_rating': '3.8', 'image_num': '1', 'children': []}}"
"{'name': '西北工业大学友谊西路校区-翱翔体育馆', 'location': {'lat': 34.250953, 'lng': 108.924232}, 'address': '陕西西安友谊西路127号', 'province': '陕西省', 'city': '西安市', 'area': '碑林区', 'street_id': '85733dd27d164f991188243e', 'detail': 1, 'uid': '85733dd27d164f991188243e', 'detail_info': {'tag': '运动健身;体育场馆', 'type': 'life', 'detail_url': 'http://api.map.baidu.com/place/detail?uid=85733dd27d164f991188243e&output=html&source=placeapi_v2', 'overall_rating': '3.8', 'image_num': '1', 'children': []}}"
朱雀乒乓球馆,108.93650912286384,34.23313153094212,15e1e85e66fa34df581093c3,"{'name': '朱雀乒乓球馆', 'location': {'lat': 34.237717, 'lng': 108.947622}, 'address': '西安市碑林区省体育场西门3号', 'province': '陕西省', 'city': '西安市', 'area': '碑林区', 'street_id': '15e1e85e66fa34df581093c3', 'telephone': '(029)85234039', 'detail': 1, 'uid': '15e1e85e66fa34df581093c3', 'detail_info': {'tag': '运动健身;体育场馆', 'type': 'life', 'detail_url': 'http://api.map.baidu.com/place/detail?uid=15e1e85e66fa34df581093c3&output=html&source=placeapi_v2', 'image_num': '10', 'comment_num': '2', 'children': []}}"
"{'name': '朱雀乒乓球馆', 'location': {'lat': 34.237717, 'lng': 108.947622}, 'address': '西安市碑林区省体育场西门3号', 'province': '陕西省', 'city': '西安市', 'area': '碑林区', 'street_id': '15e1e85e66fa34df581093c3', 'telephone': '(029)85234039', 'detail': 1, 'uid': '15e1e85e66fa34df581093c3', 'detail_info': {'tag': '运动健身;体育场馆', 'type': 'life', 'detail_url': 'http://api.map.baidu.com/place/detail?uid=15e1e85e66fa34df581093c3&output=html&source=placeapi_v2', 'image_num': '10', 'comment_num': '2', 'children': []}}"
恒佳好世界威尼斯健身俱乐部,108.93262695268089,34.271119183907885,c61bd3057a450471c37da2a2,"{'name': '恒佳好世界威尼斯健身俱乐部', 'location': {'lat': 34.275645, 'lng': 108.943723}, 'address': '莲湖路108号恒佳好世界大酒店', 'province': '陕西省', 'city': '西安市', 'area': '莲湖区', 'street_id': '465596f15f67fefaae31e594', 'telephone': '(029)87350082', 'detail': 1, 'uid': 'c61bd3057a450471c37da2a2', 'detail_info': {'tag': '运动健身;健身中心', 'navi_location': {'lng': 108.94371269789, 'lat': 34.275791581033}, 'type': 'life', 'detail_url': 'http://api.map.baidu.com/place/detail?uid=c61bd3057a450471c37da2a2&output=html&source=placeapi_v2', 'price': '300', 'overall_rating': '4.3', 'image_num': '60', 'comment_num': '19', 'children': []}}"
"{'name': '恒佳好世界威尼斯健身俱乐部', 'location': {'lat': 34.275645, 'lng': 108.943723}, 'address': '莲湖路108号恒佳好世界大酒店', 'province': '陕西省', 'city': '西安市', 'area': '莲湖区', 'street_id': '465596f15f67fefaae31e594', 'telephone': '(029)87350082', 'detail': 1, 'uid': 'c61bd3057a450471c37da2a2', 'detail_info': {'tag': '运动健身;健身中心', 'navi_location': {'lng': 108.94371269789, 'lat': 34.275791581033}, 'type': 'life', 'detail_url': 'http://api.map.baidu.com/place/detail?uid=c61bd3057a450471c37da2a2&output=html&source=placeapi_v2', 'price': '300', 'overall_rating': '4.3', 'image_num': '60', 'comment_num': '19', 'children': []}}"
盛龙跆拳道・会馆,108.88798899768038,34.218193044339955,39a300b9323292526fa3ccd7,"{'name': '盛龙跆拳道・会馆', 'location': {'lat': 34.222256, 'lng': 108.899178}, 'address': '陕西省西安市雁塔区科技五路3号', 'province': '陕西省', 'city': '西安市', 'area': '雁塔区', 'street_id': '39a300b9323292526fa3ccd7', 'detail': 1, 'uid': '39a300b9323292526fa3ccd7', 'detail_info': {'tag': '运动健身;体育场馆', 'type': 'life', 'detail_url': 'http://api.map.baidu.com/place/detail?uid=39a300b9323292526fa3ccd7&output=html&source=placeapi_v2', 'overall_rating': '3.0', 'image_num': '51', 'comment_num': '1', 'children': []}}"
"{'name': '盛龙跆拳道・会馆', 'location': {'lat': 34.222256, 'lng': 108.899178}, 'address': '陕西省西安市雁塔区科技五路3号', 'province': '陕西省', 'city': '西安市', 'area': '雁塔区', 'street_id': '39a300b9323292526fa3ccd7', 'detail': 1, 'uid': '39a300b9323292526fa3ccd7', 'detail_info': {'tag': '运动健身;体育场馆', 'type': 'life', 'detail_url': 'http://api.map.baidu.com/place/detail?uid=39a300b9323292526fa3ccd7&output=html&source=placeapi_v2', 'overall_rating': '3.0', 'image_num': '51', 'comment_num': '1', 'children': []}}"
大拇指舞蹈培训中心,108.85079557803633,34.17623111082151,2c5b808f09bdbece5b1093a8,"{'name': '大拇指舞蹈培训中心', 'location': {'lat': 34.180839, 'lng': 108.861807}, 'address': '陕西省西安市长安区长安园公寓西区(丈八六路)', 'province': '陕西省', 'city': '西安市', 'area': '长安区', 'street_id': '2c5b808f09bdbece5b1093a8', 'telephone': '18629415395', 'detail': 1, 'uid': '2c5b808f09bdbece5b1093a8', 'detail_info': {'tag': '教育培训;培训机构', 'navi_location': {'lng': 108.86238675998, 'lat': 34.180883110582}, 'type': 'life', 'detail_url': 'http://api.map.baidu.com/place/detail?uid=2c5b808f09bdbece5b1093a8&output=html&source=placeapi_v2', 'overall_rating': '5.0', 'image_num': '4', 'comment_num': '1', 'children': []}}"
"{'name': '大拇指舞蹈培训中心', 'location': {'lat': 34.180839, 'lng': 108.861807}, 'address': '陕西省西安市长安区长安园公寓西区(丈八六路)', 'province': '陕西省', 'city': '西安市', 'area': '长安区', 'street_id': '2c5b808f09bdbece5b1093a8', 'telephone': '18629415395', 'detail': 1, 'uid': '2c5b808f09bdbece5b1093a8', 'detail_info': {'tag': '教育培训;培训机构', 'navi_location': {'lng': 108.86238675998, 'lat': 34.180883110582}, 'type': 'life', 'detail_url': 'http://api.map.baidu.com/place/detail?uid=2c5b808f09bdbece5b1093a8&output=html&source=placeapi_v2', 'overall_rating': '5.0', 'image_num': '4', 'comment_num': '1', 'children': []}}"
艾美特游泳池,108.89702080847609,34.255819856048504,090bfed0591e3cdb921fc901,"{'name': '艾美特游泳池', 'location': {'lat': 34.25987, 'lng': 108.908215}, 'address': '桃园南路24号附近', 'province': '陕西省', 'city': '西安市', 'area': '莲湖区', 'street_id': '090bfed0591e3cdb921fc901', 'detail': 1, 'uid': '090bfed0591e3cdb921fc901', 'detail_info': {'tag': '运动健身;体育场馆', 'navi_location': {'lng': 108.90888803069, 'lat': 34.25956653736}, 'type': 'life', 'detail_url': 'http://api.map.baidu.com/place/detail?uid=090bfed0591e3cdb921fc901&output=html&source=placeapi_v2', 'image_num': '2', 'children': []}}"
"{'name': '艾美特游泳池', 'location': {'lat': 34.25987, 'lng': 108.908215}, 'address': '桃园南路24号附近', 'province': '陕西省', 'city': '西安市', 'area': '莲湖区', 'street_id': '090bfed0591e3cdb921fc901', 'detail': 1, 'uid': '090bfed0591e3cdb921fc901', 'detail_info': {'tag': '运动健身;体育场馆', 'navi_location': {'lng': 108.90888803069, 'lat': 34.25956653736}, 'type': 'life', 'detail_url': 'http://api.map.baidu.com/place/detail?uid=090bfed0591e3cdb921fc901&output=html&source=placeapi_v2', 'image_num': '2', 'children': []}}"
来力台球,108.91586897071511,34.20701525080658,840c4d57c0c3bba3cae33c06,"{'name': '来力台球', 'location': {'lat': 34.211225, 'lng': 108.927026}, 'address': '陕西省西安市雁塔区电子正街259号', 'province': '陕西省', 'city': '西安市', 'area': '雁塔区', 'street_id': '840c4d57c0c3bba3cae33c06', 'detail': 1, 'uid': '840c4d57c0c3bba3cae33c06', 'detail_info': {'tag': '运动健身;体育场馆', 'type': 'life', 'detail_url': 'http://api.map.baidu.com/place/detail?uid=840c4d57c0c3bba3cae33c06&output=html&source=placeapi_v2', 'overall_rating': '4.0', 'image_num': '5', 'comment_num': '1', 'children': []}}"
"{'name': '来力台球', 'location': {'lat': 34.211225, 'lng': 108.927026}, 'address': '陕西省西安市雁塔区电子正街259号', 'province': '陕西省', 'city': '西安市', 'area': '雁塔区', 'street_id': '840c4d57c0c3bba3cae33c06', 'detail': 1, 'uid': '840c4d57c0c3bba3cae33c06', 'detail_info': {'tag': '运动健身;体育场馆', 'type': 'life', 'detail_url': 'http://api.map.baidu.com/place/detail?uid=840c4d57c0c3bba3cae33c06&output=html&source=placeapi_v2', 'overall_rating': '4.0', 'image_num': '5', 'comment_num': '1', 'children': []}}"
西北大学桃园校区-塑胶操场,108.8869637551389,34.24087353661588,3a42c78f4651645948cc4afd,"{'name': '西北大学桃园校区-塑胶操场', 'location': {'lat': 34.244953, 'lng': 108.898155}, 'address': '高新四路15号西北大学桃园校区', 'province': '陕西省', 'city': '西安市', 'area': '雁塔区', 'street_id': '3a42c78f4651645948cc4afd', 'detail': 1, 'uid': '3a42c78f4651645948cc4afd', 'detail_info': {'tag': '运动健身;体育场馆', 'type': 'life', 'detail_url': 'http://api.map.baidu.com/place/detail?uid=3a42c78f4651645948cc4afd&output=html&source=placeapi_v2', 'image_num': '1', 'children': []}}"
"{'name': '西北大学桃园校区-塑胶操场', 'location': {'lat': 34.244953, 'lng': 108.898155}, 'address': '高新四路15号西北大学桃园校区', 'province': '陕西省', 'city': '西安市', 'area': '雁塔区', 'street_id': '3a42c78f4651645948cc4afd', 'detail': 1, 'uid': '3a42c78f4651645948cc4afd', 'detail_info': {'tag': '运动健身;体育场馆', 'type': 'life', 'detail_url': 'http://api.map.baidu.com/place/detail?uid=3a42c78f4651645948cc4afd&output=html&source=placeapi_v2', 'image_num': '1', 'children': []}}"
辅妍舞蹈艺术公社,108.903023553321,34.23847091512219,ad8faa6f0b9196bef7eafc8f,"{'name': '辅妍舞蹈艺术公社', 'location': {'lat': 34.242544, 'lng': 108.914225}, 'address': '高新路10号A7楼4F(五环工厂店北隔壁)', 'province': '陕西省', 'city': '西安市', 'area': '雁塔区', 'street_id': '740b6cf63a48b354f942b2d6', 'detail': 1, 'uid': 'ad8faa6f0b9196bef7eafc8f', 'detail_info': {'tag': '运动健身;健身中心', 'type': 'life', 'detail_url': 'http://api.map.baidu.com/place/detail?uid=ad8faa6f0b9196bef7eafc8f&output=html&source=placeapi_v2', 'overall_rating': '4.8', 'image_num': '100', 'comment_num': '0', 'children': []}}"
"{'name': '辅妍舞蹈艺术公社', 'location': {'lat': 34.242544, 'lng': 108.914225}, 'address': '高新路10号A7楼4F(五环工厂店北隔壁)', 'province': '陕西省', 'city': '西安市', 'area': '雁塔区', 'street_id': '740b6cf63a48b354f942b2d6', 'detail': 1, 'uid': 'ad8faa6f0b9196bef7eafc8f', 'detail_info': {'tag': '运动健身;健身中心', 'type': 'life', 'detail_url': 'http://api.map.baidu.com/place/detail?uid=ad8faa6f0b9196bef7eafc8f&output=html&source=placeapi_v2', 'overall_rating': '4.8', 'image_num': '100', 'comment_num': '0', 'children': []}}"
皇冠假日酒店-游泳池,108.93513351840944,34.23249417317607,84120f8523d5911fabf0cd79,"{'name': '皇冠假日酒店-游泳池', 'location': {'lat': 34.237057, 'lng': 108.946249}, 'address': '朱雀路中段1号西安皇冠假日酒店5层', 'province': '陕西省', 'city': '西安市', 'area': '碑林区', 'street_id': '84120f8523d5911fabf0cd79', 'telephone': '(029)88668888', 'detail': 1, 'uid': '84120f8523d5911fabf0cd79', 'detail_info': {'tag': '运动健身;体育场馆', 'type': 'life', 'detail_url': 'http://api.map.baidu.com/place/detail?uid=84120f8523d5911fabf0cd79&output=html&source=placeapi_v2', 'price': '150', 'overall_rating': '0.0', 'image_num': '1', 'children': []}}"
"{'name': '皇冠假日酒店-游泳池', 'location': {'lat': 34.237057, 'lng': 108.946249}, 'address': '朱雀路中段1号西安皇冠假日酒店5层', 'province': '陕西省', 'city': '西安市', 'area': '碑林区', 'street_id': '84120f8523d5911fabf0cd79', 'telephone': '(029)88668888', 'detail': 1, 'uid': '84120f8523d5911fabf0cd79', 'detail_info': {'tag': '运动健身;体育场馆', 'type': 'life', 'detail_url': 'http://api.map.baidu.com/place/detail?uid=84120f8523d5911fabf0cd79&output=html&source=placeapi_v2', 'price': '150', 'overall_rating': '0.0', 'image_num': '1', 'children': []}}"
博奥新派健身中心,108.88139751090462,34.18753683376432,adf4a71d794954c66240a932,"{'name': '博奥新派健身中心', 'location': {'lat': 34.191644, 'lng': 108.892538}, 'address': '高新区唐延南路i都会2号楼1楼', 'province': '陕西省', 'city': '西安市', 'area': '雁塔区', 'street_id': 'adf4a71d794954c66240a932', 'detail': 1, 'uid': 'adf4a71d794954c66240a932', 'detail_info': {'tag': '运动健身;健身中心', 'type': 'life', 'detail_url': 'http://api.map.baidu.com/place/detail?uid=adf4a71d794954c66240a932&output=html&source=placeapi_v2', 'overall_rating': '3.8', 'image_num': '38', 'comment_num': '8', 'children': []}}"
"{'name': '博奥新派健身中心', 'location': {'lat': 34.191644, 'lng': 108.892538}, 'address': '高新区唐延南路i都会2号楼1楼', 'province': '陕西省', 'city': '西安市', 'area': '雁塔区', 'street_id': 'adf4a71d794954c66240a932', 'detail': 1, 'uid': 'adf4a71d794954c66240a932', 'detail_info': {'tag': '运动健身;健身中心', 'type': 'life', 'detail_url': 'http://api.map.baidu.com/place/detail?uid=adf4a71d794954c66240a932&output=html&source=placeapi_v2', 'overall_rating': '3.8', 'image_num': '38', 'comment_num': '8', 'children': []}}"
新蜂足球俱乐部,108.85133706927552,34.18262491734639,ab0683b2e25ac2c0b6f42f19,"{'name': '新蜂足球俱乐部', 'location': {'lat': 34.187228, 'lng': 108.862353}, 'address': '陕西省西安市雁塔区丈八六路', 'province': '陕西省', 'city': '西安市', 'area': '雁塔区', 'street_id': 'ab0683b2e25ac2c0b6f42f19', 'detail': 1, 'uid': 'ab0683b2e25ac2c0b6f42f19', 'detail_info': {'tag': '运动健身;体育场馆', 'type': 'life', 'detail_url': 'http://api.map.baidu.com/place/detail?uid=ab0683b2e25ac2c0b6f42f19&output=html&source=placeapi_v2', 'image_num': '1', 'children': []}}"
"{'name': '新蜂足球俱乐部', 'location': {'lat': 34.187228, 'lng': 108.862353}, 'address': '陕西省西安市雁塔区丈八六路', 'province': '陕西省', 'city': '西安市', 'area': '雁塔区', 'street_id': 'ab0683b2e25ac2c0b6f42f19', 'detail': 1, 'uid': 'ab0683b2e25ac2c0b6f42f19', 'detail_info': {'tag': '运动健身;体育场馆', 'type': 'life', 'detail_url': 'http://api.map.baidu.com/place/detail?uid=ab0683b2e25ac2c0b6f42f19&output=html&source=placeapi_v2', 'image_num': '1', 'children': []}}"
祯泰拳馆,108.87370480173759,34.19498093405979,ac80cc5251ee5325f50e775b,"{'name': '祯泰拳馆', 'location': {'lat': 34.199204, 'lng': 108.884822}, 'address': '西安市雁塔区锦业路锦业时代b3栋4楼', 'province': '陕西省', 'city': '西安市', 'area': '雁塔区', 'street_id': 'ac80cc5251ee5325f50e775b', 'detail': 1, 'uid': 'ac80cc5251ee5325f50e775b', 'detail_info': {'tag': '运动健身;体育场馆', 'type': 'life', 'detail_url': 'http://api.map.baidu.com/place/detail?uid=ac80cc5251ee5325f50e775b&output=html&source=placeapi_v2', 'image_num': '7', 'children': []}}"
"{'name': '祯泰拳馆', 'location': {'lat': 34.199204, 'lng': 108.884822}, 'address': '西安市雁塔区锦业路锦业时代b3栋4楼', 'province': '陕西省', 'city': '西安市', 'area': '雁塔区', 'street_id': 'ac80cc5251ee5325f50e775b', 'detail': 1, 'uid': 'ac80cc5251ee5325f50e775b', 'detail_info': {'tag': '运动健身;体育场馆', 'type': 'life', 'detail_url': 'http://api.map.baidu.com/place/detail?uid=ac80cc5251ee5325f50e775b&output=html&source=placeapi_v2', 'image_num': '7', 'children': []}}"
勇士搏击,108.9190472715054,34.22419258393019,286fd2b604378bd45b10930d,"{'name': '勇士搏击', 'location': {'lat': 34.228465, 'lng': 108.930208}, 'address': '电子城商圈吉祥路206号', 'province': '陕西省', 'city': '西安市', 'area': '雁塔区', 'street_id': '286fd2b604378bd45b10930d', 'telephone': '(029)63631888', 'detail': 1, 'uid': '286fd2b604378bd45b10930d', 'detail_info': {'tag': '运动健身;体育场馆', 'type': 'life', 'detail_url': 'http://api.map.baidu.com/place/detail?uid=286fd2b604378bd45b10930d&output=html&source=placeapi_v2', 'image_num': '5', 'children': []}}"
"{'name': '勇士搏击', 'location': {'lat': 34.228465, 'lng': 108.930208}, 'address': '电子城商圈吉祥路206号', 'province': '陕西省', 'city': '西安市', 'area': '雁塔区', 'street_id': '286fd2b604378bd45b10930d', 'telephone': '(029)63631888', 'detail': 1, 'uid': '286fd2b604378bd45b10930d', 'detail_info': {'tag': '运动健身;体育场馆', 'type': 'life', 'detail_url': 'http://api.map.baidu.com/place/detail?uid=286fd2b604378bd45b10930d&output=html&source=placeapi_v2', 'image_num': '5', 'children': []}}"
天磊游泳俱乐部(西桃园店),108.89310821876605,34.24679877591647,39a1e11b61cae4224bfc8d83,"{'name': '天磊游泳俱乐部(西桃园店)', 'location': {'lat': 34.250849, 'lng': 108.904307}, 'address': '莲湖区二环南路西段395号亚美伟博4楼', 'province': '陕西省', 'city': '西安市', 'area': '莲湖区', 'street_id': '39a1e11b61cae4224bfc8d83', 'detail': 1, 'uid': '39a1e11b61cae4224bfc8d83', 'detail_info': {'tag': '运动健身;体育场馆', 'navi_location': {'lng': 108.90430048866, 'lat': 34.250654984382}, 'type': 'life', 'detail_url': 'http://api.map.baidu.com/place/detail?uid=39a1e11b61cae4224bfc8d83&output=html&source=placeapi_v2', 'overall_rating': '0.0', 'image_num': '1', 'comment_num': '0', 'children': []}}"
"{'name': '天磊游泳俱乐部(西桃园店)', 'location': {'lat': 34.250849, 'lng': 108.904307}, 'address': '莲湖区二环南路西段395号亚美伟博4楼', 'province': '陕西省', 'city': '西安市', 'area': '莲湖区', 'street_id': '39a1e11b61cae4224bfc8d83', 'detail': 1, 'uid': '39a1e11b61cae4224bfc8d83', 'detail_info': {'tag': '运动健身;体育场馆', 'navi_location': {'lng': 108.90430048866, 'lat': 34.250654984382}, 'type': 'life', 'detail_url': 'http://api.map.baidu.com/place/detail?uid=39a1e11b61cae4224bfc8d83&output=html&source=placeapi_v2', 'overall_rating': '0.0', 'image_num': '1', 'comment_num': '0', 'children': []}}"
西安绿地假日酒店-游泳池,108.8789013796803,34.196132423427116,13f89260fdebf8544207c1ad,"{'name': '西安绿地假日酒店-游泳池', 'location': {'lat': 34.200277, 'lng': 108.890041}, 'address': '高新区锦业路1号西安绿地假日酒店3/4楼', 'province': '陕西省', 'city': '西安市', 'area': '雁塔区', 'street_id': '13f89260fdebf8544207c1ad', 'detail': 1, 'uid': '13f89260fdebf8544207c1ad', 'detail_info': {'tag': '运动健身;体育场馆', 'navi_location': {'lng': 108.88991239578, 'lat': 34.200288028288}, 'type': 'life', 'detail_url': 'http://api.map.baidu.com/place/detail?uid=13f89260fdebf8544207c1ad&output=html&source=placeapi_v2', 'overall_rating': '5.0', 'image_num': '1', 'comment_num': '1', 'children': []}}"
"{'name': '西安绿地假日酒店-游泳池', 'location': {'lat': 34.200277, 'lng': 108.890041}, 'address': '高新区锦业路1号西安绿地假日酒店3/4楼', 'province': '陕西省', 'city': '西安市', 'area': '雁塔区', 'street_id': '13f89260fdebf8544207c1ad', 'detail': 1, 'uid': '13f89260fdebf8544207c1ad', 'detail_info': {'tag': '运动健身;体育场馆', 'navi_location': {'lng': 108.88991239578, 'lat': 34.200288028288}, 'type': 'life', 'detail_url': 'http://api.map.baidu.com/place/detail?uid=13f89260fdebf8544207c1ad&output=html&source=placeapi_v2', 'overall_rating': '5.0', 'image_num': '1', 'comment_num': '1', 'children': []}}"
陕西宾馆-游泳中心,108.86956602466259,34.20455053177945,d5169dc4adaf043407026f39,"{'name': '陕西宾馆-游泳中心', 'location': {'lat': 34.208851, 'lng': 108.880675}, 'address': '丈八东路', 'province': '陕西省', 'city': '西安市', 'area': '雁塔区', 'street_id': 'd5169dc4adaf043407026f39', 'detail': 1, 'uid': 'd5169dc4adaf043407026f39', 'detail_info': {'tag': '运动健身;体育场馆', 'type': 'life', 'detail_url': 'http://api.map.baidu.com/place/detail?uid=d5169dc4adaf043407026f39&output=html&source=placeapi_v2', 'image_num': '1', 'comment_num': '2', 'children': []}}"
"{'name': '陕西宾馆-游泳中心', 'location': {'lat': 34.208851, 'lng': 108.880675}, 'address': '丈八东路', 'province': '陕西省', 'city': '西安市', 'area': '雁塔区', 'street_id': 'd5169dc4adaf043407026f39', 'detail': 1, 'uid': 'd5169dc4adaf043407026f39', 'detail_info': {'tag': '运动健身;体育场馆', 'type': 'life', 'detail_url': 'http://api.map.baidu.com/place/detail?uid=d5169dc4adaf043407026f39&output=html&source=placeapi_v2', 'image_num': '1', 'comment_num': '2', 'children': []}}"
西钞羽毛球馆,108.86582837758208,34.264903203130885,33a236383e606604c16c14c5,"{'name': '西钞羽毛球馆', 'location': {'lat': 34.269292, 'lng': 108.876919}, 'address': '汉城南路153号', 'province': '陕西省', 'city': '西安市', 'area': '莲湖区', 'street_id': '33a236383e606604c16c14c5', 'detail': 1, 'uid': '33a236383e606604c16c14c5', 'detail_info': {'tag': '运动健身;体育场馆', 'type': 'life', 'detail_url': 'http://api.map.baidu.com/place/detail?uid=33a236383e606604c16c14c5&output=html&source=placeapi_v2', 'image_num': '6', 'comment_num': '1', 'children': []}}"
"{'name': '西钞羽毛球馆', 'location': {'lat': 34.269292, 'lng': 108.876919}, 'address': '汉城南路153号', 'province': '陕西省', 'city': '西安市', 'area': '莲湖区', 'street_id': '33a236383e606604c16c14c5', 'detail': 1, 'uid': '33a236383e606604c16c14c5', 'detail_info': {'tag': '运动健身;体育场馆', 'type': 'life', 'detail_url': 'http://api.map.baidu.com/place/detail?uid=33a236383e606604c16c14c5&output=html&source=placeapi_v2', 'image_num': '6', 'comment_num': '1', 'children': []}}"
乒乓馆,108.93877877087817,34.235646631604276,6d257f50745e303bdbecedf9,"{'name': '乒乓馆', 'location': {'lat': 34.240268, 'lng': 108.949888}, 'address': '长安北路126号附近', 'province': '陕西省', 'city': '西安市', 'area': '碑林区', 'street_id': '6d257f50745e303bdbecedf9', 'detail': 1, 'uid': '6d257f50745e303bdbecedf9', 'detail_info': {'tag': '运动健身;体育场馆', 'type': 'life', 'detail_url': 'http://api.map.baidu.com/place/detail?uid=6d257f50745e303bdbecedf9&output=html&source=placeapi_v2', 'image_num': '2', 'children': []}}"
"{'name': '乒乓馆', 'location': {'lat': 34.240268, 'lng': 108.949888}, 'address': '长安北路126号附近', 'province': '陕西省', 'city': '西安市', 'area': '碑林区', 'street_id': '6d257f50745e303bdbecedf9', 'detail': 1, 'uid': '6d257f50745e303bdbecedf9', 'detail_info': {'tag': '运动健身;体育场馆', 'type': 'life', 'detail_url': 'http://api.map.baidu.com/place/detail?uid=6d257f50745e303bdbecedf9&output=html&source=placeapi_v2', 'image_num': '2', 'children': []}}"
7号健身游泳会所,108.9233054419967,34.18769182081644,7de3f6740221a353d1f49e90,"{'name': '7号健身游泳会所', 'location': {'lat': 34.192017, 'lng': 108.934419}, 'address': '东仪路与南三环交汇处向南100米路西阿伯丁商业中心C3', 'province': '陕西省', 'city': '西安市', 'area': '雁塔区', 'street_id': '7de3f6740221a353d1f49e90', 'detail': 1, 'uid': '7de3f6740221a353d1f49e90', 'detail_info': {'tag': '运动健身;健身中心', 'type': 'life', 'detail_url': 'http://api.map.baidu.com/place/detail?uid=7de3f6740221a353d1f49e90&output=html&source=placeapi_v2', 'overall_rating': '3.0', 'image_num': '10', 'comment_num': '1', 'children': []}}"
"{'name': '7号健身游泳会所', 'location': {'lat': 34.192017, 'lng': 108.934419}, 'address': '东仪路与南三环交汇处向南100米路西阿伯丁商业中心C3', 'province': '陕西省', 'city': '西安市', 'area': '雁塔区', 'street_id': '7de3f6740221a353d1f49e90', 'detail': 1, 'uid': '7de3f6740221a353d1f49e90', 'detail_info': {'tag': '运动健身;健身中心', 'type': 'life', 'detail_url': 'http://api.map.baidu.com/place/detail?uid=7de3f6740221a353d1f49e90&output=html&source=placeapi_v2', 'overall_rating': '3.0', 'image_num': '10', 'comment_num': '1', 'children': []}}"
风林火山跆拳道馆,108.91863012591959,34.24662869140835,b18420b2b9520d4ad22dd623,"{'name': '风林火山跆拳道馆', 'location': {'lat': 34.250901, 'lng': 108.92979}, 'address': '太白北路260号天润大厦1层', 'province': '陕西省', 'city': '西安市', 'area': '碑林区', 'street_id': 'b18420b2b9520d4ad22dd623', 'telephone': '15802906612', 'detail': 1, 'uid': 'b18420b2b9520d4ad22dd623', 'detail_info': {'tag': '运动健身;体育场馆', 'navi_location': {'lng': 108.9297184482, 'lat': 34.250903871232}, 'type': 'life', 'detail_url': 'http://api.map.baidu.com/place/detail?uid=b18420b2b9520d4ad22dd623&output=html&source=placeapi_v2', 'overall_rating': '5.0', 'image_num': '15', 'comment_num': '2', 'children': []}}"
"{'name': '风林火山跆拳道馆', 'location': {'lat': 34.250901, 'lng': 108.92979}, 'address': '太白北路260号天润大厦1层', 'province': '陕西省', 'city': '西安市', 'area': '碑林区', 'street_id': 'b18420b2b9520d4ad22dd623', 'telephone': '15802906612', 'detail': 1, 'uid': 'b18420b2b9520d4ad22dd623', 'detail_info': {'tag': '运动健身;体育场馆', 'navi_location': {'lng': 108.9297184482, 'lat': 34.250903871232}, 'type': 'life', 'detail_url': 'http://api.map.baidu.com/place/detail?uid=b18420b2b9520d4ad22dd623&output=html&source=placeapi_v2', 'overall_rating': '5.0', 'image_num': '15', 'comment_num': '2', 'children': []}}"
V8桌球俱乐部,108.79594157011583,34.26074946404446,758d5f02e4d74b3a5bf6be18,"{'name': 'V8桌球俱乐部', 'location': {'lat': 34.265111, 'lng': 108.807186}, 'address': '陕西省西安市长安区王寺万福花园南区北门(王马路南)', 'province': '陕西省', 'city': '西安市', 'area': '长安区', 'street_id': '758d5f02e4d74b3a5bf6be18', 'detail': 1, 'uid': '758d5f02e4d74b3a5bf6be18', 'detail_info': {'tag': '运动健身;体育场馆', 'navi_location': {'lng': 108.80720784907, 'lat': 34.265284855336}, 'type': 'life', 'detail_url': 'http://api.map.baidu.com/place/detail?uid=758d5f02e4d74b3a5bf6be18&output=html&source=placeapi_v2', 'image_num': '7', 'children': []}}"
"{'name': 'V8桌球俱乐部', 'location': {'lat': 34.265111, 'lng': 108.807186}, 'address': '陕西省西安市长安区王寺万福花园南区北门(王马路南)', 'province': '陕西省', 'city': '西安市', 'area': '长安区', 'street_id': '758d5f02e4d74b3a5bf6be18', 'detail': 1, 'uid': '758d5f02e4d74b3a5bf6be18', 'detail_info': {'tag': '运动健身;体育场馆', 'navi_location': {'lng': 108.80720784907, 'lat': 34.265284855336}, 'type': 'life', 'detail_url': 'http://api.map.baidu.com/place/detail?uid=758d5f02e4d74b3a5bf6be18&output=html&source=placeapi_v2', 'image_num': '7', 'children': []}}"
飞翔滑冰俱乐部,108.84413074532577,34.177050168980934,ddf9996660246c5579dbd2d8,"{'name': '飞翔滑冰俱乐部', 'location': {'lat': 34.181736, 'lng': 108.855131}, 'address': '亚迪路长里村综合市场', 'province': '陕西省', 'city': '西安市', 'area': '长安区', 'street_id': 'ddf9996660246c5579dbd2d8', 'detail': 1, 'uid': 'ddf9996660246c5579dbd2d8', 'detail_info': {'tag': '运动健身;体育场馆', 'type': 'life', 'detail_url': 'http://api.map.baidu.com/place/detail?uid=ddf9996660246c5579dbd2d8&output=html&source=placeapi_v2', 'image_num': '4', 'comment_num': '2', 'children': []}}"
"{'name': '飞翔滑冰俱乐部', 'location': {'lat': 34.181736, 'lng': 108.855131}, 'address': '亚迪路长里村综合市场', 'province': '陕西省', 'city': '西安市', 'area': '长安区', 'street_id': 'ddf9996660246c5579dbd2d8', 'detail': 1, 'uid': 'ddf9996660246c5579dbd2d8', 'detail_info': {'tag': '运动健身;体育场馆', 'type': 'life', 'detail_url': 'http://api.map.baidu.com/place/detail?uid=ddf9996660246c5579dbd2d8&output=html&source=placeapi_v2', 'image_num': '4', 'comment_num': '2', 'children': []}}"
西安体育学院-乒乓球馆,108.92892909474976,34.240038703082305,61caf79b9d42b685c26c1432,"{'name': '西安体育学院-乒乓球馆', 'location': {'lat': 34.244495, 'lng': 108.940059}, 'address': '陕西省西安市碑林区含光路65号西安体育学院内', 'province': '陕西省', 'city': '西安市', 'area': '碑林区', 'street_id': '61caf79b9d42b685c26c1432', 'detail': 1, 'uid': '61caf79b9d42b685c26c1432', 'detail_info': {'tag': '运动健身;体育场馆', 'type': 'life', 'detail_url': 'http://api.map.baidu.com/place/detail?uid=61caf79b9d42b685c26c1432&output=html&source=placeapi_v2', 'overall_rating': '3.5', 'image_num': '1', 'children': []}}"
"{'name': '西安体育学院-乒乓球馆', 'location': {'lat': 34.244495, 'lng': 108.940059}, 'address': '陕西省西安市碑林区含光路65号西安体育学院内', 'province': '陕西省', 'city': '西安市', 'area': '碑林区', 'street_id': '61caf79b9d42b685c26c1432', 'detail': 1, 'uid': '61caf79b9d42b685c26c1432', 'detail_info': {'tag': '运动健身;体育场馆', 'type': 'life', 'detail_url': 'http://api.map.baidu.com/place/detail?uid=61caf79b9d42b685c26c1432&output=html&source=placeapi_v2', 'overall_rating': '3.5', 'image_num': '1', 'children': []}}"
西安体育学院-网球馆,108.92823463502322,34.23879266194825,c8b5cdefa9956003130daa5a,"{'name': '西安体育学院-网球馆', 'location': {'lat': 34.243236, 'lng': 108.939367}, 'address': '含光北路65号', 'province': '陕西省', 'city': '西安市', 'area': '碑林区', 'street_id': 'c8b5cdefa9956003130daa5a', 'detail': 1, 'uid': 'c8b5cdefa9956003130daa5a', 'detail_info': {'tag': '运动健身;体育场馆', 'type': 'life', 'detail_url': 'http://api.map.baidu.com/place/detail?uid=c8b5cdefa9956003130daa5a&output=html&source=placeapi_v2', 'overall_rating': '3.1', 'image_num': '3', 'comment_num': '2', 'children': []}}"
"{'name': '西安体育学院-网球馆', 'location': {'lat': 34.243236, 'lng': 108.939367}, 'address': '含光北路65号', 'province': '陕西省', 'city': '西安市', 'area': '碑林区', 'street_id': 'c8b5cdefa9956003130daa5a', 'detail': 1, 'uid': 'c8b5cdefa9956003130daa5a', 'detail_info': {'tag': '运动健身;体育场馆', 'type': 'life', 'detail_url': 'http://api.map.baidu.com/place/detail?uid=c8b5cdefa9956003130daa5a&output=html&source=placeapi_v2', 'overall_rating': '3.1', 'image_num': '3', 'comment_num': '2', 'children': []}}"
西电游泳馆,108.909273283926,34.230090024012576,c080e54eec155813c9fa5f04,"{'name': '西电游泳馆', 'location': {'lat': 34.23422, 'lng': 108.920464}, 'address': '陕西省西安市雁塔区光华路', 'province': '陕西省', 'city': '西安市', 'area': '雁塔区', 'street_id': 'c080e54eec155813c9fa5f04', 'detail': 1, 'uid': 'c080e54eec155813c9fa5f04', 'detail_info': {'tag': '运动健身;体育场馆', 'type': 'life', 'detail_url': 'http://api.map.baidu.com/place/detail?uid=c080e54eec155813c9fa5f04&output=html&source=placeapi_v2', 'overall_rating': '4.0', 'image_num': '3', 'comment_num': '4', 'children': []}}"
"{'name': '西电游泳馆', 'location': {'lat': 34.23422, 'lng': 108.920464}, 'address': '陕西省西安市雁塔区光华路', 'province': '陕西省', 'city': '西安市', 'area': '雁塔区', 'street_id': 'c080e54eec155813c9fa5f04', 'detail': 1, 'uid': 'c080e54eec155813c9fa5f04', 'detail_info': {'tag': '运动健身;体育场馆', 'type': 'life', 'detail_url': 'http://api.map.baidu.com/place/detail?uid=c080e54eec155813c9fa5f04&output=html&source=placeapi_v2', 'overall_rating': '4.0', 'image_num': '3', 'comment_num': '4', 'children': []}}"
瑞龙跆拳道俱乐部,108.93089224919254,34.20488050750713,b41ce8398b7ef22d7ab55cde,"{'name': '瑞龙跆拳道俱乐部', 'location': {'lat': 34.209355, 'lng': 108.942}, 'address': '陕西省西安市雁塔区明德门小区(南区)三棵树超市隔壁', 'province': '陕西省', 'city': '西安市', 'area': '雁塔区', 'street_id': 'b41ce8398b7ef22d7ab55cde', 'telephone': '13363944316', 'detail': 1, 'uid': 'b41ce8398b7ef22d7ab55cde', 'detail_info': {'tag': '运动健身;体育场馆', 'type': 'life', 'detail_url': 'http://api.map.baidu.com/place/detail?uid=b41ce8398b7ef22d7ab55cde&output=html&source=placeapi_v2', 'overall_rating': '4.5', 'image_num': '56', 'comment_num': '6', 'children': []}}"
"{'name': '瑞龙跆拳道俱乐部', 'location': {'lat': 34.209355, 'lng': 108.942}, 'address': '陕西省西安市雁塔区明德门小区(南区)三棵树超市隔壁', 'province': '陕西省', 'city': '西安市', 'area': '雁塔区', 'street_id': 'b41ce8398b7ef22d7ab55cde', 'telephone': '13363944316', 'detail': 1, 'uid': 'b41ce8398b7ef22d7ab55cde', 'detail_info': {'tag': '运动健身;体育场馆', 'type': 'life', 'detail_url': 'http://api.map.baidu.com/place/detail?uid=b41ce8398b7ef22d7ab55cde&output=html&source=placeapi_v2', 'overall_rating': '4.5', 'image_num': '56', 'comment_num': '6', 'children': []}}"
西安广成大酒店-游泳馆,108.90587626493094,34.25583277391757,044071bee721562b15a19088,"{'name': '西安广成大酒店-游泳馆', 'location': {'lat': 34.259932, 'lng': 108.917063}, 'address': '劳动南路中段101号西安广成大酒店5层', 'province': '陕西省', 'city': '西安市', 'area': '莲湖区', 'street_id': '044071bee721562b15a19088', 'telephone': '(029)89138888', 'detail': 1, 'uid': '044071bee721562b15a19088', 'detail_info': {'tag': '运动健身;体育场馆', 'navi_location': {'lng': 108.91693797903, 'lat': 34.259891370732}, 'type': 'life', 'detail_url': 'http://api.map.baidu.com/place/detail?uid=044071bee721562b15a19088&output=html&source=placeapi_v2', 'overall_rating': '2.1', 'image_num': '1', 'comment_num': '1', 'children': []}}"
"{'name': '西安广成大酒店-游泳馆', 'location': {'lat': 34.259932, 'lng': 108.917063}, 'address': '劳动南路中段101号西安广成大酒店5层', 'province': '陕西省', 'city': '西安市', 'area': '莲湖区', 'street_id': '044071bee721562b15a19088', 'telephone': '(029)89138888', 'detail': 1, 'uid': '044071bee721562b15a19088', 'detail_info': {'tag': '运动健身;体育场馆', 'navi_location': {'lng': 108.91693797903, 'lat': 34.259891370732}, 'type': 'life', 'detail_url': 'http://api.map.baidu.com/place/detail?uid=044071bee721562b15a19088&output=html&source=placeapi_v2', 'overall_rating': '2.1', 'image_num': '1', 'comment_num': '1', 'children': []}}"
I Do舞蹈工作室,108.87210446308295,34.23773163140738,08430aebacde264e6d476013,"{'name': 'I Do舞蹈工作室', 'location': {'lat': 34.242004, 'lng': 108.883243}, 'address': '陕西省西安市雁塔区高新区高新六路北口米罗蓝山小区C1栋一单元1106室(科技路西口华润万家超市)', 'province': '陕西省', 'city': '西安市', 'area': '雁塔区', 'street_id': '08430aebacde264e6d476013', 'detail': 1, 'uid': '08430aebacde264e6d476013', 'detail_info': {'tag': '运动健身;健身中心', 'type': 'life', 'detail_url': 'http://api.map.baidu.com/place/detail?uid=08430aebacde264e6d476013&output=html&source=placeapi_v2', 'image_num': '1', 'children': []}}"
"{'name': 'I Do舞蹈工作室', 'location': {'lat': 34.242004, 'lng': 108.883243}, 'address': '陕西省西安市雁塔区高新区高新六路北口米罗蓝山小区C1栋一单元1106室(科技路西口华润万家超市)', 'province': '陕西省', 'city': '西安市', 'area': '雁塔区', 'street_id': '08430aebacde264e6d476013', 'detail': 1, 'uid': '08430aebacde264e6d476013', 'detail_info': {'tag': '运动健身;健身中心', 'type': 'life', 'detail_url': 'http://api.map.baidu.com/place/detail?uid=08430aebacde264e6d476013&output=html&source=placeapi_v2', 'image_num': '1', 'children': []}}"
一汽大众用户体育健身中心,108.88791949239611,34.253575392422505,d8e13453ffb62c54ab175ad0,"{'name': '一汽大众用户体育健身中心', 'location': {'lat': 34.25765, 'lng': 108.899105}, 'address': '陕西省西安市莲湖区丰庆路358号西安莲湖海空医院附近', 'province': '陕西省', 'city': '西安市', 'area': '莲湖区', 'street_id': 'd8e13453ffb62c54ab175ad0', 'detail': 1, 'uid': 'd8e13453ffb62c54ab175ad0', 'detail_info': {'tag': '运动健身;健身中心', 'type': 'life', 'detail_url': 'http://api.map.baidu.com/place/detail?uid=d8e13453ffb62c54ab175ad0&output=html&source=placeapi_v2', 'image_num': '1', 'children': []}}"
"{'name': '一汽大众用户体育健身中心', 'location': {'lat': 34.25765, 'lng': 108.899105}, 'address': '陕西省西安市莲湖区丰庆路358号西安莲湖海空医院附近', 'province': '陕西省', 'city': '西安市', 'area': '莲湖区', 'street_id': 'd8e13453ffb62c54ab175ad0', 'detail': 1, 'uid': 'd8e13453ffb62c54ab175ad0', 'detail_info': {'tag': '运动健身;健身中心', 'type': 'life', 'detail_url': 'http://api.map.baidu.com/place/detail?uid=d8e13453ffb62c54ab175ad0&output=html&source=placeapi_v2', 'image_num': '1', 'children': []}}"
唐越轮滑俱乐部,108.85104979769409,34.24548088330806,32563d24353f265ff42310dc,"{'name': '唐越轮滑俱乐部', 'location': {'lat': 34.250119, 'lng': 108.8621}, 'address': '西安市雁塔区大寨路南150米', 'province': '陕西省', 'city': '西安市', 'area': '雁塔区', 'detail': 1, 'uid': '32563d24353f265ff42310dc', 'detail_info': {'tag': '运动健身;体育场馆', 'type': 'life', 'detail_url': 'http://api.map.baidu.com/place/detail?uid=32563d24353f265ff42310dc&output=html&source=placeapi_v2', 'image_num': '1', 'children': []}}"
"{'name': '唐越轮滑俱乐部', 'location': {'lat': 34.250119, 'lng': 108.8621}, 'address': '西安市雁塔区大寨路南150米', 'province': '陕西省', 'city': '西安市', 'area': '雁塔区', 'detail': 1, 'uid': '32563d24353f265ff42310dc', 'detail_info': {'tag': '运动健身;体育场馆', 'type': 'life', 'detail_url': 'http://api.map.baidu.com/place/detail?uid=32563d24353f265ff42310dc&output=html&source=placeapi_v2', 'image_num': '1', 'children': []}}"
西北大学-体育馆,108.92263427500266,34.25084783806139,51e5b10525d320c0f32d83bd,"{'name': '西北大学-体育馆', 'location': {'lat': 34.255191, 'lng': 108.933778}, 'address': '环城南路西段', 'province': '陕西省', 'city': '西安市', 'area': '碑林区', 'street_id': '51e5b10525d320c0f32d83bd', 'detail': 1, 'uid': '51e5b10525d320c0f32d83bd', 'detail_info': {'tag': '运动健身;体育场馆', 'type': 'life', 'detail_url': 'http://api.map.baidu.com/place/detail?uid=51e5b10525d320c0f32d83bd&output=html&source=placeapi_v2', 'overall_rating': '3.0', 'image_num': '1', 'comment_num': '0', 'children': []}}"
"{'name': '西北大学-体育馆', 'location': {'lat': 34.255191, 'lng': 108.933778}, 'address': '环城南路西段', 'province': '陕西省', 'city': '西安市', 'area': '碑林区', 'street_id': '51e5b10525d320c0f32d83bd', 'detail': 1, 'uid': '51e5b10525d320c0f32d83bd', 'detail_info': {'tag': '运动健身;体育场馆', 'type': 'life', 'detail_url': 'http://api.map.baidu.com/place/detail?uid=51e5b10525d320c0f32d83bd&output=html&source=placeapi_v2', 'overall_rating': '3.0', 'image_num': '1', 'comment_num': '0', 'children': []}}"
即刻健身运动馆,108.86907301457558,34.223764663690474,8cb332f54376d6eb3010af12,"{'name': '即刻健身运动馆', 'location': {'lat': 34.228085, 'lng': 108.880196}, 'address': '西安市雁塔区城市风景夏日景色8号楼', 'province': '陕西省', 'city': '西安市', 'area': '雁塔区', 'street_id': '8cb332f54376d6eb3010af12', 'telephone': '15929909724', 'detail': 1, 'uid': '8cb332f54376d6eb3010af12', 'detail_info': {'tag': '运动健身;健身中心', 'type': 'life', 'detail_url': 'http://api.map.baidu.com/place/detail?uid=8cb332f54376d6eb3010af12&output=html&source=placeapi_v2', 'image_num': '6', 'children': []}}"
"{'name': '即刻健身运动馆', 'location': {'lat': 34.228085, 'lng': 108.880196}, 'address': '西安市雁塔区城市风景夏日景色8号楼', 'province': '陕西省', 'city': '西安市', 'area': '雁塔区', 'street_id': '8cb332f54376d6eb3010af12', 'telephone': '15929909724', 'detail': 1, 'uid': '8cb332f54376d6eb3010af12', 'detail_info': {'tag': '运动健身;健身中心', 'type': 'life', 'detail_url': 'http://api.map.baidu.com/place/detail?uid=8cb332f54376d6eb3010af12&output=html&source=placeapi_v2', 'image_num': '6', 'children': []}}"
爱多多婴幼儿游泳生活馆,108.8481630509022,34.20031959827525,1d8522184bb31c148d772722,"{'name': '爱多多婴幼儿游泳生活馆', 'location': {'lat': 34.204975, 'lng': 108.859188}, 'address': '陕西省西安市雁塔区高新区丈八西路余家庄11排', 'province': '陕西省', 'city': '西安市', 'area': '雁塔区', 'street_id': '1d8522184bb31c148d772722', 'telephone': '13259921536', 'detail': 1, 'uid': '1d8522184bb31c148d772722', 'detail_info': {'tag': '运动健身;体育场馆', 'type': 'life', 'detail_url': 'http://api.map.baidu.com/place/detail?uid=1d8522184bb31c148d772722&output=html&source=placeapi_v2', 'image_num': '4', 'comment_num': '1', 'children': []}}"
"{'name': '爱多多婴幼儿游泳生活馆', 'location': {'lat': 34.204975, 'lng': 108.859188}, 'address': '陕西省西安市雁塔区高新区丈八西路余家庄11排', 'province': '陕西省', 'city': '西安市', 'area': '雁塔区', 'street_id': '1d8522184bb31c148d772722', 'telephone': '13259921536', 'detail': 1, 'uid': '1d8522184bb31c148d772722', 'detail_info': {'tag': '运动健身;体育场馆', 'type': 'life', 'detail_url': 'http://api.map.baidu.com/place/detail?uid=1d8522184bb31c148d772722&output=html&source=placeapi_v2', 'image_num': '4', 'comment_num': '1', 'children': []}}"
高茨游泳健身会所,108.86646669994172,34.192667720606245,c0fcff0c40dae8c6c61b75ec,"{'name': '高茨游泳健身会所', 'location': {'lat': 34.197017, 'lng': 108.877549}, 'address': '高新区锦业一路56号', 'province': '陕西省', 'city': '西安市', 'area': '雁塔区', 'street_id': 'c0fcff0c40dae8c6c61b75ec', 'detail': 1, 'uid': 'c0fcff0c40dae8c6c61b75ec', 'detail_info': {'tag': '运动健身;健身中心', 'type': 'life', 'detail_url': 'http://api.map.baidu.com/place/detail?uid=c0fcff0c40dae8c6c61b75ec&output=html&source=placeapi_v2', 'image_num': '3', 'comment_num': '1', 'children': []}}"
"{'name': '高茨游泳健身会所', 'location': {'lat': 34.197017, 'lng': 108.877549}, 'address': '高新区锦业一路56号', 'province': '陕西省', 'city': '西安市', 'area': '雁塔区', 'street_id': 'c0fcff0c40dae8c6c61b75ec', 'detail': 1, 'uid': 'c0fcff0c40dae8c6c61b75ec', 'detail_info': {'tag': '运动健身;健身中心', 'type': 'life', 'detail_url': 'http://api.map.baidu.com/place/detail?uid=c0fcff0c40dae8c6c61b75ec&output=html&source=placeapi_v2', 'image_num': '3', 'comment_num': '1', 'children': []}}"
阳光跆拳道,108.86378101615288,34.17125528167792,ad3ac5653ed0611f8a2fb54c,"{'name': '阳光跆拳道', 'location': {'lat': 34.175644, 'lng': 108.874839}, 'address': '博士路阳光天地5号楼3层', 'province': '陕西省', 'city': '西安市', 'area': '长安区', 'street_id': 'ad3ac5653ed0611f8a2fb54c', 'detail': 1, 'uid': 'ad3ac5653ed0611f8a2fb54c', 'detail_info': {'tag': '运动健身;体育场馆', 'type': 'life', 'detail_url': 'http://api.map.baidu.com/place/detail?uid=ad3ac5653ed0611f8a2fb54c&output=html&source=placeapi_v2', 'price': '86.5', 'image_num': '29', 'comment_num': '6', 'children': []}}"
"{'name': '阳光跆拳道', 'location': {'lat': 34.175644, 'lng': 108.874839}, 'address': '博士路阳光天地5号楼3层', 'province': '陕西省', 'city': '西安市', 'area': '长安区', 'street_id': 'ad3ac5653ed0611f8a2fb54c', 'detail': 1, 'uid': 'ad3ac5653ed0611f8a2fb54c', 'detail_info': {'tag': '运动健身;体育场馆', 'type': 'life', 'detail_url': 'http://api.map.baidu.com/place/detail?uid=ad3ac5653ed0611f8a2fb54c&output=html&source=placeapi_v2', 'price': '86.5', 'image_num': '29', 'comment_num': '6', 'children': []}}"
JOY桌球俱乐部,108.85868881112374,34.18032199527846,1f961649fcaf068ac4f50dcf,"{'name': 'JOY桌球俱乐部', 'location': {'lat': 34.184806, 'lng': 108.869728}, 'address': '丈八五路付村小学以南民都购物门口往南50米', 'province': '陕西省', 'city': '西安市', 'area': '长安区', 'street_id': '1f961649fcaf068ac4f50dcf', 'detail': 1, 'uid': '1f961649fcaf068ac4f50dcf', 'detail_info': {'tag': '运动健身;体育场馆', 'navi_location': {'lng': 108.87049281019, 'lat': 34.185712048586}, 'type': 'life', 'detail_url': 'http://api.map.baidu.com/place/detail?uid=1f961649fcaf068ac4f50dcf&output=html&source=placeapi_v2', 'image_num': '12', 'comment_num': '1', 'children': []}}"
"{'name': 'JOY桌球俱乐部', 'location': {'lat': 34.184806, 'lng': 108.869728}, 'address': '丈八五路付村小学以南民都购物门口往南50米', 'province': '陕西省', 'city': '西安市', 'area': '长安区', 'street_id': '1f961649fcaf068ac4f50dcf', 'detail': 1, 'uid': '1f961649fcaf068ac4f50dcf', 'detail_info': {'tag': '运动健身;体育场馆', 'navi_location': {'lng': 108.87049281019, 'lat': 34.185712048586}, 'type': 'life', 'detail_url': 'http://api.map.baidu.com/place/detail?uid=1f961649fcaf068ac4f50dcf&output=html&source=placeapi_v2', 'image_num': '12', 'comment_num': '1', 'children': []}}"
陕西省体育训练中心-足球场,108.88102974909859,34.202586198245335,ab862cce66489e4a0bf5ebf0,"{'name': '陕西省体育训练中心-足球场', 'location': {'lat': 34.206707, 'lng': 108.892184}, 'address': '陕西省西安市雁塔区唐延路303号', 'province': '陕西省', 'city': '西安市', 'area': '雁塔区', 'street_id': 'ab862cce66489e4a0bf5ebf0', 'detail': 1, 'uid': 'ab862cce66489e4a0bf5ebf0', 'detail_info': {'tag': '运动健身;体育场馆', 'type': 'life', 'detail_url': 'http://api.map.baidu.com/place/detail?uid=ab862cce66489e4a0bf5ebf0&output=html&source=placeapi_v2', 'image_num': '1', 'children': []}}"
"{'name': '陕西省体育训练中心-足球场', 'location': {'lat': 34.206707, 'lng': 108.892184}, 'address': '陕西省西安市雁塔区唐延路303号', 'province': '陕西省', 'city': '西安市', 'area': '雁塔区', 'street_id': 'ab862cce66489e4a0bf5ebf0', 'detail': 1, 'uid': 'ab862cce66489e4a0bf5ebf0', 'detail_info': {'tag': '运动健身;体育场馆', 'type': 'life', 'detail_url': 'http://api.map.baidu.com/place/detail?uid=ab862cce66489e4a0bf5ebf0&output=html&source=placeapi_v2', 'image_num': '1', 'children': []}}"
西北工业大学-篮球场网球场,108.91425433062575,34.246412058938404,1ae115044359d0d5c9e33cf3,"{'name': '西北工业大学-篮球场网球场', 'location': {'lat': 34.250614, 'lng': 108.925428}, 'address': '友谊西路127号', 'province': '陕西省', 'city': '西安市', 'area': '碑林区', 'street_id': '1ae115044359d0d5c9e33cf3', 'detail': 1, 'uid': '1ae115044359d0d5c9e33cf3', 'detail_info': {'tag': '运动健身;体育场馆', 'type': 'life', 'detail_url': 'http://api.map.baidu.com/place/detail?uid=1ae115044359d0d5c9e33cf3&output=html&source=placeapi_v2', 'image_num': '1', 'children': []}}"
"{'name': '西北工业大学-篮球场网球场', 'location': {'lat': 34.250614, 'lng': 108.925428}, 'address': '友谊西路127号', 'province': '陕西省', 'city': '西安市', 'area': '碑林区', 'street_id': '1ae115044359d0d5c9e33cf3', 'detail': 1, 'uid': '1ae115044359d0d5c9e33cf3', 'detail_info': {'tag': '运动健身;体育场馆', 'type': 'life', 'detail_url': 'http://api.map.baidu.com/place/detail?uid=1ae115044359d0d5c9e33cf3&output=html&source=placeapi_v2', 'image_num': '1', 'children': []}}"
艾游游泳俱乐部,108.87893929738146,34.19607398181567,0227b5652e67ba44c4f50dc9,"{'name': '艾游游泳俱乐部', 'location': {'lat': 34.200218, 'lng': 108.890079}, 'address': '西安市高新区丈八东路与锦业路十字绿地假日酒店4楼', 'province': '陕西省', 'city': '西安市', 'area': '雁塔区', 'street_id': '0227b5652e67ba44c4f50dc9', 'detail': 1, 'uid': '0227b5652e67ba44c4f50dc9', 'detail_info': {'tag': '运动健身;体育场馆', 'type': 'life', 'detail_url': 'http://api.map.baidu.com/place/detail?uid=0227b5652e67ba44c4f50dc9&output=html&source=placeapi_v2', 'image_num': '32', 'comment_num': '4', 'children': []}}"
"{'name': '艾游游泳俱乐部', 'location': {'lat': 34.200218, 'lng': 108.890079}, 'address': '西安市高新区丈八东路与锦业路十字绿地假日酒店4楼', 'province': '陕西省', 'city': '西安市', 'area': '雁塔区', 'street_id': '0227b5652e67ba44c4f50dc9', 'detail': 1, 'uid': '0227b5652e67ba44c4f50dc9', 'detail_info': {'tag': '运动健身;体育场馆', 'type': 'life', 'detail_url': 'http://api.map.baidu.com/place/detail?uid=0227b5652e67ba44c4f50dc9&output=html&source=placeapi_v2', 'image_num': '32', 'comment_num': '4', 'children': []}}"
七彩花舞蹈培训,108.86975372197743,34.242426384939726,44796001847d7c45110daa05,"{'name': '七彩花舞蹈培训', 'location': {'lat': 34.246741, 'lng': 108.88088}, 'address': '陕西省西安市雁塔区科技北路(新兴大厦3楼310室)', 'province': '陕西省', 'city': '西安市', 'area': '雁塔区', 'street_id': '44796001847d7c45110daa05', 'telephone': '13572915005', 'detail': 1, 'uid': '44796001847d7c45110daa05', 'detail_info': {'tag': '教育培训;培训机构', 'type': 'life', 'detail_url': 'http://api.map.baidu.com/place/detail?uid=44796001847d7c45110daa05&output=html&source=placeapi_v2', 'image_num': '5', 'children': []}}"
"{'name': '七彩花舞蹈培训', 'location': {'lat': 34.246741, 'lng': 108.88088}, 'address': '陕西省西安市雁塔区科技北路(新兴大厦3楼310室)', 'province': '陕西省', 'city': '西安市', 'area': '雁塔区', 'street_id': '44796001847d7c45110daa05', 'telephone': '13572915005', 'detail': 1, 'uid': '44796001847d7c45110daa05', 'detail_info': {'tag': '教育培训;培训机构', 'type': 'life', 'detail_url': 'http://api.map.baidu.com/place/detail?uid=44796001847d7c45110daa05&output=html&source=placeapi_v2', 'image_num': '5', 'children': []}}"
西安文理学院-游泳池,108.903054087066,34.21662814486441,a5106cff6488ac62f90cad79,"{'name': '西安文理学院-游泳池', 'location': {'lat': 34.220692, 'lng': 108.914249}, 'address': '西安文理学院内', 'province': '陕西省', 'city': '西安市', 'area': '雁塔区', 'street_id': 'a5106cff6488ac62f90cad79', 'detail': 1, 'uid': 'a5106cff6488ac62f90cad79', 'detail_info': {'tag': '运动健身;体育场馆', 'type': 'life', 'detail_url': 'http://api.map.baidu.com/place/detail?uid=a5106cff6488ac62f90cad79&output=html&source=placeapi_v2', 'overall_rating': '3.5', 'image_num': '3', 'comment_num': '5', 'children': []}}"
"{'name': '西安文理学院-游泳池', 'location': {'lat': 34.220692, 'lng': 108.914249}, 'address': '西安文理学院内', 'province': '陕西省', 'city': '西安市', 'area': '雁塔区', 'street_id': 'a5106cff6488ac62f90cad79', 'detail': 1, 'uid': 'a5106cff6488ac62f90cad79', 'detail_info': {'tag': '运动健身;体育场馆', 'type': 'life', 'detail_url': 'http://api.map.baidu.com/place/detail?uid=a5106cff6488ac62f90cad79&output=html&source=placeapi_v2', 'overall_rating': '3.5', 'image_num': '3', 'comment_num': '5', 'children': []}}"
标力桌球俱乐部(鱼化店),108.85856390688421,34.23472348844235,9623e33d27f09cc9260bd096,"{'name': '标力桌球俱乐部(鱼化店)', 'location': {'lat': 34.239239, 'lng': 108.869643}, 'address': '鱼化街亚辰火锅楼上,邮局东100米路南5楼', 'province': '陕西省', 'city': '西安市', 'area': '雁塔区', 'street_id': '9623e33d27f09cc9260bd096', 'telephone': '(029)88692566', 'detail': 1, 'uid': '9623e33d27f09cc9260bd096', 'detail_info': {'tag': '运动健身;体育场馆', 'type': 'life', 'detail_url': 'http://api.map.baidu.com/place/detail?uid=9623e33d27f09cc9260bd096&output=html&source=placeapi_v2', 'price': '31', 'overall_rating': '3.5', 'image_num': '7', 'comment_num': '1', 'children': []}}"
"{'name': '标力桌球俱乐部(鱼化店)', 'location': {'lat': 34.239239, 'lng': 108.869643}, 'address': '鱼化街亚辰火锅楼上,邮局东100米路南5楼', 'province': '陕西省', 'city': '西安市', 'area': '雁塔区', 'street_id': '9623e33d27f09cc9260bd096', 'telephone': '(029)88692566', 'detail': 1, 'uid': '9623e33d27f09cc9260bd096', 'detail_info': {'tag': '运动健身;体育场馆', 'type': 'life', 'detail_url': 'http://api.map.baidu.com/place/detail?uid=9623e33d27f09cc9260bd096&output=html&source=placeapi_v2', 'price': '31', 'overall_rating': '3.5', 'image_num': '7', 'comment_num': '1', 'children': []}}"
西安鑫奥体篮球俱乐部(西安石油大学),108.92369179579632,34.21362609874745,4edbdb7caefb7ea38bfc064e,"{'name': '西安鑫奥体篮球俱乐部(西安石油大学)', 'location': {'lat': 34.217975, 'lng': 108.93483}, 'address': '陕西省西安市雁塔区电子二路东段18号', 'province': '陕西省', 'city': '西安市', 'area': '雁塔区', 'street_id': '4edbdb7caefb7ea38bfc064e', 'detail': 1, 'uid': '4edbdb7caefb7ea38bfc064e', 'detail_info': {'tag': '运动健身;体育场馆', 'type': 'life', 'detail_url': 'http://api.map.baidu.com/place/detail?uid=4edbdb7caefb7ea38bfc064e&output=html&source=placeapi_v2', 'image_num': '1', 'children': []}}"
"{'name': '西安鑫奥体篮球俱乐部(西安石油大学)', 'location': {'lat': 34.217975, 'lng': 108.93483}, 'address': '陕西省西安市雁塔区电子二路东段18号', 'province': '陕西省', 'city': '西安市', 'area': '雁塔区', 'street_id': '4edbdb7caefb7ea38bfc064e', 'detail': 1, 'uid': '4edbdb7caefb7ea38bfc064e', 'detail_info': {'tag': '运动健身;体育场馆', 'type': 'life', 'detail_url': 'http://api.map.baidu.com/place/detail?uid=4edbdb7caefb7ea38bfc064e&output=html&source=placeapi_v2', 'image_num': '1', 'children': []}}"
力博跆拳道(世家星城馆),108.9235560980745,34.198251672675326,34cb0b97a45a3530b03c8163,"{'name': '力博跆拳道(世家星城馆)', 'location': {'lat': 34.202588, 'lng': 108.934679}, 'address': '东仪路通信学院商铺二楼', 'province': '陕西省', 'city': '西安市', 'area': '雁塔区', 'street_id': '34cb0b97a45a3530b03c8163', 'telephone': '18192388815,(029)85458359', 'detail': 1, 'uid': '34cb0b97a45a3530b03c8163', 'detail_info': {'tag': '运动健身;体育场馆', 'type': 'life', 'detail_url': 'http://api.map.baidu.com/place/detail?uid=34cb0b97a45a3530b03c8163&output=html&source=placeapi_v2', 'image_num': '6', 'children': []}}"
"{'name': '力博跆拳道(世家星城馆)', 'location': {'lat': 34.202588, 'lng': 108.934679}, 'address': '东仪路通信学院商铺二楼', 'province': '陕西省', 'city': '西安市', 'area': '雁塔区', 'street_id': '34cb0b97a45a3530b03c8163', 'telephone': '18192388815,(029)85458359', 'detail': 1, 'uid': '34cb0b97a45a3530b03c8163', 'detail_info': {'tag': '运动健身;体育场馆', 'type': 'life', 'detail_url': 'http://api.map.baidu.com/place/detail?uid=34cb0b97a45a3530b03c8163&output=html&source=placeapi_v2', 'image_num': '6', 'children': []}}"
西安电子科技大学-体育运动中心,108.91149147194956,34.23386647114028,d82d6697879a77a6d518b75a,"{'name': '西安电子科技大学-体育运动中心', 'location': {'lat': 34.238026, 'lng': 108.922677}, 'address': '西安电子科技大学北校区内', 'province': '陕西省', 'city': '西安市', 'area': '雁塔区', 'street_id': 'd82d6697879a77a6d518b75a', 'detail': 1, 'uid': 'd82d6697879a77a6d518b75a', 'detail_info': {'tag': '教育培训;培训机构', 'type': 'life', 'detail_url': 'http://api.map.baidu.com/place/detail?uid=d82d6697879a77a6d518b75a&output=html&source=placeapi_v2', 'overall_rating': '0.0', 'image_num': '2', 'children': []}}"
"{'name': '西安电子科技大学-体育运动中心', 'location': {'lat': 34.238026, 'lng': 108.922677}, 'address': '西安电子科技大学北校区内', 'province': '陕西省', 'city': '西安市', 'area': '雁塔区', 'street_id': 'd82d6697879a77a6d518b75a', 'detail': 1, 'uid': 'd82d6697879a77a6d518b75a', 'detail_info': {'tag': '教育培训;培训机构', 'type': 'life', 'detail_url': 'http://api.map.baidu.com/place/detail?uid=d82d6697879a77a6d518b75a&output=html&source=placeapi_v2', 'overall_rating': '0.0', 'image_num': '2', 'children': []}}"
德蕙瑜伽,108.9143329205855,34.218576840283916,3b0b7ae55c96c774badf8fde,"{'name': '德蕙瑜伽', 'location': {'lat': 34.22277, 'lng': 108.925505}, 'address': '电子一路紫薇大大厦4单元302室', 'province': '陕西省', 'city': '西安市', 'area': '雁塔区', 'street_id': '3b0b7ae55c96c774badf8fde', 'detail': 1, 'uid': '3b0b7ae55c96c774badf8fde', 'detail_info': {'tag': '运动健身;健身中心', 'type': 'life', 'detail_url': 'http://api.map.baidu.com/place/detail?uid=3b0b7ae55c96c774badf8fde&output=html&source=placeapi_v2', 'overall_rating': '4.2', 'image_num': '18', 'comment_num': '2', 'children': []}}"
"{'name': '德蕙瑜伽', 'location': {'lat': 34.22277, 'lng': 108.925505}, 'address': '电子一路紫薇大大厦4单元302室', 'province': '陕西省', 'city': '西安市', 'area': '雁塔区', 'street_id': '3b0b7ae55c96c774badf8fde', 'detail': 1, 'uid': '3b0b7ae55c96c774badf8fde', 'detail_info': {'tag': '运动健身;健身中心', 'type': 'life', 'detail_url': 'http://api.map.baidu.com/place/detail?uid=3b0b7ae55c96c774badf8fde&output=html&source=placeapi_v2', 'overall_rating': '4.2', 'image_num': '18', 'comment_num': '2', 'children': []}}"
博剑跆拳道俱乐部,108.90118505359038,34.22484734361846,128bb05c941f6bdaa0acc47d,"{'name': '博剑跆拳道俱乐部', 'location': {'lat': 34.228904, 'lng': 108.912387}, 'address': '西安市雁塔区博文路11号双威温馨花园北门', 'province': '陕西省', 'city': '西安市', 'area': '雁塔区', 'street_id': '128bb05c941f6bdaa0acc47d', 'telephone': '13679294011', 'detail': 1, 'uid': '128bb05c941f6bdaa0acc47d', 'detail_info': {'tag': '运动健身;体育场馆', 'navi_location': {'lng': 108.91249278787, 'lat': 34.229061302189}, 'type': 'life', 'detail_url': 'http://api.map.baidu.com/place/detail?uid=128bb05c941f6bdaa0acc47d&output=html&source=placeapi_v2', 'overall_rating': '5.0', 'image_num': '92', 'comment_num': '8', 'children': []}}"
"{'name': '博剑跆拳道俱乐部', 'location': {'lat': 34.228904, 'lng': 108.912387}, 'address': '西安市雁塔区博文路11号双威温馨花园北门', 'province': '陕西省', 'city': '西安市', 'area': '雁塔区', 'street_id': '128bb05c941f6bdaa0acc47d', 'telephone': '13679294011', 'detail': 1, 'uid': '128bb05c941f6bdaa0acc47d', 'detail_info': {'tag': '运动健身;体育场馆', 'navi_location': {'lng': 108.91249278787, 'lat': 34.229061302189}, 'type': 'life', 'detail_url': 'http://api.map.baidu.com/place/detail?uid=128bb05c941f6bdaa0acc47d&output=html&source=placeapi_v2', 'overall_rating': '5.0', 'image_num': '92', 'comment_num': '8', 'children': []}}"
新时代游泳俱乐部(兰乔圣菲店),108.9016063412019,34.20925291561765,b16bb2509017e2bc6849f33e,"{'name': '新时代游泳俱乐部(兰乔圣菲店)', 'location': {'lat': 34.213303, 'lng': 108.912796}, 'address': '电子三路兰乔圣菲', 'province': '陕西省', 'city': '西安市', 'area': '雁塔区', 'street_id': 'b16bb2509017e2bc6849f33e', 'detail': 1, 'uid': 'b16bb2509017e2bc6849f33e', 'detail_info': {'tag': '运动健身;体育场馆', 'navi_location': {'lng': 108.91281731331, 'lat': 34.214032983631}, 'type': 'life', 'detail_url': 'http://api.map.baidu.com/place/detail?uid=b16bb2509017e2bc6849f33e&output=html&source=placeapi_v2', 'price': '35', 'overall_rating': '4.5', 'image_num': '2', 'comment_num': '2', 'children': []}}"
"{'name': '新时代游泳俱乐部(兰乔圣菲店)', 'location': {'lat': 34.213303, 'lng': 108.912796}, 'address': '电子三路兰乔圣菲', 'province': '陕西省', 'city': '西安市', 'area': '雁塔区', 'street_id': 'b16bb2509017e2bc6849f33e', 'detail': 1, 'uid': 'b16bb2509017e2bc6849f33e', 'detail_info': {'tag': '运动健身;体育场馆', 'navi_location': {'lng': 108.91281731331, 'lat': 34.214032983631}, 'type': 'life', 'detail_url': 'http://api.map.baidu.com/place/detail?uid=b16bb2509017e2bc6849f33e&output=html&source=placeapi_v2', 'price': '35', 'overall_rating': '4.5', 'image_num': '2', 'comment_num': '2', 'children': []}}"
西京社区体育健身俱乐部,108.90960773398167,34.21006673176276,87d898696ac41c08704b8728,"{'name': '西京社区体育健身俱乐部', 'location': {'lat': 34.21419, 'lng': 108.920785}, 'address': '陕西省西安市雁塔区电子城电子三路3号西京社区西区居委会二楼', 'province': '陕西省', 'city': '西安市', 'area': '雁塔区', 'street_id': '87d898696ac41c08704b8728', 'telephone': '(029)88255405', 'detail': 1, 'uid': '87d898696ac41c08704b8728', 'detail_info': {'tag': '运动健身;健身中心', 'navi_location': {'lng': 108.92106120132, 'lat': 34.214080593215}, 'type': 'life', 'detail_url': 'http://api.map.baidu.com/place/detail?uid=87d898696ac41c08704b8728&output=html&source=placeapi_v2', 'price': '300', 'overall_rating': '4.8', 'image_num': '100', 'comment_num': '31', 'children': []}}"
"{'name': '西京社区体育健身俱乐部', 'location': {'lat': 34.21419, 'lng': 108.920785}, 'address': '陕西省西安市雁塔区电子城电子三路3号西京社区西区居委会二楼', 'province': '陕西省', 'city': '西安市', 'area': '雁塔区', 'street_id': '87d898696ac41c08704b8728', 'telephone': '(029)88255405', 'detail': 1, 'uid': '87d898696ac41c08704b8728', 'detail_info': {'tag': '运动健身;健身中心', 'navi_location': {'lng': 108.92106120132, 'lat': 34.214080593215}, 'type': 'life', 'detail_url': 'http://api.map.baidu.com/place/detail?uid=87d898696ac41c08704b8728&output=html&source=placeapi_v2', 'price': '300', 'overall_rating': '4.8', 'image_num': '100', 'comment_num': '31', 'children': []}}"
海清健身俱乐部,108.86694904693128,34.23811175225954,f9ddb3299f41fe94f6c59c97,"{'name': '海清健身俱乐部', 'location': {'lat': 34.242476, 'lng': 108.878064}, 'address': '科技路西口天朗蓝湖树北门博雅眼镜二楼', 'province': '陕西省', 'city': '西安市', 'area': '雁塔区', 'street_id': 'f9ddb3299f41fe94f6c59c97', 'detail': 1, 'uid': 'f9ddb3299f41fe94f6c59c97', 'detail_info': {'tag': '运动健身;健身中心', 'type': 'life', 'detail_url': 'http://api.map.baidu.com/place/detail?uid=f9ddb3299f41fe94f6c59c97&output=html&source=placeapi_v2', 'image_num': '6', 'children': []}}"
"{'name': '海清健身俱乐部', 'location': {'lat': 34.242476, 'lng': 108.878064}, 'address': '科技路西口天朗蓝湖树北门博雅眼镜二楼', 'province': '陕西省', 'city': '西安市', 'area': '雁塔区', 'street_id': 'f9ddb3299f41fe94f6c59c97', 'detail': 1, 'uid': 'f9ddb3299f41fe94f6c59c97', 'detail_info': {'tag': '运动健身;健身中心', 'type': 'life', 'detail_url': 'http://api.map.baidu.com/place/detail?uid=f9ddb3299f41fe94f6c59c97&output=html&source=placeapi_v2', 'image_num': '6', 'children': []}}"
儿童游泳馆,108.92619482881213,34.211437685453575,7e5bf1441d9ca4ae283a9f4f,"{'name': '儿童游泳馆', 'location': {'lat': 34.215831, 'lng': 108.937323}, 'address': '含光南路华润万家1层', 'province': '陕西省', 'city': '西安市', 'area': '雁塔区', 'detail': 1, 'uid': '7e5bf1441d9ca4ae283a9f4f', 'detail_info': {'tag': '运动健身;体育场馆', 'type': 'life', 'detail_url': 'http://api.map.baidu.com/place/detail?uid=7e5bf1441d9ca4ae283a9f4f&output=html&source=placeapi_v2', 'image_num': '1', 'children': []}}"
"{'name': '儿童游泳馆', 'location': {'lat': 34.215831, 'lng': 108.937323}, 'address': '含光南路华润万家1层', 'province': '陕西省', 'city': '西安市', 'area': '雁塔区', 'detail': 1, 'uid': '7e5bf1441d9ca4ae283a9f4f', 'detail_info': {'tag': '运动健身;体育场馆', 'type': 'life', 'detail_url': 'http://api.map.baidu.com/place/detail?uid=7e5bf1441d9ca4ae283a9f4f&output=html&source=placeapi_v2', 'image_num': '1', 'children': []}}"
西北大学桃园校区-体育馆,108.89131181194918,34.24175640954989,85cb7f7d32face876018090d,"{'name': '西北大学桃园校区-体育馆', 'location': {'lat': 34.245811, 'lng': 108.902511}, 'address': '高新4路', 'province': '陕西省', 'city': '西安市', 'area': '雁塔区', 'street_id': '85cb7f7d32face876018090d', 'detail': 1, 'uid': '85cb7f7d32face876018090d', 'detail_info': {'tag': '运动健身;体育场馆', 'type': 'life', 'detail_url': 'http://api.map.baidu.com/place/detail?uid=85cb7f7d32face876018090d&output=html&source=placeapi_v2', 'overall_rating': '1.0', 'image_num': '1', 'comment_num': '2', 'children': []}}"
"{'name': '西北大学桃园校区-体育馆', 'location': {'lat': 34.245811, 'lng': 108.902511}, 'address': '高新4路', 'province': '陕西省', 'city': '西安市', 'area': '雁塔区', 'street_id': '85cb7f7d32face876018090d', 'detail': 1, 'uid': '85cb7f7d32face876018090d', 'detail_info': {'tag': '运动健身;体育场馆', 'type': 'life', 'detail_url': 'http://api.map.baidu.com/place/detail?uid=85cb7f7d32face876018090d&output=html&source=placeapi_v2', 'overall_rating': '1.0', 'image_num': '1', 'comment_num': '2', 'children': []}}"
婵静瑜伽(边家村店),108.92441855121277,34.24550216514458,7db83012d406b2872dfaa768,"{'name': '婵静瑜伽(边家村店)', 'location': {'lat': 34.249877, 'lng': 108.93556}, 'address': '边东街18号东泰城市之光外围商业街', 'province': '陕西省', 'city': '西安市', 'area': '碑林区', 'street_id': '77e7c98acaaa2315b4265566', 'telephone': '(029)68725581', 'detail': 1, 'uid': '7db83012d406b2872dfaa768', 'detail_info': {'tag': '运动健身;健身中心', 'type': 'life', 'detail_url': 'http://api.map.baidu.com/place/detail?uid=7db83012d406b2872dfaa768&output=html&source=placeapi_v2', 'price': '69', 'overall_rating': '4.3', 'image_num': '49', 'comment_num': '0', 'children': []}}"
"{'name': '婵静瑜伽(边家村店)', 'location': {'lat': 34.249877, 'lng': 108.93556}, 'address': '边东街18号东泰城市之光外围商业街', 'province': '陕西省', 'city': '西安市', 'area': '碑林区', 'street_id': '77e7c98acaaa2315b4265566', 'telephone': '(029)68725581', 'detail': 1, 'uid': '7db83012d406b2872dfaa768', 'detail_info': {'tag': '运动健身;健身中心', 'type': 'life', 'detail_url': 'http://api.map.baidu.com/place/detail?uid=7db83012d406b2872dfaa768&output=html&source=placeapi_v2', 'price': '69', 'overall_rating': '4.3', 'image_num': '49', 'comment_num': '0', 'children': []}}"
西安交通大学财经校区羽毛球场,108.9384032295457,34.218638630427954,4d3ce88d79db59f9725e809b,"{'name': '西安交通大学财经校区羽毛球场', 'location': {'lat': 34.223247, 'lng': 108.949508}, 'address': '雁塔西路76号西安交通大学雁塔校区', 'province': '陕西省', 'city': '西安市', 'area': '雁塔区', 'street_id': '4d3ce88d79db59f9725e809b', 'detail': 1, 'uid': '4d3ce88d79db59f9725e809b', 'detail_info': {'tag': '运动健身;体育场馆', 'type': 'life', 'detail_url': 'http://api.map.baidu.com/place/detail?uid=4d3ce88d79db59f9725e809b&output=html&source=placeapi_v2', 'image_num': '1', 'children': []}}"
"{'name': '西安交通大学财经校区羽毛球场', 'location': {'lat': 34.223247, 'lng': 108.949508}, 'address': '雁塔西路76号西安交通大学雁塔校区', 'province': '陕西省', 'city': '西安市', 'area': '雁塔区', 'street_id': '4d3ce88d79db59f9725e809b', 'detail': 1, 'uid': '4d3ce88d79db59f9725e809b', 'detail_info': {'tag': '运动健身;体育场馆', 'type': 'life', 'detail_url': 'http://api.map.baidu.com/place/detail?uid=4d3ce88d79db59f9725e809b&output=html&source=placeapi_v2', 'image_num': '1', 'children': []}}"
英志篮球训练营,108.92103977290665,34.213991533110686,88142c5676e4cd80f02d8304,"{'name': '英志篮球训练营', 'location': {'lat': 34.218293, 'lng': 108.932187}, 'address': '长延堡街道电子二路西安石油大学', 'province': '陕西省', 'city': '西安市', 'area': '雁塔区', 'street_id': '40906066eed413bab320a8d8', 'detail': 1, 'uid': '88142c5676e4cd80f02d8304', 'detail_info': {'tag': '运动健身;体育场馆', 'type': 'life', 'detail_url': 'http://api.map.baidu.com/place/detail?uid=88142c5676e4cd80f02d8304&output=html&source=placeapi_v2', 'image_num': '1', 'children': []}}"
"{'name': '英志篮球训练营', 'location': {'lat': 34.218293, 'lng': 108.932187}, 'address': '长延堡街道电子二路西安石油大学', 'province': '陕西省', 'city': '西安市', 'area': '雁塔区', 'street_id': '40906066eed413bab320a8d8', 'detail': 1, 'uid': '88142c5676e4cd80f02d8304', 'detail_info': {'tag': '运动健身;体育场馆', 'type': 'life', 'detail_url': 'http://api.map.baidu.com/place/detail?uid=88142c5676e4cd80f02d8304&output=html&source=placeapi_v2', 'image_num': '1', 'children': []}}"
阵风跆拳道,108.86430305568054,34.21967458277423,bdcfcb979978881c210220eb,"{'name': '阵风跆拳道', 'location': {'lat': 34.22408, 'lng': 108.875402}, 'address': '陕西省西安市雁塔区鸿基新城商业步行街', 'province': '陕西省', 'city': '西安市', 'area': '雁塔区', 'street_id': 'bdcfcb979978881c210220eb', 'detail': 1, 'uid': 'bdcfcb979978881c210220eb', 'detail_info': {'tag': '运动健身;体育场馆', 'type': 'life', 'detail_url': 'http://api.map.baidu.com/place/detail?uid=bdcfcb979978881c210220eb&output=html&source=placeapi_v2', 'image_num': '3', 'children': []}}"
"{'name': '阵风跆拳道', 'location': {'lat': 34.22408, 'lng': 108.875402}, 'address': '陕西省西安市雁塔区鸿基新城商业步行街', 'province': '陕西省', 'city': '西安市', 'area': '雁塔区', 'street_id': 'bdcfcb979978881c210220eb', 'detail': 1, 'uid': 'bdcfcb979978881c210220eb', 'detail_info': {'tag': '运动健身;体育场馆', 'type': 'life', 'detail_url': 'http://api.map.baidu.com/place/detail?uid=bdcfcb979978881c210220eb&output=html&source=placeapi_v2', 'image_num': '3', 'children': []}}"
西北大学太白校区游泳池,108.92484730989351,34.25052465258918,7989967302f63f6a373a7105,"{'name': '西北大学太白校区游泳池', 'location': {'lat': 34.254908, 'lng': 108.935984}, 'address': '太白北路229号西北大学太白校区', 'province': '陕西省', 'city': '西安市', 'area': '碑林区', 'street_id': '7989967302f63f6a373a7105', 'detail': 1, 'uid': '7989967302f63f6a373a7105', 'detail_info': {'tag': '运动健身;体育场馆', 'type': 'life', 'detail_url': 'http://api.map.baidu.com/place/detail?uid=7989967302f63f6a373a7105&output=html&source=placeapi_v2', 'image_num': '1', 'comment_num': '1', 'children': []}}"
"{'name': '西北大学太白校区游泳池', 'location': {'lat': 34.254908, 'lng': 108.935984}, 'address': '太白北路229号西北大学太白校区', 'province': '陕西省', 'city': '西安市', 'area': '碑林区', 'street_id': '7989967302f63f6a373a7105', 'detail': 1, 'uid': '7989967302f63f6a373a7105', 'detail_info': {'tag': '运动健身;体育场馆', 'type': 'life', 'detail_url': 'http://api.map.baidu.com/place/detail?uid=7989967302f63f6a373a7105&output=html&source=placeapi_v2', 'image_num': '1', 'comment_num': '1', 'children': []}}"
西安欧亚学院-田径场,108.91608027673483,34.17759031678108,bd6752fdcba240bab23c816e,"{'name': '西安欧亚学院-田径场', 'location': {'lat': 34.181786, 'lng': 108.927211}, 'address': '清凉山道与牧之路交叉口西北100米', 'province': '陕西省', 'city': '西安市', 'area': '长安区', 'detail': 1, 'uid': 'bd6752fdcba240bab23c816e', 'detail_info': {'tag': '运动健身;体育场馆', 'type': 'life', 'detail_url': 'http://api.map.baidu.com/place/detail?uid=bd6752fdcba240bab23c816e&output=html&source=placeapi_v2', 'overall_rating': '2.0', 'image_num': '1', 'comment_num': '1', 'children': []}}"
"{'name': '西安欧亚学院-田径场', 'location': {'lat': 34.181786, 'lng': 108.927211}, 'address': '清凉山道与牧之路交叉口西北100米', 'province': '陕西省', 'city': '西安市', 'area': '长安区', 'detail': 1, 'uid': 'bd6752fdcba240bab23c816e', 'detail_info': {'tag': '运动健身;体育场馆', 'type': 'life', 'detail_url': 'http://api.map.baidu.com/place/detail?uid=bd6752fdcba240bab23c816e&output=html&source=placeapi_v2', 'overall_rating': '2.0', 'image_num': '1', 'comment_num': '1', 'children': []}}"
陕西宾馆18号楼-乒乓球馆,108.8679344629938,34.205478542814056,722232c531ab7f5d047ce83b,"{'name': '陕西宾馆18号楼-乒乓球馆', 'location': {'lat': 34.209809, 'lng': 108.879037}, 'address': '丈八北路1号', 'province': '陕西省', 'city': '西安市', 'area': '雁塔区', 'street_id': '722232c531ab7f5d047ce83b', 'telephone': '(029)68899999', 'detail': 1, 'uid': '722232c531ab7f5d047ce83b', 'detail_info': {'tag': '运动健身;体育场馆', 'navi_location': {'lng': 108.87898876722, 'lat': 34.209505887184}, 'type': 'life', 'detail_url': 'http://api.map.baidu.com/place/detail?uid=722232c531ab7f5d047ce83b&output=html&source=placeapi_v2', 'image_num': '1', 'children': []}}"
"{'name': '陕西宾馆18号楼-乒乓球馆', 'location': {'lat': 34.209809, 'lng': 108.879037}, 'address': '丈八北路1号', 'province': '陕西省', 'city': '西安市', 'area': '雁塔区', 'street_id': '722232c531ab7f5d047ce83b', 'telephone': '(029)68899999', 'detail': 1, 'uid': '722232c531ab7f5d047ce83b', 'detail_info': {'tag': '运动健身;体育场馆', 'navi_location': {'lng': 108.87898876722, 'lat': 34.209505887184}, 'type': 'life', 'detail_url': 'http://api.map.baidu.com/place/detail?uid=722232c531ab7f5d047ce83b&output=html&source=placeapi_v2', 'image_num': '1', 'children': []}}"
泳尚游泳俱乐部(总店),108.91292368948493,34.22620664164885,8f939e3868173087b020a84c,"{'name': '泳尚游泳俱乐部(总店)', 'location': {'lat': 34.230383, 'lng': 108.924104}, 'address': '太白南路263号新一代国际公寓C座1222室', 'province': '陕西省', 'city': '西安市', 'area': '雁塔区', 'street_id': '8f939e3868173087b020a84c', 'detail': 1, 'uid': '8f939e3868173087b020a84c', 'detail_info': {'tag': '运动健身;体育场馆', 'type': 'life', 'detail_url': 'http://api.map.baidu.com/place/detail?uid=8f939e3868173087b020a84c&output=html&source=placeapi_v2', 'overall_rating': '3.4', 'image_num': '17', 'children': []}}"
"{'name': '泳尚游泳俱乐部(总店)', 'location': {'lat': 34.230383, 'lng': 108.924104}, 'address': '太白南路263号新一代国际公寓C座1222室', 'province': '陕西省', 'city': '西安市', 'area': '雁塔区', 'street_id': '8f939e3868173087b020a84c', 'detail': 1, 'uid': '8f939e3868173087b020a84c', 'detail_info': {'tag': '运动健身;体育场馆', 'type': 'life', 'detail_url': 'http://api.map.baidu.com/place/detail?uid=8f939e3868173087b020a84c&output=html&source=placeapi_v2', 'overall_rating': '3.4', 'image_num': '17', 'children': []}}"
陕西省体育训练中心举重馆,108.87738316182121,34.2074296483712,8455ae74981fbea21e1d1118,"{'name': '陕西省体育训练中心举重馆', 'location': {'lat': 34.211603, 'lng': 108.888529}, 'address': '陕西省西安市雁塔区科技八路北100米', 'province': '陕西省', 'city': '西安市', 'area': '雁塔区', 'street_id': 'f1411f81709fe5489122e031', 'detail': 1, 'uid': '8455ae74981fbea21e1d1118', 'detail_info': {'tag': '运动健身;体育场馆', 'type': 'life', 'detail_url': 'http://api.map.baidu.com/place/detail?uid=8455ae74981fbea21e1d1118&output=html&source=placeapi_v2', 'image_num': '1', 'children': []}}"
"{'name': '陕西省体育训练中心举重馆', 'location': {'lat': 34.211603, 'lng': 108.888529}, 'address': '陕西省西安市雁塔区科技八路北100米', 'province': '陕西省', 'city': '西安市', 'area': '雁塔区', 'street_id': 'f1411f81709fe5489122e031', 'detail': 1, 'uid': '8455ae74981fbea21e1d1118', 'detail_info': {'tag': '运动健身;体育场馆', 'type': 'life', 'detail_url': 'http://api.map.baidu.com/place/detail?uid=8455ae74981fbea21e1d1118&output=html&source=placeapi_v2', 'image_num': '1', 'children': []}}"
西安JKA空手道场(省体道场),108.93874874317449,34.23572105667368,2519423e5ee4958d8a36ee0e,"{'name': '西安JKA空手道场(省体道场)', 'location': {'lat': 34.240342, 'lng': 108.949858}, 'address': '陕西省西安市碑林区长安北路14号省体育场乒乓球2楼', 'province': '陕西省', 'city': '西安市', 'area': '碑林区', 'street_id': '2519423e5ee4958d8a36ee0e', 'detail': 1, 'uid': '2519423e5ee4958d8a36ee0e', 'detail_info': {'tag': '运动健身;体育场馆', 'type': 'life', 'detail_url': 'http://api.map.baidu.com/place/detail?uid=2519423e5ee4958d8a36ee0e&output=html&source=placeapi_v2', 'overall_rating': '4.3', 'image_num': '5', 'comment_num': '6', 'children': []}}"
"{'name': '西安JKA空手道场(省体道场)', 'location': {'lat': 34.240342, 'lng': 108.949858}, 'address': '陕西省西安市碑林区长安北路14号省体育场乒乓球2楼', 'province': '陕西省', 'city': '西安市', 'area': '碑林区', 'street_id': '2519423e5ee4958d8a36ee0e', 'detail': 1, 'uid': '2519423e5ee4958d8a36ee0e', 'detail_info': {'tag': '运动健身;体育场馆', 'type': 'life', 'detail_url': 'http://api.map.baidu.com/place/detail?uid=2519423e5ee4958d8a36ee0e&output=html&source=placeapi_v2', 'overall_rating': '4.3', 'image_num': '5', 'comment_num': '6', 'children': []}}"
西安体育学院-拳击健身俱乐部,108.93010439770066,34.2398224764737,8e91dd7fb18b1723f4b91647,"{'name': '西安体育学院-拳击健身俱乐部', 'location': {'lat': 34.2443, 'lng': 108.941231}, 'address': '奥林匹克大道与登峰路交叉口东北50米', 'province': '陕西省', 'city': '西安市', 'area': '碑林区', 'street_id': '8e91dd7fb18b1723f4b91647', 'detail': 1, 'uid': '8e91dd7fb18b1723f4b91647', 'detail_info': {'tag': '运动健身;健身中心', 'type': 'life', 'detail_url': 'http://api.map.baidu.com/place/detail?uid=8e91dd7fb18b1723f4b91647&output=html&source=placeapi_v2', 'overall_rating': '5.0', 'image_num': '1', 'comment_num': '1', 'children': []}}"
"{'name': '西安体育学院-拳击健身俱乐部', 'location': {'lat': 34.2443, 'lng': 108.941231}, 'address': '奥林匹克大道与登峰路交叉口东北50米', 'province': '陕西省', 'city': '西安市', 'area': '碑林区', 'street_id': '8e91dd7fb18b1723f4b91647', 'detail': 1, 'uid': '8e91dd7fb18b1723f4b91647', 'detail_info': {'tag': '运动健身;健身中心', 'type': 'life', 'detail_url': 'http://api.map.baidu.com/place/detail?uid=8e91dd7fb18b1723f4b91647&output=html&source=placeapi_v2', 'overall_rating': '5.0', 'image_num': '1', 'comment_num': '1', 'children': []}}"
朱雀兵乓球馆,108.93656922855305,34.233148564004956,9fd846da29f7e98340afe683,"{'name': '朱雀兵乓球馆', 'location': {'lat': 34.237735, 'lng': 108.947682}, 'address': '陕西体育场运动商城D区32号2层', 'province': '陕西省', 'city': '西安市', 'area': '碑林区', 'street_id': '9fd846da29f7e98340afe683', 'detail': 1, 'uid': '9fd846da29f7e98340afe683', 'detail_info': {'tag': '运动健身;体育场馆', 'type': 'life', 'detail_url': 'http://api.map.baidu.com/place/detail?uid=9fd846da29f7e98340afe683&output=html&source=placeapi_v2', 'image_num': '1', 'comment_num': '1', 'children': []}}"
"{'name': '朱雀兵乓球馆', 'location': {'lat': 34.237735, 'lng': 108.947682},