[{"name": "\u9f50\u738b\u7960\u5802", "location": {"lat": 34.189885, "lng": 108.912761}, "address": "\u5b50\u5348\u5927\u9053\u9644\u8fd1", "province": "\u9655\u897f\u7701", "city": "\u897f\u5b89\u5e02", "area": "\u96c1\u5854\u533a", "street_id": "72c78200fc10eafc2a02e12e", "detail": 1, "uid": "72c78200fc10eafc2a02e12e", "detail_info": {"tag": "\u65c5\u6e38\u666f\u70b9;\u6587\u7269\u53e4\u8ff9", "type": "scope", "detail_url": "http://api.map.baidu.com/place/detail?uid=72c78200fc10eafc2a02e12e&output=html&source=placeapi_v2", "overall_rating": "1.0", "comment_num": "3", "children": []}}, {"name": "\u6b62\u56ed\u97f3\u4e50\u57ce", "location": {"lat": 34.278933, "lng": 108.945929}, "address": "\u9752\u5e74\u8def111\u53f7", "province": "\u9655\u897f\u7701", "city": "\u897f\u5b89\u5e02", "area": "\u83b2\u6e56\u533a", "street_id": "648143810ddb5c02c4f025ce", "telephone": "(029)87688121", "detail": 1, "uid": "648143810ddb5c02c4f025ce", "detail_info": {"tag": "\u4f11\u95f2\u5a31\u4e50;ktv", "type": "scope", "detail_url": "http://api.map.baidu.com/place/detail?uid=648143810ddb5c02c4f025ce&output=html&source=placeapi_v2", "overall_rating": "3.6", "comment_num": "6", "children": []}}, {"name": "\u57fa\u7763\u6559\u4e09\u4e00\u6559\u4f1a", "location": {"lat": 34.18874, "lng": 108.951453}, "address": "\u957f\u5b89\u5357\u8def\u534e\u57ce\u6cca\u90e11\u53f7\u697c", "province": "\u9655\u897f\u7701", "city": "\u897f\u5b89\u5e02", "area": "\u96c1\u5854\u533a", "street_id": "8670d3ee0d09ddbaca1b9523", "detail": 1, "uid": "8670d3ee0d09ddbaca1b9523", "detail_info": {"tag": "\u65c5\u6e38\u666f\u70b9;\u6559\u5802", "type": "scope", "detail_url": "http://api.map.baidu.com/place/detail?uid=8670d3ee0d09ddbaca1b9523&output=html&source=placeapi_v2", "children": []}}, {"name": "\u897f\u5b89\u7eff\u5730\u7b14\u514b\u56fd\u9645\u4f1a\u5c55\u4e2d\u5fc3-3\u53f7\u9986", "location": {"lat": 34.198152, "lng": 108.892772}, "address": "\u5510\u5ef6\u5357\u8def4\u53f7\u897f\u5b89\u7eff\u5730\u7b14\u514b\u56fd\u9645\u4f1a\u5c55\u4e2d\u5fc3\u9644\u8fd1", "province": "\u9655\u897f\u7701", "city": "\u897f\u5b89\u5e02", "area": "\u96c1\u5854\u533a", "street_id": "c2c47c02602ddeffbda2407e", "detail": 1, "uid": "c2c47c02602ddeffbda2407e", "detail_info": {"tag": "\u6587\u5316\u4f20\u5a92;\u5c55\u89c8\u9986", "navi_location": {"lng": 108.89236932333, "lat": 34.198526070957}, "type": "enterprise", "detail_url": "http://api.map.baidu.com/place/detail?uid=c2c47c02602ddeffbda2407e&output=html&source=placeapi_v2", "children": []}}, {"name": "\u5d14\u632f\u5bbd\u5c71\u6c34\u827a\u672f\u9986", "location": {"lat": 34.199702, "lng": 108.863459}, "address": "\u9ad8\u65b0\u533a\u9526\u4e1a\u8def76\u53f7", "province": "\u9655\u897f\u7701", "city": "\u897f\u5b89\u5e02", "area": "\u96c1\u5854\u533a", "street_id": "a3ebe8da07587f79afee7a15", "detail": 1, "uid": "a3ebe8da07587f79afee7a15", "detail_info": {"tag": "\u6587\u5316\u4f20\u5a92;\u7f8e\u672f\u9986", "type": "scope", "detail_url": "http://api.map.baidu.com/place/detail?uid=a3ebe8da07587f79afee7a15&output=html&source=placeapi_v2", "overall_rating": "5.0", "comment_num": "1", "children": []}}, {"name": "\u57fa\u7763\u6559\u65b0\u897f\u5317\u6559\u4f1a", "location": {"lat": 34.274652, "lng": 108.860908}, "address": "\u897f\u5b89\u5e02\u672a\u592e\u533a\u5927\u5e86\u8def920\u53f7", "province": "\u9655\u897f\u7701", "city": "\u897f\u5b89\u5e02", "area": "\u672a\u592e\u533a", "street_id": "e3a7fd13b152342c28b97c3f", "detail": 1, "uid": "e3a7fd13b152342c28b97c3f", "detail_info": {"tag": "\u65c5\u6e38\u666f\u70b9;\u6559\u5802", "navi_location": {"lng": 108.86090789579, "lat": 34.275051341109}, "type": "scope", "detail_url": "http://api.map.baidu.com/place/detail?uid=e3a7fd13b152342c28b97c3f&output=html&source=placeapi_v2", "overall_rating": "0.0", "children": []}}, {"name": "\u4e2d\u56fd\u4e66\u753b\u827a\u672f\u9986", "location": {"lat": 34.200839, "lng": 108.949062}, "address": "\u534e\u57ce\u4e07\u8c6117-10102", "province": "\u9655\u897f\u7701", "city": "\u897f\u5b89\u5e02", "area": "\u96c1\u5854\u533a", "street_id": "fc00fc9b6f2c830e0d3dda71", "detail": 1, "uid": "fc00fc9b6f2c830e0d3dda71", "detail_info": {"tag": "\u6587\u5316\u4f20\u5a92;\u7f8e\u672f\u9986", "navi_location": {"lng": 108.94947435936, "lat": 34.20082445999}, "type": "scope", "detail_url": "http://api.map.baidu.com/place/detail?uid=fc00fc9b6f2c830e0d3dda71&output=html&source=placeapi_v2", "overall_rating": "3.5", "comment_num": "0", "children": []}}, {"name": "\u9655\u897f\u56fd\u9645\u5c55\u89c8\u4e2d\u5fc3", "location": {"lat": 34.238645, "lng": 108.949673}, "address": "\u9655\u897f\u7701\u897f\u5b89\u5e02\u7891\u6797\u533a\u957f\u5b89\u5317\u8def14\u53f7", "province": "\u9655\u897f\u7701", "city": "\u897f\u5b89\u5e02", "area": "\u7891\u6797\u533a", "street_id": "4b5016f4bb4f09b5b04c4938", "detail": 1, "uid": "4b5016f4bb4f09b5b04c4938", "detail_info": {"tag": "\u6587\u5316\u4f20\u5a92;\u5c55\u89c8\u9986", "type": "scope", "detail_url": "http://api.map.baidu.com/place/detail?uid=4b5016f4bb4f09b5b04c4938&output=html&source=placeapi_v2", "children": []}}, {"name": "\u5510\u957f\u5b89\u57ce\u57ce\u5899\u9057\u5740(\u79d1\u6280\u56db\u8def)", "location": {"lat": 34.226057, "lng": 108.895321}, "address": "\u6ca3\u60e0\u5357\u8def-\u79d1\u6280\u56db\u8def\u53e3\u4e1c100\u7c73", "province": "\u9655\u897f\u7701", "city": "\u897f\u5b89\u5e02", "area": "\u96c1\u5854\u533a", "detail": 1, "uid": "659bb3e08e82061d4d554757", "detail_info": {"tag": "\u65c5\u6e38\u666f\u70b9;\u6587\u7269\u53e4\u8ff9", "type": "scope", "detail_url": "http://api.map.baidu.com/place/detail?uid=659bb3e08e82061d4d554757&output=html&source=placeapi_v2", "children": []}}, {"name": "\u4e2d\u534e\u6c11\u4fd7\u535a\u7269\u9986", "location": {"lat": 34.279338, "lng": 108.820994}, "address": "\u9655\u897f\u7701\u897f\u5b89\u5e02\u672a\u592e\u533a\u897f\u6237\u516c\u8def\u9644\u8fd1", "province": "\u9655\u897f\u7701", "city": "\u897f\u5b89\u5e02", "area": "\u672a\u592e\u533a", "street_id": "06fedcf4222cf6f4ddee8b20", "detail": 1, "uid": "06fedcf4222cf6f4ddee8b20", "detail_info": {"tag": "\u65c5\u6e38\u666f\u70b9;\u535a\u7269\u9986", "type": "scope", "detail_url": "http://api.map.baidu.com/place/detail?uid=06fedcf4222cf6f4ddee8b20&output=html&source=placeapi_v2", "children": []}}, {"name": "\u6c38\u5a01\u65f6\u4ee3\u4e2d\u5fc3-\u5c55\u793a\u5385", "location": {"lat": 34.197156, "lng": 108.887325}, "address": "\u9526\u4e1a\u8def\u7eff\u5730\u6b63\u5927\u7f24\u7eb7\u57ce1\u697c", "province": "\u9655\u897f\u7701", "city": "\u897f\u5b89\u5e02", "area": "\u96c1\u5854\u533a", "street_id": "409aa56fe2171db679dbd215", "detail": 1, "uid": "409aa56fe2171db679dbd215", "detail_info": {"tag": "\u6587\u5316\u4f20\u5a92;\u5c55\u89c8\u9986", "type": "life", "detail_url": "http://api.map.baidu.com/place/detail?uid=409aa56fe2171db679dbd215&output=html&source=placeapi_v2", "image_num": "1", "children": []}}, {"name": "\u83b2\u6e56\u533a\u9ea6\u82cb\u8857\u5c0f\u5764\u56ed", "location": {"lat": 34.272525, "lng": 108.948902}, "address": "\u9655\u897f\u7701\u897f\u5b89\u5e02\u83b2\u6e56\u533a\u5c0f\u5764\u56ed37\u53f7", "province": "\u9655\u897f\u7701", "city": "\u897f\u5b89\u5e02", "area": "\u83b2\u6e56\u533a", "street_id": "dd2f295aa97b0ccba0acc499", "detail": 1, "uid": "dd2f295aa97b0ccba0acc499", "detail_info": {"tag": "\u65c5\u6e38\u666f\u70b9;\u666f\u70b9", "type": "scope", "detail_url": "http://api.map.baidu.com/place/detail?uid=dd2f295aa97b0ccba0acc499&output=html&source=placeapi_v2", "children": []}}, {"name": "\u897f\u5b89\u7eff\u5730\u7b14\u514b\u56fd\u9645\u4f1a\u5c55\u4e2d\u5fc3-1\u53f7\u9986", "location": {"lat": 34.198097, "lng": 108.893855}, "address": "\u5510\u5ef6\u5357\u8def\u4e0e\u9526\u4e1a\u4e00\u8def\u4ea4\u53c9\u53e3\u897f\u5317150\u7c73", "province": "\u9655\u897f\u7701", "city": "\u897f\u5b89\u5e02", "area": "\u96c1\u5854\u533a", "street_id": "1fecbb76803579a448cc4acf", "detail": 1, "uid": "1fecbb76803579a448cc4acf", "detail_info": {"tag": "\u6587\u5316\u4f20\u5a92;\u5c55\u89c8\u9986", "navi_location": {"lng": 108.89376522452, "lat": 34.198418879725}, "type": "enterprise", "detail_url": "http://api.map.baidu.com/place/detail?uid=1fecbb76803579a448cc4acf&output=html&source=placeapi_v2", "children": []}}, {"name": "\u68a6\u6e56", "location": {"lat": 34.267258, "lng": 108.930089}, "address": "\u897f\u5b89\u5e02\u83b2\u6e56\u533a\u897f\u95e8\u76d8\u9053\u57ce\u5899\u897f\u4fa7\u62a4\u57ce\u6cb3\u4e24\u5cb8\u73af\u57ce\u897f\u82d1(\u73af\u57ce\u897f\u8def\u5357\u6bb5)\u5185", "province": "\u9655\u897f\u7701", "city": "\u897f\u5b89\u5e02", "area": "\u83b2\u6e56\u533a", "street_id": "256fc0fa65443bdb31870a42", "detail": 1, "uid": "256fc0fa65443bdb31870a42", "detail_info": {"tag": "\u65c5\u6e38\u666f\u70b9;\u666f\u70b9", "type": "scope", "detail_url": "http://api.map.baidu.com/place/detail?uid=256fc0fa65443bdb31870a42&output=html&source=placeapi_v2", "overall_rating": "0.0", "children": []}}, {"name": "\u6587\u6b66\u76db\u5730", "location": {"lat": 34.266431, "lng": 108.950411}, "address": "\u897f\u5927\u885747\u53f7\u9644\u8fd1", "province": "\u9655\u897f\u7701", "city": "\u897f\u5b89\u5e02", "area": "\u83b2\u6e56\u533a", "street_id": "c9afb1c27cbfe86174026924", "detail": 1, "uid": "c9afb1c27cbfe86174026924", "detail_info": {"tag": "\u65c5\u6e38\u666f\u70b9;\u6587\u7269\u53e4\u8ff9", "type": "scope", "detail_url": "http://api.map.baidu.com/place/detail?uid=c9afb1c27cbfe86174026924&output=html&source=placeapi_v2", "children": []}}, {"name": "\u9177\u8d1d\u513f\u7ae5\u4e50\u56ed", "location": {"lat": 34.241054, "lng": 108.927711}, "address": "\u592a\u767d\u7acb\u4ea4\u897f\u5317\u89d2\u6021\u4e30\u57ce\u8d1f\u4e00\u5c42\u5b9c\u54c1\u751f\u6d3b", "province": "\u9655\u897f\u7701", "city": "\u897f\u5b89\u5e02", "area": "\u7891\u6797\u533a", "street_id": "9b493a403aa1626d02294f91", "detail": 1, "uid": "9b493a403aa1626d02294f91", "detail_info": {"tag": "\u65c5\u6e38\u666f\u70b9;\u6e38\u4e50\u56ed", "type": "scope", "detail_url": "http://api.map.baidu.com/place/detail?uid=9b493a403aa1626d02294f91&output=html&source=placeapi_v2", "overall_rating": "4.4", "comment_num": "8", "children": []}}, {"name": "\u6b22\u4e50\u6811\u513f\u7ae5\u6210\u957f\u4e50\u56ed", "location": {"lat": 34.209012, "lng": 108.919115}, "address": "\u897f\u5b89\u5e02\u96c1\u5854\u533a\u878d\u4fa8\u99a8\u82d1\u5c0f\u533a\u4e1c\u95e8", "province": "\u9655\u897f\u7701", "city": "\u897f\u5b89\u5e02", "area": "\u96c1\u5854\u533a", "street_id": "53fe616bd6f15a8f3a13fd31", "detail": 1, "uid": "53fe616bd6f15a8f3a13fd31", "detail_info": {"tag": "\u65c5\u6e38\u666f\u70b9;\u6e38\u4e50\u56ed", "type": "scope", "detail_url": "http://api.map.baidu.com/place/detail?uid=53fe616bd6f15a8f3a13fd31&output=html&source=placeapi_v2", "children": []}}, {"name": "\u897f\u4ed3\u6e05\u771f\u5bfa", "location": {"lat": 34.272153, "lng": 108.942939}, "address": "\u9655\u897f\u7701\u897f\u5b89\u5e02\u83b2\u6e56\u533a\u897f\u4ed3\u4e1c\u5df735", "province": "\u9655\u897f\u7701", "city": "\u897f\u5b89\u5e02", "area": "\u83b2\u6e56\u533a", "street_id": "7e281ff8c7b4c19e400245e0", "detail": 1, "uid": "7e281ff8c7b4c19e400245e0", "detail_info": {"tag": "\u65c5\u6e38\u666f\u70b9;\u6559\u5802", "navi_location": {"lng": 108.94303375409, "lat": 34.272205253017}, "type": "scope", "detail_url": "http://api.map.baidu.com/place/detail?uid=7e281ff8c7b4c19e400245e0&output=html&source=placeapi_v2", "children": []}}, {"name": "\u9f99\u5b9a\u5bfa", "location": {"lat": 34.240682, "lng": 108.869269}, "address": "\u9655\u897f\u7701\u897f\u5b89\u5e02\u96c1\u5854\u533a\u9c7c\u6597\u8def", "province": "\u9655\u897f\u7701", "city": "\u897f\u5b89\u5e02", "area": "\u96c1\u5854\u533a", "street_id": "23262d492543a33fc6effb35", "detail": 1, "uid": "23262d492543a33fc6effb35", "detail_info": {"tag": "\u65c5\u6e38\u666f\u70b9;\u6587\u7269\u53e4\u8ff9", "type": "scope", "detail_url": "http://api.map.baidu.com/place/detail?uid=23262d492543a33fc6effb35&output=html&source=placeapi_v2", "children": []}}, {"name": "\u9c7c\u5316\u4f1a\u8bae\u4e2d\u5fc3", "location": {"lat": 34.23916, "lng": 108.867784}, "address": "\u9c7c\u5316\u885754", "province": "\u9655\u897f\u7701", "city": "\u897f\u5b89\u5e02", "area": "\u96c1\u5854\u533a", "street_id": "e0a3d6186d0f760c734b8765", "detail": 1, "uid": "e0a3d6186d0f760c734b8765", "detail_info": {"tag": "\u6587\u5316\u4f20\u5a92;\u5c55\u89c8\u9986", "type": "scope", "detail_url": "http://api.map.baidu.com/place/detail?uid=e0a3d6186d0f760c734b8765&output=html&source=placeapi_v2", "children": []}}, {"name": "\u6551\u82e6\u5730\u85cf\u6bbf", "location": {"lat": 34.232349, "lng": 108.949546}, "address": "\u897f\u5b89\u5e02\u96c1\u5854\u533a\u5174\u5584\u5bfa\u897f\u8857", "province": "\u9655\u897f\u7701", "city": "\u897f\u5b89\u5e02", "area": "\u96c1\u5854\u533a", "street_id": "ff87799e1af8cbeccb213d39", "detail": 1, "uid": "ff87799e1af8cbeccb213d39", "detail_info": {"tag": "\u65c5\u6e38\u666f\u70b9;\u6587\u7269\u53e4\u8ff9", "navi_location": {"lng": 108.94994888925, "lat": 34.23174608599}, "type": "scope", "detail_url": "http://api.map.baidu.com/place/detail?uid=ff87799e1af8cbeccb213d39&output=html&source=placeapi_v2", "children": []}}, {"name": "\u5927\u79e6\u6e29\u6cc9\u517b\u751f\u82d1-\u963f\u623f\u5bab\u529e\u516c\u4f1a\u8bae\u4e2d\u5fc3", "location": {"lat": 34.271978, "lng": 108.837178}, "address": "\u4e09\u6865\u5929\u53f0\u8defA15\u53f7\u897f\u90e8\u8f66\u57ce\u5411\u53571000\u7c73", "province": "\u9655\u897f\u7701", "city": "\u897f\u5b89\u5e02", "area": "\u672a\u592e\u533a", "street_id": "a4b891a2a2917f1e1676436a", "telephone": "(029)89100586", "detail": 1, "uid": "a4b891a2a2917f1e1676436a", "detail_info": {"tag": "\u6587\u5316\u4f20\u5a92;\u5c55\u89c8\u9986", "navi_location": {"lng": 108.83678744334, "lat": 34.271889258588}, "type": "scope", "detail_url": "http://api.map.baidu.com/place/detail?uid=a4b891a2a2917f1e1676436a&output=html&source=placeapi_v2", "overall_rating": "0.0", "children": []}}, {"name": "\u5b89\u5b9a\u95e8\u5357\u6d1e", "location": {"lat": 34.264545, "lng": 108.931715}, "address": "\u897f\u5b89\u5e02\u83b2\u6e56\u533a\u897f\u5927\u8857\u4e0e\u897f\u4e3e\u9662\u5df7\u4ea4\u53c9\u53e3\u9644\u8fd1\u897f\u5b89\u57ce\u5899(\u73af\u57ce\u897f\u8def)\u5185", "province": "\u9655\u897f\u7701", "city": "\u897f\u5b89\u5e02", "area": "\u83b2\u6e56\u533a", "street_id": "ac91b585551901eff5c59cea", "detail": 1, "uid": "ac91b585551901eff5c59cea", "detail_info": {"tag": "\u65c5\u6e38\u666f\u70b9;\u666f\u70b9", "type": "scope", "detail_url": "http://api.map.baidu.com/place/detail?uid=ac91b585551901eff5c59cea&output=html&source=placeapi_v2", "overall_rating": "5.0", "comment_num": "1", "children": []}}, {"name": "\u6c38\u9633\u516c\u56ed-\u5546\u4e1a\u8857", "location": {"lat": 34.20358, "lng": 108.897954}, "address": "\u897f\u5b89\u5e02\u96c1\u5854\u533a\u5510\u5ef6\u5357\u8def1\u53f7", "province": "\u9655\u897f\u7701", "city": "\u897f\u5b89\u5e02", "area": "\u96c1\u5854\u533a", "detail": 1, "uid": "1a455182db5227011fe9992d", "detail_info": {"tag": "\u65c5\u6e38\u666f\u70b9;\u666f\u70b9", "type": "scope", "detail_url": "http://api.map.baidu.com/place/detail?uid=1a455182db5227011fe9992d&output=html&source=placeapi_v2", "children": []}}, {"name": "\u725b\u90ce\u7ec7\u5973\u77f3\u523b", "location": {"lat": 34.231101, "lng": 108.78861}, "address": "\u5317\u5e38\u6751", "province": "\u9655\u897f\u7701", "city": "\u897f\u5b89\u5e02", "area": "\u957f\u5b89\u533a", "street_id": "5254286d7624423edc1e52e0", "detail": 1, "uid": "5254286d7624423edc1e52e0", "detail_info": {"tag": "\u65c5\u6e38\u666f\u70b9;\u6587\u7269\u53e4\u8ff9", "navi_location": {"lng": 108.79004334269, "lat": 34.230094842025}, "type": "scope", "detail_url": "http://api.map.baidu.com/place/detail?uid=5254286d7624423edc1e52e0&output=html&source=placeapi_v2", "overall_rating": "0.0", "comment_num": "1", "children": []}}, {"name": "\u897f\u5b89\u5e02\u96c1\u5854\u533a\u9c7c\u5316\u57fa\u7763\u6559\u5802", "location": {"lat": 34.238065, "lng": 108.864222}, "address": "\u9655\u897f\u7701\u897f\u5b89\u5e02\u96c1\u5854\u533a\u9c7c\u5316\u5be8\u8857\u9053\u5c0f\u6d77\u8c5a\u5e7c\u513f\u56ed", "province": "\u9655\u897f\u7701", "city": "\u897f\u5b89\u5e02", "area": "\u96c1\u5854\u533a", "street_id": "18db1fbd50efb26a6cc02c29", "detail": 1, "uid": "18db1fbd50efb26a6cc02c29", "detail_info": {"tag": "\u65c5\u6e38\u666f\u70b9;\u6559\u5802", "type": "scope", "detail_url": "http://api.map.baidu.com/place/detail?uid=18db1fbd50efb26a6cc02c29&output=html&source=placeapi_v2", "children": []}}, {"name": "\u9655\u897f\u6c49\u5510\u77f3\u523b\u535a\u7269\u9986", "location": {"lat": 34.234371, "lng": 108.900306}, "address": "\u9ad8\u65b0\u56db\u8def30\u53f7\u67ab\u666f\u89c2\u5929\u4e0b1\u5c42", "province": "\u9655\u897f\u7701", "city": "\u897f\u5b89\u5e02", "area": "\u96c1\u5854\u533a", "street_id": "eeb3cd29027ebd2260180961", "telephone": "(029)89181779", "detail": 1, "uid": "eeb3cd29027ebd2260180961", "detail_info": {"tag": "\u65c5\u6e38\u666f\u70b9;\u535a\u7269\u9986", "navi_location": {"lng": 108.90036621864, "lat": 34.234221632318}, "type": "scope", "detail_url": "http://api.map.baidu.com/place/detail?uid=eeb3cd29027ebd2260180961&output=html&source=placeapi_v2", "overall_rating": "2.8", "comment_num": "6", "children": []}}, {"name": "\u6000\u5fb7\u574a", "location": {"lat": 34.252873, "lng": 108.895459}, "address": "\u9ad8\u65b0\u533a\u4e8c\u73af\u5357\u8def\u897f\u6bb5", "province": "\u9655\u897f\u7701", "city": "\u897f\u5b89\u5e02", "area": "\u96c1\u5854\u533a", "street_id": "fa561afd2fc24231276e986c", "detail": 1, "uid": "fa561afd2fc24231276e986c", "detail_info": {"tag": "\u65c5\u6e38\u666f\u70b9;\u516c\u56ed", "navi_location": {"lng": 108.89610852091, "lat": 34.252869162056}, "type": "scope", "detail_url": "http://api.map.baidu.com/place/detail?uid=fa561afd2fc24231276e986c&output=html&source=placeapi_v2", "overall_rating": "3.5", "comment_num": "1", "children": []}}, {"name": "\u897f\u5b89\u5e02\u6d12\u91d1\u6865\u6e05\u771f\u53e4\u5bfa\u798f\u5229\u533a", "location": {"lat": 34.268731, "lng": 108.93772}, "address": "\u4e1c\u4e3e\u9662\u5df7\u4e0e\u5e99\u540e\u8857\u4ea4\u53c9\u53e3\u535750\u7c73", "province": "\u9655\u897f\u7701", "city": "\u897f\u5b89\u5e02", "area": "\u83b2\u6e56\u533a", "street_id": "b3d29756e61a8829d5b74ec6", "detail": 1, "uid": "b3d29756e61a8829d5b74ec6", "detail_info": {"tag": "\u65c5\u6e38\u666f\u70b9;\u666f\u70b9", "type": "life", "detail_url": "http://api.map.baidu.com/place/detail?uid=b3d29756e61a8829d5b74ec6&output=html&source=placeapi_v2", "image_num": "1", "children": []}}, {"name": "\u53e4\u7434\u8336\u827a\u63d2\u82b1\u7985\u97f5\u7434\u793e(\u9ad8\u65b0\u5e97)", "location": {"lat": 34.248101, "lng": 108.8913}, "address": "\u6ca3\u60e0\u5357\u8def\u4e2d\u534e\u4e16\u7eaa\u57ceD\u533a1\u53f7\u697c1\u5355\u5143301", "province": "\u9655\u897f\u7701", "city": "\u897f\u5b89\u5e02", "area": "\u96c1\u5854\u533a", "detail": 1, "uid": "085957fa9a78eac3cb213dc4", "detail_info": {"tag": "\u6587\u5316\u4f20\u5a92;\u7f8e\u672f\u9986", "type": "enterprise", "detail_url": "http://api.map.baidu.com/place/detail?uid=085957fa9a78eac3cb213dc4&output=html&source=placeapi_v2", "children": []}}, {"name": "\u5929\u4fdd\u827a\u672f\u4e2d\u5fc3", "location": {"lat": 34.263909, "lng": 108.942241}, "address": "\u7409\u7483\u88571\u53f7", "province": "\u9655\u897f\u7701", "city": "\u897f\u5b89\u5e02", "area": "\u7891\u6797\u533a", "street_id": "7698caea4079a703cafa5f05", "detail": 1, "uid": "7698caea4079a703cafa5f05", "detail_info": {"tag": "\u6587\u5316\u4f20\u5a92;\u7f8e\u672f\u9986", "type": "scope", "detail_url": "http://api.map.baidu.com/place/detail?uid=7698caea4079a703cafa5f05&output=html&source=placeapi_v2", "comment_num": "0", "children": []}}, {"name": "3D\u9b54\u672f\u827a\u672f\u9986", "location": {"lat": 34.251129, "lng": 108.916472}, "address": "\u897f\u5b89\u5e02\u83b2\u6e56\u533a\u52b3\u52a8\u5357\u8def118\u53f7\u897f\u5e02\u57ce1\u5c42", "province": "\u9655\u897f\u7701", "city": "\u897f\u5b89\u5e02", "area": "\u83b2\u6e56\u533a", "street_id": "8cda9e11ab0bec29c61e51a8", "detail": 1, "uid": "8cda9e11ab0bec29c61e51a8", "detail_info": {"tag": "\u6587\u5316\u4f20\u5a92;\u7f8e\u672f\u9986", "type": "scope", "detail_url": "http://api.map.baidu.com/place/detail?uid=8cda9e11ab0bec29c61e51a8&output=html&source=placeapi_v2", "children": []}}, {"name": "\u6e05\u771f\u5bfa", "location": {"lat": 34.256871, "lng": 108.92471}, "address": "\u4e30\u5e86\u8def39\u9644\u8fd1", "province": "\u9655\u897f\u7701", "city": "\u897f\u5b89\u5e02", "area": "\u83b2\u6e56\u533a", "street_id": "0dae0a4fcbbac15fd9d891b3", "detail": 1, "uid": "0dae0a4fcbbac15fd9d891b3", "detail_info": {"tag": "\u65c5\u6e38\u666f\u70b9;\u6559\u5802", "navi_location": {"lng": 108.92482483191, "lat": 34.256953222875}, "type": "scope", "detail_url": "http://api.map.baidu.com/place/detail?uid=0dae0a4fcbbac15fd9d891b3&output=html&source=placeapi_v2", "children": []}}, {"name": "\u5174\u5e86\u5bab", "location": {"lat": 34.263621, "lng": 108.905889}, "address": "\u897f\u5b89\u5e02\u83b2\u6e56\u533a\u4e30\u9550\u4e1c\u8def236\u53f7", "province": "\u9655\u897f\u7701", "city": "\u897f\u5b89\u5e02", "area": "\u83b2\u6e56\u533a", "detail": 1, "uid": "9f8b10b2e0671723d518b7e1", "detail_info": {"tag": "\u65c5\u6e38\u666f\u70b9;\u5176\u4ed6", "navi_location": {"lng": 108.90598763486, "lat": 34.263561112906}, "type": "scope", "detail_url": "http://api.map.baidu.com/place/detail?uid=9f8b10b2e0671723d518b7e1&output=html&source=placeapi_v2", "children": []}}, {"name": "\u6c5f\u5176\u52a1", "location": {"lat": 34.223724, "lng": 108.950396}, "address": "\u96c1\u5854\u897f\u8def74\u53f7", "province": "\u9655\u897f\u7701", "city": "\u897f\u5b89\u5e02", "area": "\u96c1\u5854\u533a", "street_id": "1fa7f0bce94e94fbbabd63b1", "detail": 1, "uid": "1fa7f0bce94e94fbbabd63b1", "detail_info": {"tag": "\u65c5\u6e38\u666f\u70b9;\u6587\u7269\u53e4\u8ff9", "type": "scope", "detail_url": "http://api.map.baidu.com/place/detail?uid=1fa7f0bce94e94fbbabd63b1&output=html&source=placeapi_v2", "overall_rating": "0.0", "children": []}}, {"name": "\u4e8e\u53f3\u4efb\u4e66\u6cd5\u827a\u672f\u535a\u7269\u9986", "location": {"lat": 34.24661, "lng": 108.896578}, "address": "\u7fa4\u8d24\u8def6\u53f7\u9526\u90fd\u82b1\u56ed\u897f\u95e8", "province": "\u9655\u897f\u7701", "city": "\u897f\u5b89\u5e02", "area": "\u96c1\u5854\u533a", "street_id": "370368c9d80531fe354aaebf", "telephone": "(029)88354268", "detail": 1, "uid": "370368c9d80531fe354aaebf", "detail_info": {"tag": "\u65c5\u6e38\u666f\u70b9;\u535a\u7269\u9986", "type": "scope", "detail_url": "http://api.map.baidu.com/place/detail?uid=370368c9d80531fe354aaebf&output=html&source=placeapi_v2", "children": []}}, {"name": "\u897f\u5317\u5de5\u4e1a\u5927\u5b66\u4e1c\u65b9\u7ea2\u5e7f\u573a", "location": {"lat": 34.248389, "lng": 108.923904}, "address": "\u9655\u897f\u7701\u897f\u5b89\u5e02\u7891\u6797\u533a\u82f1\u624d\u8def", "province": "\u9655\u897f\u7701", "city": "\u897f\u5b89\u5e02", "area": "\u7891\u6797\u533a", "street_id": "f331d41273731295223bf2c8", "detail": 1, "uid": "f331d41273731295223bf2c8", "detail_info": {"tag": "\u65c5\u6e38\u666f\u70b9;\u98ce\u666f\u533a", "type": "life", "detail_url": "http://api.map.baidu.com/place/detail?uid=f331d41273731295223bf2c8&output=html&source=placeapi_v2", "image_num": "1", "children": []}}, {"name": "\u65b9\u4e08\u6bbf", "location": {"lat": 34.245114, "lng": 108.948181}, "address": "\u897f\u5b89\u5e02\u7891\u6797\u533a\u53cb\u8c0a\u897f\u8def72\u53f7\u5c0f\u96c1\u5854\u5185", "province": "\u9655\u897f\u7701", "city": "\u897f\u5b89\u5e02", "area": "\u7891\u6797\u533a", "street_id": "b8488d3cc7a997618c55ecd3", "detail": 1, "uid": "b8488d3cc7a997618c55ecd3", "detail_info": {"tag": "\u65c5\u6e38\u666f\u70b9;\u666f\u70b9", "type": "scope", "detail_url": "http://api.map.baidu.com/place/detail?uid=b8488d3cc7a997618c55ecd3&output=html&source=placeapi_v2", "overall_rating": "5.0", "comment_num": "4", "children": []}}, {"name": "\u4e1d\u7ef8\u4e4b\u8def\u4e2d\u4e9a\u4e1c\u5e72\u4eba\u535a\u7269\u9986", "location": {"lat": 34.274626, "lng": 108.949717}, "address": "\u9655\u897f\u7701\u897f\u5b89\u5e02\u83b2\u6e56\u533a\u5927\u83b2\u82b1\u6c60\u885751", "province": "\u9655\u897f\u7701", "city": "\u897f\u5b89\u5e02", "area": "\u83b2\u6e56\u533a", "street_id": "78551e322b442d0bb817e779", "detail": 1, "uid": "78551e322b442d0bb817e779", "detail_info": {"tag": "\u65c5\u6e38\u666f\u70b9;\u535a\u7269\u9986", "type": "scope", "detail_url": "http://api.map.baidu.com/place/detail?uid=78551e322b442d0bb817e779&output=html&source=placeapi_v2", "overall_rating": "1.0", "comment_num": "6", "children": []}}, {"name": "\u65af\u9a6c\u5170\u513f\u7ae5\u4e50\u56ed", "location": {"lat": 34.254516, "lng": 108.84939}, "address": "\u897f\u4e09\u73af\u4e09\u6865\u7acb\u4ea4\u4e1c\u5357\u89d2", "province": "\u9655\u897f\u7701", "city": "\u897f\u5b89\u5e02", "area": "\u96c1\u5854\u533a", "street_id": "ebc7a35ec6b41f43d9d891b0", "detail": 1, "uid": "ebc7a35ec6b41f43d9d891b0", "detail_info": {"tag": "\u65c5\u6e38\u666f\u70b9;\u6e38\u4e50\u56ed", "type": "scope", "detail_url": "http://api.map.baidu.com/place/detail?uid=ebc7a35ec6b41f43d9d891b0&output=html&source=placeapi_v2", "children": []}}, {"name": "\u5927\u5510\u897f\u5e02\u827a\u672f\u9986\u7cbe\u54c1\u4f1a\u5c55", "location": {"lat": 34.252793, "lng": 108.914237}, "address": "\u52b3\u52a8\u5357\u8def1\u53f7", "province": "\u9655\u897f\u7701", "city": "\u897f\u5b89\u5e02", "area": "\u83b2\u6e56\u533a", "street_id": "52a84e79f2e3c1d3a6da3989", "detail": 1, "uid": "52a84e79f2e3c1d3a6da3989", "detail_info": {"tag": "\u6587\u5316\u4f20\u5a92;\u7f8e\u672f\u9986", "type": "scope", "detail_url": "http://api.map.baidu.com/place/detail?uid=52a84e79f2e3c1d3a6da3989&output=html&source=placeapi_v2", "overall_rating": "5.0", "children": []}}, {"name": "\u70c8\u58eb\u7eaa\u5ff5\u9986", "location": {"lat": 34.216255, "lng": 108.94033}, "address": "\u897f\u5b89\u5e02\u96c1\u5854\u533a\u660e\u5fb7\u8def", "province": "\u9655\u897f\u7701", "city": "\u897f\u5b89\u5e02", "area": "\u96c1\u5854\u533a", "street_id": "abc9a2d600c71e19a5da39e0", "detail": 1, "uid": "abc9a2d600c71e19a5da39e0", "detail_info": {"tag": "\u65c5\u6e38\u666f\u70b9;\u6587\u7269\u53e4\u8ff9", "navi_location": {"lng": 108.941878058, "lat": 34.21625020186}, "type": "scope", "detail_url": "http://api.map.baidu.com/place/detail?uid=abc9a2d600c71e19a5da39e0&output=html&source=placeapi_v2", "overall_rating": "0.0", "comment_num": "2", "children": []}}, {"name": "\u897f\u5b89\u9a6c\u67ef\u7f8e\u672f\u535a\u7269\u9986", "location": {"lat": 34.23104, "lng": 108.951868}, "address": "\u9655\u897f\u7701\u897f\u5b89\u5e02\u96c1\u5854\u533a\u957f\u5b89\u4e2d\u8def38\u53f7\u5c0f\u5be8\u9886\u7ee3\u57ce\u8d1f1\u5c42", "province": "\u9655\u897f\u7701", "city": "\u897f\u5b89\u5e02", "area": "\u96c1\u5854\u533a", "street_id": "e15534398e994f1beedfca67", "detail": 1, "uid": "e15534398e994f1beedfca67", "detail_info": {"tag": "\u6587\u5316\u4f20\u5a92;\u5c55\u89c8\u9986", "navi_location": {"lng": 108.95166647004, "lat": 34.231378236878}, "type": "scope", "detail_url": "http://api.map.baidu.com/place/detail?uid=e15534398e994f1beedfca67&output=html&source=placeapi_v2", "children": []}}, {"name": "\u6e05\u771f\u5973\u5bfa", "location": {"lat": 34.2681, "lng": 108.942687}, "address": "\u897f\u5b89\u5e02\u83b2\u6e56\u533a\u5927\u5b66\u4e60\u5df778", "province": "\u9655\u897f\u7701", "city": "\u897f\u5b89\u5e02", "area": "\u83b2\u6e56\u533a", "street_id": "40eb62c6a6c70f43a5da39f8", "detail": 1, "uid": "40eb62c6a6c70f43a5da39f8", "detail_info": {"tag": "\u65c5\u6e38\u666f\u70b9;\u6559\u5802", "type": "scope", "detail_url": "http://api.map.baidu.com/place/detail?uid=40eb62c6a6c70f43a5da39f8&output=html&source=placeapi_v2", "children": []}}, {"name": "\u4e3e\u4eba\u9601", "location": {"lat": 34.265731, "lng": 108.935963}, "address": "\u897f\u5b89\u5e02\u83b2\u6e56\u533a\u897f\u5927\u8857299\u53f7", "province": "\u9655\u897f\u7701", "city": "\u897f\u5b89\u5e02", "area": "\u83b2\u6e56\u533a", "street_id": "f974e33be8fe94573ce2314d", "detail": 1, "uid": "f974e33be8fe94573ce2314d", "detail_info": {"tag": "\u65c5\u6e38\u666f\u70b9;\u666f\u70b9", "type": "scope", "detail_url": "http://api.map.baidu.com/place/detail?uid=f974e33be8fe94573ce2314d&output=html&source=placeapi_v2", "overall_rating": "0.0", "children": []}}, {"name": "\u897f\u5b89\u56de\u574a\u535a\u7269\u9986", "location": {"lat": 34.274479, "lng": 108.94965}, "address": "\u897f\u5b89\u5e02\u83b2\u6e56\u533a\u5927\u83b2\u82b1\u6c60\u885753\u53f7", "province": "\u9655\u897f\u7701", "city": "\u897f\u5b89\u5e02", "area": "\u83b2\u6e56\u533a", "street_id": "520cb635c3eb2b4f00ff2df8", "detail": 1, "uid": "520cb635c3eb2b4f00ff2df8", "detail_info": {"tag": "\u65c5\u6e38\u666f\u70b9;\u535a\u7269\u9986", "navi_location": {"lng": 108.94949257071, "lat": 34.274435131561}, "type": "scope", "detail_url": "http://api.map.baidu.com/place/detail?uid=520cb635c3eb2b4f00ff2df8&output=html&source=placeapi_v2", "comment_num": "2", "children": []}}, {"name": "\u6dfb\u5f69\u5c11\u513f\u7f8e\u672f\u9986", "location": {"lat": 34.240511, "lng": 108.91631}, "address": "\u5929\u745e\u5b9e\u4e1a407\u5ba4", "province": "\u9655\u897f\u7701", "city": "\u897f\u5b89\u5e02", "area": "\u96c1\u5854\u533a", "street_id": "848edf5001e5847697ec8445", "telephone": "(029)88499113", "detail": 1, "uid": "848edf5001e5847697ec8445", "detail_info": {"tag": "\u6587\u5316\u4f20\u5a92;\u7f8e\u672f\u9986", "navi_location": {"lng": 108.91571266696, "lat": 34.240792508526}, "type": "scope", "detail_url": "http://api.map.baidu.com/place/detail?uid=848edf5001e5847697ec8445&output=html&source=placeapi_v2", "children": []}}, {"name": "\u4e08\u516b\u57fa\u7763\u6559\u4f1a", "location": {"lat": 34.208345, "lng": 108.876983}, "address": "\u9655\u897f\u7701\u897f\u5b89\u5e02\u96c1\u5854\u533a\u79d1\u6280\u516b\u8def\u4e0e\u4e08\u516b\u56db\u8def\u4ea4\u53c9", "province": "\u9655\u897f\u7701", "city": "\u897f\u5b89\u5e02", "area": "\u96c1\u5854\u533a", "street_id": "66789c98b81a8e9d35b06c4c", "detail": 1, "uid": "66789c98b81a8e9d35b06c4c", "detail_info": {"tag": "\u65c5\u6e38\u666f\u70b9;\u6559\u5802", "type": "scope", "detail_url": "http://api.map.baidu.com/place/detail?uid=66789c98b81a8e9d35b06c4c&output=html&source=placeapi_v2", "children": []}}, {"name": "\u897f\u5b89\u5e7f\u6210\u5927\u9152\u5e97-\u4f1a\u8bae\u5385", "location": {"lat": 34.259914, "lng": 108.917113}, "address": "\u52b3\u52a8\u5357\u8def\u4e2d\u6bb5101\u53f7\u897f\u5b89\u5e7f\u6210\u5927\u9152\u5e972\u30013\u5c42", "province": "\u9655\u897f\u7701", "city": "\u897f\u5b89\u5e02", "area": "\u83b2\u6e56\u533a", "street_id": "990e2b865d3260626849f3cf", "telephone": "(029)89138888", "detail": 1, "uid": "990e2b865d3260626849f3cf", "detail_info": {"tag": "\u6587\u5316\u4f20\u5a92;\u5c55\u89c8\u9986", "type": "scope", "detail_url": "http://api.map.baidu.com/place/detail?uid=990e2b865d3260626849f3cf&output=html&source=placeapi_v2", "children": []}}, {"name": "\u8d22\u795e\u6bbf", "location": {"lat": 34.26698, "lng": 108.943813}, "address": "\u5927\u5b66\u4e60\u5df7\u4e0e\u5c0f\u5b66\u4e60\u4e1c\u5df7\u4ea4\u53c9\u53e3\u4e1c150\u7c73", "province": "\u9655\u897f\u7701", "city": "\u897f\u5b89\u5e02", "area": "\u83b2\u6e56\u533a", "street_id": "bd69c6f5e849e4d87dc876ab", "detail": 1, "uid": "bd69c6f5e849e4d87dc876ab", "detail_info": {"tag": "\u65c5\u6e38\u666f\u70b9;\u6587\u7269\u53e4\u8ff9", "navi_location": {"lng": 108.94391508163, "lat": 34.266970098928}, "type": "scope", "detail_url": "http://api.map.baidu.com/place/detail?uid=bd69c6f5e849e4d87dc876ab&output=html&source=placeapi_v2", "children": []}}, {"name": "\u96f7\u5cf0\u5854", "location": {"lat": 34.240187, "lng": 108.868412}, "address": "\u9c7c\u5316\u5be8\u885742\u53f7\u9644\u8fd1", "province": "\u9655\u897f\u7701", "city": "\u897f\u5b89\u5e02", "area": "\u96c1\u5854\u533a", "street_id": "8aea026d7a18e1cff02d8386", "detail": 1, "uid": "8aea026d7a18e1cff02d8386", "detail_info": {"tag": "\u65c5\u6e38\u666f\u70b9;\u98ce\u666f\u533a", "type": "scope", "detail_url": "http://api.map.baidu.com/place/detail?uid=8aea026d7a18e1cff02d8386&output=html&source=placeapi_v2", "children": []}}, {"name": "\u5f00\u5143\u6bbf", "location": {"lat": 34.253891, "lng": 108.903972}, "address": "\u9655\u897f\u7701\u897f\u5b89\u5e02\u83b2\u6e56\u533a\u6843\u56ed\u5357\u8def6\u53f7\u9644\u8fd1", "province": "\u9655\u897f\u7701", "city": "\u897f\u5b89\u5e02", "area": "\u83b2\u6e56\u533a", "street_id": "911826ab4e74a2077f29bd12", "detail": 1, "uid": "911826ab4e74a2077f29bd12", "detail_info": {"tag": "\u65c5\u6e38\u666f\u70b9;\u6587\u7269\u53e4\u8ff9", "navi_location": {"lng": 108.90306859111, "lat": 34.255626957192}, "type": "scope", "detail_url": "http://api.map.baidu.com/place/detail?uid=911826ab4e74a2077f29bd12&output=html&source=placeapi_v2", "comment_num": "3", "children": []}}, {"name": "\u7f8e\u9053\u827a\u672f\u9986", "location": {"lat": 34.234706, "lng": 108.908256}, "address": "\u9ad8\u65b0\u8def\u9ad8\u65b0\u4e00\u4e2d\u521d\u4e2d\u90e8\u5317\u4fa7\u4e00\u54c1\u7f8e\u9053A\u5ea71914\u5ba4", "province": "\u9655\u897f\u7701", "city": "\u897f\u5b89\u5e02", "area": "\u96c1\u5854\u533a", "street_id": "8a38c9bdc4c1f4f9e5073831", "detail": 1, "uid": "8a38c9bdc4c1f4f9e5073831", "detail_info": {"tag": "\u6587\u5316\u4f20\u5a92;\u7f8e\u672f\u9986", "type": "scope", "detail_url": "http://api.map.baidu.com/place/detail?uid=8a38c9bdc4c1f4f9e5073831&output=html&source=placeapi_v2", "children": []}}, {"name": "\u897f\u5317\u56fd\u65c5\u65c5\u6e38\u63a5\u5f85\u90e8", "location": {"lat": 34.266799, "lng": 108.949643}, "address": "\u9655\u897f\u7701\u897f\u5b89\u5e02\u83b2\u6e56\u533a\u5317\u9662\u95e81\u53f7\u9f13\u697c\u65c1\u8fb9", "province": "\u9655\u897f\u7701", "city": "\u897f\u5b89\u5e02", "area": "\u83b2\u6e56\u533a", "street_id": "224af57c22b886bcc056ac3b", "telephone": "(029)82088808", "detail": 1, "uid": "0466baf26ac7444e36b06cba", "detail_info": {"tag": "\u516c\u53f8\u4f01\u4e1a;\u516c\u53f8", "navi_location": {"lng": 108.94966006337, "lat": 34.26665465976}, "type": "scope", "detail_url": "http://api.map.baidu.com/place/detail?uid=0466baf26ac7444e36b06cba&output=html&source=placeapi_v2", "overall_rating": "2.0", "comment_num": "1", "children": []}}, {"name": "\u73af\u57ce\u897f\u82d1\u516c\u56ed", "location": {"lat": 34.269975, "lng": 108.930084}, "address": "\u73af\u57ce\u897f\u8def\u5317\u6bb5\u4e0e\u94c1\u5854\u5bfa\u8def\u4ea4\u53c9\u53e3\u4e1c\u5317150\u7c73", "province": "\u9655\u897f\u7701", "city": "\u897f\u5b89\u5e02", "area": "\u83b2\u6e56\u533a", "street_id": "fe233ae2a6745c1f38e4a670", "detail": 1, "uid": "fe233ae2a6745c1f38e4a670", "detail_info": {"tag": "\u65c5\u6e38\u666f\u70b9;\u516c\u56ed", "navi_location": {"lng": 108.9293506945, "lat": 34.267954326889}, "type": "scope", "detail_url": "http://api.map.baidu.com/place/detail?uid=fe233ae2a6745c1f38e4a670&output=html&source=placeapi_v2", "children": []}}, {"name": "\u4e2d\u56fd\u7ea2\u8272\u4f53\u80b2\u535a\u7269\u9986", "location": {"lat": 34.244946, "lng": 108.93948}, "address": "\u542b\u5149\u8def\u4e2d\u6bb5\u4e0e\u6c34\u6587\u5df7\u4ea4\u53c9\u53e3\u4e1c\u5317150\u7c73", "province": "\u9655\u897f\u7701", "city": "\u897f\u5b89\u5e02", "area": "\u7891\u6797\u533a", "street_id": "33e8f3a75add75f430621233", "detail": 1, "uid": "33e8f3a75add75f430621233", "detail_info": {"tag": "\u65c5\u6e38\u666f\u70b9;\u535a\u7269\u9986", "type": "scope", "detail_url": "http://api.map.baidu.com/place/detail?uid=33e8f3a75add75f430621233&output=html&source=placeapi_v2", "children": []}}, {"name": "\u897f\u5b89\u57ce\u5e02\u751f\u6001\u516c\u56ed\u5c55\u5385", "location": {"lat": 34.184376, "lng": 108.908273}, "address": "\u6cb3\u5824\u8def\u4e0e\u897f\u6ca3\u4e8c\u8def\u4ea4\u53c9\u53e3\u897f\u5357150\u7c73", "province": "\u9655\u897f\u7701", "city": "\u897f\u5b89\u5e02", "area": "\u96c1\u5854\u533a", "street_id": "b037b88c5313bc3c14c905de", "detail": 1, "uid": "b037b88c5313bc3c14c905de", "detail_info": {"tag": "\u65c5\u6e38\u666f\u70b9;\u666f\u70b9", "type": "scope", "detail_url": "http://api.map.baidu.com/place/detail?uid=b037b88c5313bc3c14c905de&output=html&source=placeapi_v2", "children": []}}, {"name": "\u9a6c\u53ef\u827a\u672f\u9986", "location": {"lat": 34.231326, "lng": 108.951822}, "address": "\u96c1\u5854\u533a\u957f\u5b89\u4e2d\u8def92\u53f7\u5174\u5584\u5bfa\u897f\u8857\u98de\u70ab\u5e7f\u573a\u897f\u5357B1\u697c", "province": "\u9655\u897f\u7701", "city": "\u897f\u5b89\u5e02", "area": "\u96c1\u5854\u533a", "street_id": "3d1356bb50fc6cfe45e2748e", "detail": 1, "uid": "3d1356bb50fc6cfe45e2748e", "detail_info": {"tag": "\u6587\u5316\u4f20\u5a92;\u7f8e\u672f\u9986", "type": "scope", "detail_url": "http://api.map.baidu.com/place/detail?uid=3d1356bb50fc6cfe45e2748e&output=html&source=placeapi_v2", "children": []}}, {"name": "\u4e49\u95e8", "location": {"lat": 34.267407, "lng": 108.94382}, "address": "\u9655\u897f\u7701\u897f\u5b89\u5e02\u83b2\u6e56\u533a\u897f\u5927\u8857129\u90fd\u57ce\u968d\u5e99\u5185", "province": "\u9655\u897f\u7701", "city": "\u897f\u5b89\u5e02", "area": "\u83b2\u6e56\u533a", "street_id": "c664d2cf5fafa86df7b9169c", "detail": 1, "uid": "c664d2cf5fafa86df7b9169c", "detail_info": {"tag": "\u65c5\u6e38\u666f\u70b9;\u6587\u7269\u53e4\u8ff9", "type": "scope", "detail_url": "http://api.map.baidu.com/place/detail?uid=c664d2cf5fafa86df7b9169c&output=html&source=placeapi_v2", "overall_rating": "4.0", "comment_num": "0", "children": []}}, {"name": "\u9655\u897f\u5bbe\u9986-\u4f1a\u8bae\u5385", "location": {"lat": 34.208591, "lng": 108.880614}, "address": "\u4e08\u516b\u5317\u8def1\u53f7\u9655\u897f\u5bbe\u9986\u5185", "province": "\u9655\u897f\u7701", "city": "\u897f\u5b89\u5e02", "area": "\u96c1\u5854\u533a", "street_id": "44cf1b0089924731e115f986", "detail": 1, "uid": "44cf1b0089924731e115f986", "detail_info": {"tag": "\u6587\u5316\u4f20\u5a92;\u5c55\u89c8\u9986", "type": "scope", "detail_url": "http://api.map.baidu.com/place/detail?uid=44cf1b0089924731e115f986&output=html&source=placeapi_v2", "overall_rating": "0.0", "children": []}}, {"name": "\u7eff\u5730\u7b14\u514b\u56fd\u9645\u4f1a\u5c55\u4e2d\u5fc3 \u5bb4\u4f1a\u5385", "location": {"lat": 34.198077, "lng": 108.894549}, "address": "\u9655\u897f\u7701\u897f\u5b89\u5e02\u96c1\u5854\u533a\u897f\u5b89\u9ad8\u65b0\u533a\u5510\u5ef6\u5357\u8def4\u53f7", "province": "\u9655\u897f\u7701", "city": "\u897f\u5b89\u5e02", "area": "\u96c1\u5854\u533a", "street_id": "71d6b1bad1f17e905fd4fecb", "detail": 1, "uid": "71d6b1bad1f17e905fd4fecb", "detail_info": {"tag": "\u7f8e\u98df;\u4e2d\u9910\u5385", "navi_location": {"lng": 108.89454402305, "lat": 34.197620604871}, "type": "scope", "detail_url": "http://api.map.baidu.com/place/detail?uid=71d6b1bad1f17e905fd4fecb&output=html&source=placeapi_v2", "overall_rating": "2.2", "comment_num": "1", "children": []}}, {"name": "\u5317\u5e7f\u6d4e\u8857\u6e05\u771f\u5973\u5bfa", "location": {"lat": 34.267336, "lng": 108.945971}, "address": "\u9655\u897f\u7701\u897f\u5b89\u5e02\u83b2\u6e56\u533a\u5317\u5e7f\u6d4e\u885783", "province": "\u9655\u897f\u7701", "city": "\u897f\u5b89\u5e02", "area": "\u83b2\u6e56\u533a", "street_id": "5a2a244c69d896818c1a894c", "detail": 1, "uid": "5a2a244c69d896818c1a894c", "detail_info": {"tag": "\u65c5\u6e38\u666f\u70b9;\u6587\u7269\u53e4\u8ff9", "type": "scope", "detail_url": "http://api.map.baidu.com/place/detail?uid=5a2a244c69d896818c1a894c&output=html&source=placeapi_v2", "children": []}}, {"name": "\u8fea\u4e50\u5c3c\u513f\u7ae5\u4e50\u56ed", "location": {"lat": 34.180396, "lng": 108.882637}, "address": "\u6021\u56ed\u8def\u7d2b\u8587\u7530\u56ed\u90fd\u5e02E\u533a\u5546\u4e1a\u8d70\u5eca1106\u53f7", "province": "\u9655\u897f\u7701", "city": "\u897f\u5b89\u5e02", "area": "\u957f\u5b89\u533a", "street_id": "ae76e9edd8988bdec2f1cf0d", "detail": 1, "uid": "ae76e9edd8988bdec2f1cf0d", "detail_info": {"tag": "\u65c5\u6e38\u666f\u70b9;\u6e38\u4e50\u56ed", "type": "scope", "detail_url": "http://api.map.baidu.com/place/detail?uid=ae76e9edd8988bdec2f1cf0d&output=html&source=placeapi_v2", "children": []}}, {"name": "\u6e05\u51c9\u5c71\u516c\u56ed\u81ea\u884c\u8f66\u79df\u8d41\u70b9", "location": {"lat": 34.178496, "lng": 108.940825}, "address": "\u9655\u897f\u7701\u897f\u5b89\u5e02\u957f\u5b89\u533a\u897f\u90e8\u5927\u9053\u4e0e\u4e1c\u4eea\u8def\u5341\u5b57\u4ee5\u4e1c300\u7c73\u8def\u5317", "province": "\u9655\u897f\u7701", "city": "\u897f\u5b89\u5e02", "area": "\u957f\u5b89\u533a", "street_id": "ff37c9986c1ec7525b10937f", "detail": 1, "uid": "ff37c9986c1ec7525b10937f", "detail_info": {"tag": "\u4ea4\u901a\u8bbe\u65bd;\u5176\u4ed6", "type": "life", "detail_url": "http://api.map.baidu.com/place/detail?uid=ff37c9986c1ec7525b10937f&output=html&source=placeapi_v2", "image_num": "1", "children": []}}, {"name": "\u91d1\u4f5b\u5bfa", "location": {"lat": 34.221742, "lng": 108.837486}, "address": "\u9c7c\u5316\u5be8\u8857\u9053\u9c7c\u6597\u8def\u5468\u5b8b\u5c0f\u5b66\u5357200\u7c73", "province": "\u9655\u897f\u7701", "city": "\u897f\u5b89\u5e02", "area": "\u96c1\u5854\u533a", "street_id": "bc95d9e98bd044b64054d757", "detail": 1, "uid": "bc95d9e98bd044b64054d757", "detail_info": {"tag": "\u65c5\u6e38\u666f\u70b9;\u6587\u7269\u53e4\u8ff9", "type": "scope", "detail_url": "http://api.map.baidu.com/place/detail?uid=bc95d9e98bd044b64054d757&output=html&source=placeapi_v2", "children": []}}, {"name": "\u58f9\u9053\u5df7", "location": {"lat": 34.260906, "lng": 108.930866}, "address": "\u9655\u897f\u7701\u897f\u5b89\u5e02\u83b2\u6e56\u533a\u5357\u9a6c\u9053\u5df733\u53f7\u897f\u5b89\u73af\u57ce\u897f\u82d1\u9644\u8fd1", "province": "\u9655\u897f\u7701", "city": "\u897f\u5b89\u5e02", "area": "\u83b2\u6e56\u533a", "street_id": "cbc5ec34f4944fec901fc901", "detail": 1, "uid": "cbc5ec34f4944fec901fc901", "detail_info": {"tag": "\u65c5\u6e38\u666f\u70b9", "type": "scope", "detail_url": "http://api.map.baidu.com/place/detail?uid=cbc5ec34f4944fec901fc901&output=html&source=placeapi_v2", "children": []}}, {"name": "\u897f\u5b89\u4ea4\u901a\u5927\u5b66-\u996e\u6c34\u601d\u6e90", "location": {"lat": 34.222811, "lng": 108.948778}, "address": "\u96c1\u5854\u897f\u8def76\u53f7", "province": "\u9655\u897f\u7701", "city": "\u897f\u5b89\u5e02", "area": "\u96c1\u5854\u533a", "street_id": "ecb9d2113fab47c5df1e52b8", "detail": 1, "uid": "ecb9d2113fab47c5df1e52b8", "detail_info": {"tag": "\u751f\u6d3b\u670d\u52a1;\u5bb6\u653f\u670d\u52a1", "type": "scope", "detail_url": "http://api.map.baidu.com/place/detail?uid=ecb9d2113fab47c5df1e52b8&output=html&source=placeapi_v2", "overall_rating": "0.0", "children": []}}, {"name": "\u897f\u5b89\u5e02\u7891\u6797\u533a\u57fa\u7763\u6559\u5927\u5b66\u4e1c\u8def\u6559\u5802", "location": {"lat": 34.255832, "lng": 108.947658}, "address": "\u5927\u5b66\u4e1c\u8def14\u53f7", "province": "\u9655\u897f\u7701", "city": "\u897f\u5b89\u5e02", "area": "\u7891\u6797\u533a", "street_id": "4593021b6f7e4c7eb45f1ea4", "detail": 1, "uid": "4593021b6f7e4c7eb45f1ea4", "detail_info": {"tag": "\u65c5\u6e38\u666f\u70b9;\u6559\u5802", "navi_location": {"lng": 108.94765298026, "lat": 34.255833987163}, "type": "scope", "detail_url": "http://api.map.baidu.com/place/detail?uid=4593021b6f7e4c7eb45f1ea4&output=html&source=placeapi_v2", "comment_num": "1", "children": []}}, {"name": "\u6c99\u6ee9\u4e50\u56ed", "location": {"lat": 34.274929, "lng": 108.948859}, "address": "\u5927\u83b2\u82b1\u6c60\u8857\u4e0e\u7acb\u65b0\u8857\u4ea4\u53c9\u53e3\u5357150\u7c73", "province": "\u9655\u897f\u7701", "city": "\u897f\u5b89\u5e02", "area": "\u83b2\u6e56\u533a", "street_id": "afc34c72a7ee3b351df74d26", "detail": 1, "uid": "afc34c72a7ee3b351df74d26", "detail_info": {"tag": "\u65c5\u6e38\u666f\u70b9;\u6e38\u4e50\u56ed", "type": "scope", "detail_url": "http://api.map.baidu.com/place/detail?uid=afc34c72a7ee3b351df74d26&output=html&source=placeapi_v2", "children": []}}, {"name": "\u5b89\u5b9a\u56ed", "location": {"lat": 34.257844, "lng": 108.936012}, "address": "\u542b\u5149\u95e8\u5916\u8def\u897f", "province": "\u9655\u897f\u7701", "city": "\u897f\u5b89\u5e02", "area": "\u83b2\u6e56\u533a", "street_id": "9572b7b0ccf1ee0696f08cc1", "detail": 1, "uid": "9572b7b0ccf1ee0696f08cc1", "detail_info": {"tag": "\u65c5\u6e38\u666f\u70b9;\u516c\u56ed", "type": "scope", "detail_url": "http://api.map.baidu.com/place/detail?uid=9572b7b0ccf1ee0696f08cc1&output=html&source=placeapi_v2", "overall_rating": "3.5", "comment_num": "0", "children": []}}, {"name": "\u9b41\u661f\u697c\u9057\u5740", "location": {"lat": 34.242015, "lng": 108.780736}, "address": "\u9655\u897f\u7701\u897f\u5b89\u5e02\u957f\u5b89\u533a", "province": "\u9655\u897f\u7701", "city": "\u897f\u5b89\u5e02", "area": "\u957f\u5b89\u533a", "detail": 1, "uid": "e061f78dd023250207fef53d", "detail_info": {"tag": "\u65c5\u6e38\u666f\u70b9;\u6587\u7269\u53e4\u8ff9", "type": "scope", "detail_url": "http://api.map.baidu.com/place/detail?uid=e061f78dd023250207fef53d&output=html&source=placeapi_v2", "children": []}}, {"name": "2014\u56fd\u96453d\u9b54\u5e7b\u827a\u672f\u5c55", "location": {"lat": 34.231444, "lng": 108.923604}, "address": "\u9655\u897f\u7701\u897f\u5b89\u5e02\u96c1\u5854\u533a\u9ad8\u65b0\u533a\u897f\u659c\u4e03\u8def\u7d2b\u8587\u9f99\u817e\u65b0\u4e16\u754c", "province": "\u9655\u897f\u7701", "city": "\u897f\u5b89\u5e02", "area": "\u96c1\u5854\u533a", "street_id": "c3a5c0d1764fae2730169b31", "detail": 1, "uid": "c3a5c0d1764fae2730169b31", "detail_info": {"tag": "\u65c5\u6e38\u666f\u70b9;\u98ce\u666f\u533a", "type": "scope", "detail_url": "http://api.map.baidu.com/place/detail?uid=c3a5c0d1764fae2730169b31&output=html&source=placeapi_v2", "children": []}}, {"name": "\u5b54\u5b50", "location": {"lat": 34.254244, "lng": 108.934233}, "address": "\u592a\u767d\u5317\u8def229\u8def\u9644\u8fd1", "province": "\u9655\u897f\u7701", "city": "\u897f\u5b89\u5e02", "area": "\u7891\u6797\u533a", "street_id": "14f8fdba9e5aeea554bfff43", "detail": 1, "uid": "14f8fdba9e5aeea554bfff43", "detail_info": {"tag": "\u65c5\u6e38\u666f\u70b9;\u6587\u7269\u53e4\u8ff9", "type": "scope", "detail_url": "http://api.map.baidu.com/place/detail?uid=14f8fdba9e5aeea554bfff43&output=html&source=placeapi_v2", "overall_rating": "0.0", "children": []}}, {"name": "\u5510\u57ce\u5899\u9057\u5740(\u5510\u5ef6\u8def)", "location": {"lat": 34.229539, "lng": 108.895874}, "address": "\u5510\u5ef6\u8def\u4e0e\u79d1\u6280\u4e09\u8def\u4ea4\u53c9\u53e3\u5317150\u7c73", "province": "\u9655\u897f\u7701", "city": "\u897f\u5b89\u5e02", "area": "\u96c1\u5854\u533a", "detail": 1, "uid": "4b5a59dcaec70cc1cf06a45a", "detail_info": {"tag": "\u65c5\u6e38\u666f\u70b9;\u6587\u7269\u53e4\u8ff9", "type": "scope", "detail_url": "http://api.map.baidu.com/place/detail?uid=4b5a59dcaec70cc1cf06a45a&output=html&source=placeapi_v2", "children": []}}, {"name": "\u897f\u5b89\u5947\u77f3\u535a\u89c8\u56ed", "location": {"lat": 34.176947, "lng": 108.946622}, "address": "\u97e6\u66f2\u8857\u9053\u675c\u9675\u897f\u8def\u6e05\u51c9\u5c71\u5c0f\u533a", "province": "\u9655\u897f\u7701", "city": "\u897f\u5b89\u5e02", "area": "\u957f\u5b89\u533a", "street_id": "7a5529b0e9238e6f76e5b6f5", "detail": 1, "uid": "7a5529b0e9238e6f76e5b6f5", "detail_info": {"tag": "\u6587\u5316\u4f20\u5a92;\u5c55\u89c8\u9986", "type": "life", "detail_url": "http://api.map.baidu.com/place/detail?uid=7a5529b0e9238e6f76e5b6f5&output=html&source=placeapi_v2", "image_num": "1", "children": []}}, {"name": "\u9655\u897f\u5efa\u82d1\u5927\u53a6-\u4f1a\u8bae\u5ba4", "location": {"lat": 34.260839, "lng": 108.94525}, "address": "\u6731\u96c0\u95e8\u91cc\u5357\u5e7f\u6d4e\u885738\u53f7\u9655\u897f\u5efa\u82d1\u5927\u53a6", "province": "\u9655\u897f\u7701", "city": "\u897f\u5b89\u5e02", "area": "\u7891\u6797\u533a", "street_id": "4552df4d2451634e14b54b6e", "telephone": "(029)87606999", "detail": 1, "uid": "4552df4d2451634e14b54b6e", "detail_info": {"tag": "\u6587\u5316\u4f20\u5a92;\u5c55\u89c8\u9986", "type": "scope", "detail_url": "http://api.map.baidu.com/place/detail?uid=4552df4d2451634e14b54b6e&output=html&source=placeapi_v2", "children": []}}, {"name": "\u9655\u897f\u5bbe\u998618\u53f7\u697c-\u591a\u529f\u80fd\u5385", "location": {"lat": 34.209809, "lng": 108.879037}, "address": "\u4e08\u516b\u5317\u8def1\u53f7", "province": "\u9655\u897f\u7701", "city": "\u897f\u5b89\u5e02", "area": "\u96c1\u5854\u533a", "street_id": "3d1bd96b0ebfed3f3362125c", "telephone": "(029)68899999", "detail": 1, "uid": "3d1bd96b0ebfed3f3362125c", "detail_info": {"tag": "\u6587\u5316\u4f20\u5a92;\u5c55\u89c8\u9986", "navi_location": {"lng": 108.87898876722, "lat": 34.209505887184}, "type": "scope", "detail_url": "http://api.map.baidu.com/place/detail?uid=3d1bd96b0ebfed3f3362125c&output=html&source=placeapi_v2", "children": []}}, {"name": "\u661f\u5de5\u573a\u97f3\u4e50\u827a\u672f\u4e2d\u5fc3(\u897f\u5de5\u5927\u5e97)", "location": {"lat": 34.24459, "lng": 108.923582}, "address": "\u9655\u897f\u7701\u897f\u5b89\u5e02\u7891\u6797\u533a\u53cb\u8c0a\u897f\u8def\u897f\u5de5\u5927\u4eba\u4eba\u4e50\u5ef6\u5eb7\u5df7\u4f0a\u987f\u516c\u99868\u53f7\u697c\u68a6\u60f3\u4e2d\u5fc315\u5c42", "province": "\u9655\u897f\u7701", "city": "\u897f\u5b89\u5e02", "area": "\u7891\u6797\u533a", "street_id": "d0573bdabb2198550e3dda82", "detail": 1, "uid": "d0573bdabb2198550e3dda82", "detail_info": {"tag": "\u6587\u5316\u4f20\u5a92;\u5c55\u89c8\u9986", "type": "education", "detail_url": "http://api.map.baidu.com/place/detail?uid=d0573bdabb2198550e3dda82&output=html&source=placeapi_v2", "children": []}}, {"name": "\u513f\u7ae5\u4e50\u56ed", "location": {"lat": 34.181329, "lng": 108.861535}, "address": "\u4e08\u516b\u516d\u8def\u4e0e\u53d1\u5c55\u5927\u9053\u4ea4\u53c9\u53e3\u897f\u5317150\u7c73", "province": "\u9655\u897f\u7701", "city": "\u897f\u5b89\u5e02", "area": "\u957f\u5b89\u533a", "street_id": "20d7b93321276d6e9a00505a", "detail": 1, "uid": "20d7b93321276d6e9a00505a", "detail_info": {"tag": "\u65c5\u6e38\u666f\u70b9;\u6e38\u4e50\u56ed", "type": "scope", "detail_url": "http://api.map.baidu.com/place/detail?uid=20d7b93321276d6e9a00505a&output=html&source=placeapi_v2", "children": []}}, {"name": "\u5409\u7965\u95e8", "location": {"lat": 34.23214, "lng": 108.950084}, "address": "\u9655\u897f\u7701\u897f\u5b89\u5e02\u96c1\u5854\u533a\u5927\u5174\u5584\u5bfa(\u5174\u5584\u5bfa\u897f\u8857\u5317)", "province": "\u9655\u897f\u7701", "city": "\u897f\u5b89\u5e02", "area": "\u96c1\u5854\u533a", "street_id": "4f91f58496536e9e843304fa", "detail": 1, "uid": "4f91f58496536e9e843304fa", "detail_info": {"tag": "\u65c5\u6e38\u666f\u70b9;\u666f\u70b9", "type": "scope", "detail_url": "http://api.map.baidu.com/place/detail?uid=4f91f58496536e9e843304fa&output=html&source=placeapi_v2", "children": []}}, {"name": "\u4e16\u5bb6\u661f\u57ce\u4ff1\u4e50\u90e8", "location": {"lat": 34.199066, "lng": 108.933982}, "address": "\u96c1\u5854\u533a\u4e08\u516b\u4e1c\u8def8A\u53f7\u4e16\u5bb6\u661f\u57ce\u5c0f\u533a", "province": "\u9655\u897f\u7701", "city": "\u897f\u5b89\u5e02", "area": "\u96c1\u5854\u533a", "street_id": "ef773a0fa28f342d23022091", "detail": 1, "uid": "ef773a0fa28f342d23022091", "detail_info": {"tag": "\u65c5\u6e38\u666f\u70b9;\u6e38\u4e50\u56ed", "type": "scope", "detail_url": "http://api.map.baidu.com/place/detail?uid=ef773a0fa28f342d23022091&output=html&source=placeapi_v2", "comment_num": "3", "children": []}}, {"name": "\u5927\u96c4\u5b9d\u6bbf", "location": {"lat": 34.244766, "lng": 108.948459}, "address": "\u9655\u897f\u7701\u897f\u5b89\u5e02\u7891\u6797\u533a\u5c0f\u96c1\u5854(\u8350\u798f\u5bfa\u8def\u5317)", "province": "\u9655\u897f\u7701", "city": "\u897f\u5b89\u5e02", "area": "\u7891\u6797\u533a", "street_id": "edf52b9dd7e82067da2f28d6", "detail": 1, "uid": "edf52b9dd7e82067da2f28d6", "detail_info": {"tag": "\u65c5\u6e38\u666f\u70b9;\u6587\u7269\u53e4\u8ff9", "type": "scope", "detail_url": "http://api.map.baidu.com/place/detail?uid=edf52b9dd7e82067da2f28d6&output=html&source=placeapi_v2", "children": []}}, {"name": "\u513f\u7ae5\u4e50\u56ed", "location": {"lat": 34.221988, "lng": 108.907367}, "address": "\u9655\u897f\u7701\u897f\u5b89\u5e02\u96c1\u5854\u533a\u79d1\u6280\u56db\u8def", "province": "\u9655\u897f\u7701", "city": "\u897f\u5b89\u5e02", "area": "\u96c1\u5854\u533a", "street_id": "e88fa204cbed1780fbf0cbad", "detail": 1, "uid": "e88fa204cbed1780fbf0cbad", "detail_info": {"tag": "\u65c5\u6e38\u666f\u70b9;\u6e38\u4e50\u56ed", "type": "scope", "detail_url": "http://api.map.baidu.com/place/detail?uid=e88fa204cbed1780fbf0cbad&output=html&source=placeapi_v2", "overall_rating": "0.0", "children": []}}, {"name": "\u963f\u623f\u5bab\u9057\u5740\u4e0a\u5929\u53f0\u9057\u5740-\u8d24\u4ec1\u9601", "location": {"lat": 34.2703, "lng": 108.834105}, "address": "\u5929\u53f0\u4e8c\u8def9\u53f7\u9644\u8fd1", "province": "\u9655\u897f\u7701", "city": "\u897f\u5b89\u5e02", "area": "\u672a\u592e\u533a", "detail": 1, "uid": "0bb34f36fbc1b7f9ecdfcafc", "detail_info": {"tag": "\u65c5\u6e38\u666f\u70b9;\u5176\u4ed6", "navi_location": {"lng": 108.83406929573, "lat": 34.270087186018}, "type": "scope", "detail_url": "http://api.map.baidu.com/place/detail?uid=0bb34f36fbc1b7f9ecdfcafc&output=html&source=placeapi_v2", "children": []}}, {"name": "\u4e30\u5e86\u516c\u56ed-\u897f\u95e8\u81ea\u884c\u8f66\u79df\u8d41\u70b9", "location": {"lat": 34.254195, "lng": 108.901449}, "address": "\u4e8c\u73af\u8def\u4e0e\u4e30\u767b\u5357\u8def\u4e01\u5b57\u8def\u53e3\u5411\u531760\u7c73\u8def\u4e1c\u96e8\u5174\u70df\u9152\u5bf9\u9762", "province": "\u9655\u897f\u7701", "city": "\u897f\u5b89\u5e02", "area": "\u83b2\u6e56\u533a", "street_id": "8702b4125fff0fd22bd7ab41", "detail": 1, "uid": "8702b4125fff0fd22bd7ab41", "detail_info": {"tag": "\u4ea4\u901a\u8bbe\u65bd;\u5176\u4ed6", "navi_location": {"lng": 108.9013656985, "lat": 34.25419398255}, "type": "life", "detail_url": "http://api.map.baidu.com/place/detail?uid=8702b4125fff0fd22bd7ab41&output=html&source=placeapi_v2", "image_num": "1", "comment_num": "1", "children": []}}, {"name": "\u6e05\u771f\u65b0\u5bfa", "location": {"lat": 34.272865, "lng": 108.945864}, "address": "\u897f\u5b89\u5e02\u83b2\u6e56\u533a\u7ea2\u57e0\u8857104\u53f7(\u4eba\u6c11\u653f\u5e9c\u897f\u4fa7)", "province": "\u9655\u897f\u7701", "city": "\u897f\u5b89\u5e02", "area": "\u83b2\u6e56\u533a", "street_id": "5b25f4467d86a3ea10293506", "detail": 1, "uid": "5b25f4467d86a3ea10293506", "detail_info": {"tag": "\u65c5\u6e38\u666f\u70b9;\u6559\u5802", "type": "scope", "detail_url": "http://api.map.baidu.com/place/detail?uid=5b25f4467d86a3ea10293506&output=html&source=placeapi_v2", "comment_num": "1", "children": []}}, {"name": "\u963f\u623f\u5bab\u9675\u56ed", "location": {"lat": 34.275028, "lng": 108.831046}, "address": "\u5929\u53f0\u8def\u4e0e\u963f\u623f\u4e00\u8def\u4ea4\u53c9\u53e3\u897f\u5317150\u7c73", "province": "\u9655\u897f\u7701", "city": "\u897f\u5b89\u5e02", "area": "\u672a\u592e\u533a", "detail": 1, "uid": "77555be5a4c4b303d7851fa3", "detail_info": {"tag": "\u65c5\u6e38\u666f\u70b9;\u6587\u7269\u53e4\u8ff9", "type": "scope", "detail_url": "http://api.map.baidu.com/place/detail?uid=77555be5a4c4b303d7851fa3&output=html&source=placeapi_v2", "children": []}}, {"name": "\u4e30\u5e86\u516c\u56ed-\u4e1c\u95e8\u81ea\u884c\u8f66\u79df\u8d41\u70b9", "location": {"lat": 34.252846, "lng": 108.907453}, "address": "\u4e30\u5e86\u8def\u4e0e\u6843\u56ed\u5357\u8def\u5341\u5b57\u5411\u5357\u7ea6200\u7c73\u8def\u897f", "province": "\u9655\u897f\u7701", "city": "\u897f\u5b89\u5e02", "area": "\u83b2\u6e56\u533a", "street_id": "9a54f6132f1d1c4315c9052c", "detail": 1, "uid": "9a54f6132f1d1c4315c9052c", "detail_info": {"tag": "\u4ea4\u901a\u8bbe\u65bd;\u5176\u4ed6", "type": "life", "detail_url": "http://api.map.baidu.com/place/detail?uid=9a54f6132f1d1c4315c9052c&output=html&source=placeapi_v2", "image_num": "1", "children": []}}, {"name": "\u9091\u57ce\u5eb8", "location": {"lat": 34.257966, "lng": 108.932188}, "address": "\u5357\u9a6c\u9053\u5df7\u4e0e\u987a\u57ce\u5357\u8def\u897f\u6bb5\u4ea4\u53c9\u53e3\u897f50\u7c73", "province": "\u9655\u897f\u7701", "city": "\u897f\u5b89\u5e02", "area": "\u83b2\u6e56\u533a", "street_id": "1843a8c5566593d243e192fc", "detail": 1, "uid": "1843a8c5566593d243e192fc", "detail_info": {"tag": "\u65c5\u6e38\u666f\u70b9", "type": "life", "detail_url": "http://api.map.baidu.com/place/detail?uid=1843a8c5566593d243e192fc&output=html&source=placeapi_v2", "image_num": "1", "children": []}}, {"name": "\u7ae5\u5fc3\u56ed\u513f\u7ae5\u57fa\u5730", "location": {"lat": 34.265411, "lng": 108.884107}, "address": "\u4e30\u9550\u897f\u8def151\u53f7\u9644\u8fd1", "province": "\u9655\u897f\u7701", "city": "\u897f\u5b89\u5e02", "area": "\u83b2\u6e56\u533a", "street_id": "c781bdc9bb84d1466d20b90d", "detail": 1, "uid": "c781bdc9bb84d1466d20b90d", "detail_info": {"tag": "\u65c5\u6e38\u666f\u70b9;\u6e38\u4e50\u56ed", "type": "scope", "detail_url": "http://api.map.baidu.com/place/detail?uid=c781bdc9bb84d1466d20b90d&output=html&source=placeapi_v2", "overall_rating": "0.0", "children": []}}, {"name": "\u6708\u4eae\u6865", "location": {"lat": 34.261636, "lng": 108.931167}, "address": "\u897f\u5b89\u5e02\u83b2\u6e56\u533a\u897f\u95e8\u76d8\u9053\u57ce\u5899\u897f\u4fa7\u62a4\u57ce\u6cb3\u4e24\u5cb8\u73af\u57ce\u897f\u82d1(\u73af\u57ce\u897f\u8def\u5357\u6bb5)\u5185", "province": "\u9655\u897f\u7701", "city": "\u897f\u5b89\u5e02", "area": "\u83b2\u6e56\u533a", "street_id": "b664ba34ecaabca23617dc03", "detail": 1, "uid": "b664ba34ecaabca23617dc03", "detail_info": {"tag": "\u65c5\u6e38\u666f\u70b9;\u5176\u4ed6", "type": "scope", "detail_url": "http://api.map.baidu.com/place/detail?uid=b664ba34ecaabca23617dc03&output=html&source=placeapi_v2", "overall_rating": "0.0", "children": []}}, {"name": "\u7eff\u5730\u4e2d\u5fc3\u73af\u7403\u5c55\u5385", "location": {"lat": 34.200081, "lng": 108.887365}, "address": "\u9526\u4e1a\u8def\u4e0e\u4e08\u516b\u4e8c\u8def\u5341\u5b57", "province": "\u9655\u897f\u7701", "city": "\u897f\u5b89\u5e02", "area": "\u96c1\u5854\u533a", "street_id": "4d3b0565339d5e4196ca0720", "detail": 1, "uid": "4d3b0565339d5e4196ca0720", "detail_info": {"tag": "\u6587\u5316\u4f20\u5a92;\u5c55\u89c8\u9986", "type": "life", "detail_url": "http://api.map.baidu.com/place/detail?uid=4d3b0565339d5e4196ca0720&output=html&source=placeapi_v2", "image_num": "1", "children": []}}, {"name": "\u5927\u5510\u897f\u5e02\u552e\u697c\u4e2d\u5fc3", "location": {"lat": 34.250566, "lng": 108.91285}, "address": "\u9655\u897f\u7701\u897f\u5b89\u5e02\u83b2\u6e56\u533a\u52b3\u52a8\u5357\u8def118\u53f7\u897f\u5e02\u57ce\u5185", "province": "\u9655\u897f\u7701", "city": "\u897f\u5b89\u5e02", "area": "\u83b2\u6e56\u533a", "street_id": "d73baa88b0133b11250bd013", "telephone": "(029)84237777", "detail": 1, "uid": "d73baa88b0133b11250bd013", "detail_info": {"tag": "\u6587\u5316\u4f20\u5a92;\u5c55\u89c8\u9986", "type": "life", "detail_url": "http://api.map.baidu.com/place/detail?uid=d73baa88b0133b11250bd013&output=html&source=placeapi_v2", "image_num": "2", "children": []}}, {"name": "\u897f\u5b89\u7eff\u5730\u7b14\u514b\u56fd\u9645\u4f1a\u5c55\u4e2d\u5fc3-2\u53f7\u9986", "location": {"lat": 34.198112, "lng": 108.893379}, "address": "\u5510\u5ef6\u5357\u8def4\u53f7\u9644\u8fd1", "province": "\u9655\u897f\u7701", "city": "\u897f\u5b89\u5e02", "area": "\u96c1\u5854\u533a", "street_id": "d9d085589140592c9e9d680a", "detail": 1, "uid": "d9d085589140592c9e9d680a", "detail_info": {"tag": "\u6587\u5316\u4f20\u5a92;\u5c55\u89c8\u9986", "navi_location": {"lng": 108.8930161033, "lat": 34.198496213042}, "type": "life", "detail_url": "http://api.map.baidu.com/place/detail?uid=d9d085589140592c9e9d680a&output=html&source=placeapi_v2", "image_num": "1", "children": []}}, {"name": "\u83b2\u6e56\u516c\u56ed-\u5317\u95e8\u81ea\u884c\u8f66\u79df\u8d41\u70b9", "location": {"lat": 34.275759, "lng": 108.94627}, "address": "\u9655\u897f\u7701\u897f\u5b89\u5e02\u83b2\u6e56\u533a\u83b2\u6e56\u8def\u4e0e\u5927\u83b2\u82b1\u6c60\u8857\u5341\u5b57\u5411\u897f500\u7c73\u8def\u5357\u83b2\u6e56\u516c\u56ed\u5317\u95e8\u897f\u4fa7", "province": "\u9655\u897f\u7701", "city": "\u897f\u5b89\u5e02", "area": "\u83b2\u6e56\u533a", "street_id": "3d0a7e4c8e454a91adcb66f0", "detail": 1, "uid": "3d0a7e4c8e454a91adcb66f0", "detail_info": {"tag": "\u4ea4\u901a\u8bbe\u65bd;\u5176\u4ed6", "navi_location": {"lng": 108.94627012157, "lat": 34.275845997983}, "type": "life", "detail_url": "http://api.map.baidu.com/place/detail?uid=3d0a7e4c8e454a91adcb66f0&output=html&source=placeapi_v2", "image_num": "1", "children": []}}, {"name": "\u4e91\u5c45\u7985\u9662", "location": {"lat": 34.274303, "lng": 108.936766}, "address": "\u9655\u897f\u7701\u897f\u5b89\u5e02\u83b2\u6e56\u533a(\u897f\u5b89\u534e\u897f\u533b\u9662\u65c1)", "province": "\u9655\u897f\u7701", "city": "\u897f\u5b89\u5e02", "area": "\u83b2\u6e56\u533a", "street_id": "f4cf096578d4d154ca291591", "detail": 1, "uid": "f4cf096578d4d154ca291591", "detail_info": {"tag": "\u65c5\u6e38\u666f\u70b9;\u6587\u7269\u53e4\u8ff9", "navi_location": {"lng": 108.93697431333, "lat": 34.274353786864}, "type": "scope", "detail_url": "http://api.map.baidu.com/place/detail?uid=f4cf096578d4d154ca291591&output=html&source=placeapi_v2", "comment_num": "1", "children": []}}, {"name": "\u5929\u7ffc\u65b0\u5546\u52a1\u9152\u5e97-\u5929\u7ffc\u56fd\u9645\u4f1a\u8bae\u4e2d\u5fc3", "location": {"lat": 34.27118, "lng": 108.897244}, "address": "\u897f\u4e8c\u73af\u5357\u6bb5281\u53f7\u5929\u7ffc\u65b0\u5546\u52a1\u9152\u5e975\u5c42", "province": "\u9655\u897f\u7701", "city": "\u897f\u5b89\u5e02", "area": "\u83b2\u6e56\u533a", "street_id": "9512c48b21f3c1c56b49f3fa", "telephone": "(029)84680000", "detail": 1, "uid": "9512c48b21f3c1c56b49f3fa", "detail_info": {"tag": "\u6587\u5316\u4f20\u5a92;\u5c55\u89c8\u9986", "navi_location": {"lng": 108.89702069177, "lat": 34.271278744422}, "type": "scope", "detail_url": "http://api.map.baidu.com/place/detail?uid=9512c48b21f3c1c56b49f3fa&output=html&source=placeapi_v2", "overall_rating": "0.0", "children": []}}, {"name": "\u5c0f\u9a6c\u6d82\u753b\u793e\u533a\u7f8e\u672f\u9986", "location": {"lat": 34.231339, "lng": 108.907801}, "address": "\u897f\u5b89\u5e02\u96c1\u5854\u533a\u9ad8\u65b0\u5546\u5708\u9ad8\u65b0\u8def\u67ab\u53f6\u5e7f\u573ab\u5ea713\u5c42", "province": "\u9655\u897f\u7701", "city": "\u897f\u5b89\u5e02", "area": "\u96c1\u5854\u533a", "street_id": "a305f1e8777985e7740269f3", "detail": 1, "uid": "a305f1e8777985e7740269f3", "detail_info": {"tag": "\u6587\u5316\u4f20\u5a92;\u7f8e\u672f\u9986", "type": "enterprise", "detail_url": "http://api.map.baidu.com/place/detail?uid=a305f1e8777985e7740269f3&output=html&source=placeapi_v2", "children": []}}, {"name": "\u5170\u6c60", "location": {"lat": 34.261156, "lng": 108.821065}, "address": "\u9655\u897f\u7701\u897f\u5b89\u5e02\u672a\u592e\u533a\u5170\u6c60(\u897f\u56f4\u5899\u5de5\u4e1a\u56ed\u4e09\u53f7\u8def\u897f)", "province": "\u9655\u897f\u7701", "city": "\u897f\u5b89\u5e02", "area": "\u672a\u592e\u533a", "detail": 1, "uid": "2a1fe2b24450ee0c3fe231a8", "detail_info": {"tag": "\u65c5\u6e38\u666f\u70b9;\u666f\u70b9", "type": "scope", "detail_url": "http://api.map.baidu.com/place/detail?uid=2a1fe2b24450ee0c3fe231a8&output=html&source=placeapi_v2", "children": []}}, {"name": "\u57fa\u7763\u6559\u5802(\u4e08\u516b\u56db\u8def)", "location": {"lat": 34.212027, "lng": 108.876159}, "address": "\u9655\u897f\u7701\u897f\u5b89\u5e02\u96c1\u5854\u533a\u57fa\u7763\u6559\u5802(\u897f\u5b89\u5229\u4e4b\u661f\u6c7d\u8f66\u6709\u9650\u516c\u53f8\u4e1c\u5317)", "province": "\u9655\u897f\u7701", "city": "\u897f\u5b89\u5e02", "area": "\u96c1\u5854\u533a", "street_id": "bdc71faffba4e8b60bf5eb26", "detail": 1, "uid": "bdc71faffba4e8b60bf5eb26", "detail_info": {"tag": "\u65c5\u6e38\u666f\u70b9;\u6559\u5802", "navi_location": {"lng": 108.87584044625, "lat": 34.212125241925}, "type": "scope", "detail_url": "http://api.map.baidu.com/place/detail?uid=bdc71faffba4e8b60bf5eb26&output=html&source=placeapi_v2", "children": []}}, {"name": "\u52b1\u8fdb\u6d77\u5347\u9152\u5e97-\u591a\u529f\u80fd\u5385", "location": {"lat": 34.218525, "lng": 108.891524}, "address": "\u897f\u5b89\u5e02\u9ad8\u65b0\u533a\u6ca3\u60e0\u5357\u8def34\u53f7\u52b1\u8fdb\u6d77\u5347\u9152\u5e974\u5c42", "province": "\u9655\u897f\u7701", "city": "\u897f\u5b89\u5e02", "area": "\u96c1\u5854\u533a", "street_id": "3dbc52a2f4f622a0eb56fa1f", "telephone": "(029)83266666", "detail": 1, "uid": "3dbc52a2f4f622a0eb56fa1f", "detail_info": {"tag": "\u6587\u5316\u4f20\u5a92;\u5c55\u89c8\u9986", "type": "scope", "detail_url": "http://api.map.baidu.com/place/detail?uid=3dbc52a2f4f622a0eb56fa1f&output=html&source=placeapi_v2", "children": []}}, {"name": "\u897f\u5b89\u4ea4\u901a\u5927\u5b66-\u611f\u6069\u6bcd\u6821", "location": {"lat": 34.223927, "lng": 108.947021}, "address": "\u96c1\u5854\u897f\u8def76\u53f7", "province": "\u9655\u897f\u7701", "city": "\u897f\u5b89\u5e02", "area": "\u96c1\u5854\u533a", "street_id": "424bd12e02501dedee74f814", "detail": 1, "uid": "424bd12e02501dedee74f814", "detail_info": {"tag": "\u65c5\u6e38\u666f\u70b9;\u6587\u7269\u53e4\u8ff9", "navi_location": {"lng": 108.94701633318, "lat": 34.223813382177}, "type": "scope", "detail_url": "http://api.map.baidu.com/place/detail?uid=424bd12e02501dedee74f814&output=html&source=placeapi_v2", "children": []}}, {"name": "\u6c34\u6676\u5c9b\u9152\u5e97\u4f1a\u8bae\u4e2d\u5fc3", "location": {"lat": 34.214107, "lng": 108.893441}, "address": "\u897f\u5b89\u5e02\u96c1\u5854\u533a\u6ca3\u60e0\u5357\u8def38\u53f7", "province": "\u9655\u897f\u7701", "city": "\u897f\u5b89\u5e02", "area": "\u96c1\u5854\u533a", "street_id": "970ad4d034a44c6a8b2fb532", "detail": 1, "uid": "970ad4d034a44c6a8b2fb532", "detail_info": {"tag": "\u6587\u5316\u4f20\u5a92;\u5c55\u89c8\u9986", "navi_location": {"lng": 108.89447135822, "lat": 34.21405820395}, "type": "scope", "detail_url": "http://api.map.baidu.com/place/detail?uid=970ad4d034a44c6a8b2fb532&output=html&source=placeapi_v2", "children": []}}, {"name": "\u53e4\u57ce\u827a\u672f\u9986", "location": {"lat": 34.267903, "lng": 108.950223}, "address": "\u5317\u9662\u95e879\u53f7", "province": "\u9655\u897f\u7701", "city": "\u897f\u5b89\u5e02", "area": "\u83b2\u6e56\u533a", "street_id": "ce65846334c29679d3f49e49", "detail": 1, "uid": "ce65846334c29679d3f49e49", "detail_info": {"tag": "\u6587\u5316\u4f20\u5a92;\u7f8e\u672f\u9986", "type": "life", "detail_url": "http://api.map.baidu.com/place/detail?uid=ce65846334c29679d3f49e49&output=html&source=placeapi_v2", "price": "28", "overall_rating": "5.0", "image_num": "47", "comment_num": "1", "children": []}}, {"name": "\u65fa\u5ea7\u73b0\u4ee3\u57ce-\u591a\u529f\u80fd\u5385", "location": {"lat": 34.221685, "lng": 108.898527}, "address": "\u5510\u5ef6\u8def35\u53f7\u65fa\u5ea7\u73b0\u4ee3\u57ce", "province": "\u9655\u897f\u7701", "city": "\u897f\u5b89\u5e02", "area": "\u96c1\u5854\u533a", "street_id": "f7201c4bf573c17ad3ff23a1", "detail": 1, "uid": "f7201c4bf573c17ad3ff23a1", "detail_info": {"tag": "\u6587\u5316\u4f20\u5a92;\u5c55\u89c8\u9986", "type": "life", "detail_url": "http://api.map.baidu.com/place/detail?uid=f7201c4bf573c17ad3ff23a1&output=html&source=placeapi_v2", "image_num": "1", "children": []}}, {"name": "\u4e03\u661f\u57ce\u5c55\u793a\u4e2d\u5fc3", "location": {"lat": 34.244271, "lng": 108.860367}, "address": "\u7682\u6cb3\u4e0e\u79d1\u6280\u897f\u8def\u4ea4\u53c9\u53e3\u4e1c50\u7c73", "province": "\u9655\u897f\u7701", "city": "\u897f\u5b89\u5e02", "area": "\u96c1\u5854\u533a", "street_id": "25969ff1cc92373b28d7abc2", "detail": 1, "uid": "25969ff1cc92373b28d7abc2", "detail_info": {"tag": "\u6587\u5316\u4f20\u5a92;\u5c55\u89c8\u9986", "type": "enterprise", "detail_url": "http://api.map.baidu.com/place/detail?uid=25969ff1cc92373b28d7abc2&output=html&source=placeapi_v2", "children": []}}, {"name": "\u738b\u897f\u4eac\u827a\u672f\u9648\u5217\u9986", "location": {"lat": 34.199715, "lng": 108.86376}, "address": "\u9ad8\u65b0\u9526\u4e1a\u8def76\u53f7", "province": "\u9655\u897f\u7701", "city": "\u897f\u5b89\u5e02", "area": "\u96c1\u5854\u533a", "street_id": "d5db08af72bfc7491b11d501", "detail": 1, "uid": "d5db08af72bfc7491b11d501", "detail_info": {"tag": "\u65c5\u6e38\u666f\u70b9;\u6587\u7269\u53e4\u8ff9", "type": "scope", "detail_url": "http://api.map.baidu.com/place/detail?uid=d5db08af72bfc7491b11d501&output=html&source=placeapi_v2", "children": []}}, {"name": "\u897f\u5b89\u7f94\u7f8a\u5723\u534e\u57fa\u7763\u8036\u7a23\u6559\u4f1a", "location": {"lat": 34.223356, "lng": 108.906865}, "address": "\u79d1\u6280\u4e8c\u8def\u7518\u5bb6\u5be8\u4e1c\u4e09\u639227\u53f7\u697c", "province": "\u9655\u897f\u7701", "city": "\u897f\u5b89\u5e02", "area": "\u96c1\u5854\u533a", "street_id": "1661d92ffdd8208409a8d443", "detail": 1, "uid": "1661d92ffdd8208409a8d443", "detail_info": {"tag": "\u65c5\u6e38\u666f\u70b9;\u6559\u5802", "type": "scope", "detail_url": "http://api.map.baidu.com/place/detail?uid=1661d92ffdd8208409a8d443&output=html&source=placeapi_v2", "children": []}}, {"name": "\u4e2d\u6b27\u753b\u5eca", "location": {"lat": 34.26245, "lng": 108.896717}, "address": "\u897f\u4e8c\u73af195\u53f7", "province": "\u9655\u897f\u7701", "city": "\u897f\u5b89\u5e02", "area": "\u83b2\u6e56\u533a", "street_id": "8756a335192cb778631809a2", "detail": 1, "uid": "8756a335192cb778631809a2", "detail_info": {"tag": "\u8d2d\u7269;\u5546\u94fa", "navi_location": {"lng": 108.89697618432, "lat": 34.262525904698}, "type": "scope", "detail_url": "http://api.map.baidu.com/place/detail?uid=8756a335192cb778631809a2&output=html&source=placeapi_v2", "comment_num": "1", "children": []}}, {"name": "\u4e94\u89c2\u5802", "location": {"lat": 34.233266, "lng": 108.950085}, "address": "\u897f\u5b89\u5e02\u96c1\u5854\u533a\u5174\u5584\u5bfa\u897f\u8857", "province": "\u9655\u897f\u7701", "city": "\u897f\u5b89\u5e02", "area": "\u96c1\u5854\u533a", "street_id": "cd5b85542693f99de856fa49", "detail": 1, "uid": "cd5b85542693f99de856fa49", "detail_info": {"tag": "\u65c5\u6e38\u666f\u70b9;\u98ce\u666f\u533a", "navi_location": {"lng": 108.95023074069, "lat": 34.231757746759}, "type": "scope", "detail_url": "http://api.map.baidu.com/place/detail?uid=cd5b85542693f99de856fa49&output=html&source=placeapi_v2", "children": []}}, {"name": "\u9f99\u827a\u5802", "location": {"lat": 34.258605, "lng": 108.949223}, "address": "\u897f\u5b89\u5e02\u7891\u6797\u533a\u6e58\u5b50\u5e99\u885756\u53f7", "province": "\u9655\u897f\u7701", "city": "\u897f\u5b89\u5e02", "area": "\u7891\u6797\u533a", "street_id": "972e728816d205fbee74f808", "detail": 1, "uid": "972e728816d205fbee74f808", "detail_info": {"tag": "\u6587\u5316\u4f20\u5a92;\u7f8e\u672f\u9986", "type": "life", "detail_url": "http://api.map.baidu.com/place/detail?uid=972e728816d205fbee74f808&output=html&source=placeapi_v2", "image_num": "1", "children": []}}, {"name": "\u5e73\u5b89\u5730\u85cf\u6bbf", "location": {"lat": 34.232364, "lng": 108.950174}, "address": "\u9655\u897f\u7701\u897f\u5b89\u5e02\u96c1\u5854\u533a\u5927\u5174\u5584\u5bfa(\u5174\u5584\u5bfa\u897f\u8857\u5317)", "province": "\u9655\u897f\u7701", "city": "\u897f\u5b89\u5e02", "area": "\u96c1\u5854\u533a", "street_id": "326d0ccf9fe34502bb17e757", "detail": 1, "uid": "326d0ccf9fe34502bb17e757", "detail_info": {"tag": "\u65c5\u6e38\u666f\u70b9;\u6587\u7269\u53e4\u8ff9", "navi_location": {"lng": 108.95023074069, "lat": 34.231757746759}, "type": "scope", "detail_url": "http://api.map.baidu.com/place/detail?uid=326d0ccf9fe34502bb17e757&output=html&source=placeapi_v2", "children": []}}, {"name": "\u897f\u5b89\u4ea4\u901a\u5927\u5b66\u533b\u5b66\u6821\u533a-\u56fd\u9645\u4f1a\u8bae\u5385", "location": {"lat": 34.223542, "lng": 108.946722}, "address": "\u96c1\u5854\u897f\u8def76\u53f7", "province": "\u9655\u897f\u7701", "city": "\u897f\u5b89\u5e02", "area": "\u96c1\u5854\u533a", "street_id": "9cedcc5c5b64c09e0869d96b", "detail": 1, "uid": "9cedcc5c5b64c09e0869d96b", "detail_info": {"tag": "\u6587\u5316\u4f20\u5a92;\u5c55\u89c8\u9986", "navi_location": {"lng": 108.94689970708, "lat": 34.223544623728}, "type": "scope", "detail_url": "http://api.map.baidu.com/place/detail?uid=9cedcc5c5b64c09e0869d96b&output=html&source=placeapi_v2", "overall_rating": "0.0", "children": []}}, {"name": "\u6587\u660c\u9601", "location": {"lat": 34.26698, "lng": 108.943813}, "address": "\u9655\u897f\u7701\u897f\u5b89\u5e02\u83b2\u6e56\u533a\u897f\u5927\u8857129\u53f7\u90fd\u57ce\u968d\u5e99\u6279\u53d1\u5e02\u573a\u4e00\u53f7", "province": "\u9655\u897f\u7701", "city": "\u897f\u5b89\u5e02", "area": "\u83b2\u6e56\u533a", "street_id": "75830a617d42722cab0dd8be", "detail": 1, "uid": "75830a617d42722cab0dd8be", "detail_info": {"tag": "\u65c5\u6e38\u666f\u70b9;\u6587\u7269\u53e4\u8ff9", "type": "scope", "detail_url": "http://api.map.baidu.com/place/detail?uid=75830a617d42722cab0dd8be&output=html&source=placeapi_v2", "children": []}}, {"name": "\u4f53\u80b2\u68ee\u6797", "location": {"lat": 34.221331, "lng": 108.932673}, "address": "\u9655\u897f\u7701\u897f\u5b89\u5e02\u96c1\u5854\u533a\u5409\u7965\u8bda\u4fe1\u5546\u4e1a\u8857A\u533a16\u53f7", "province": "\u9655\u897f\u7701", "city": "\u897f\u5b89\u5e02", "area": "\u96c1\u5854\u533a", "street_id": "57788f394a3e7f29c9fa5f77", "telephone": "13379232816,13519193525", "detail": 1, "uid": "57788f394a3e7f29c9fa5f77", "detail_info": {"tag": "\u65c5\u6e38\u666f\u70b9;\u516c\u56ed", "type": "scope", "detail_url": "http://api.map.baidu.com/place/detail?uid=57788f394a3e7f29c9fa5f77&output=html&source=placeapi_v2", "children": []}}, {"name": "\u5f20\u5b63\u9e3e\u65b0\u95fb\u9986", "location": {"lat": 34.236655, "lng": 108.875545}, "address": "\u9752\u4e91\u8def\u9644\u8fd1", "province": "\u9655\u897f\u7701", "city": "\u897f\u5b89\u5e02", "area": "\u96c1\u5854\u533a", "street_id": "c16c214146306e97fb2d61a9", "detail": 1, "uid": "c16c214146306e97fb2d61a9", "detail_info": {"tag": "\u65c5\u6e38\u666f\u70b9;\u6587\u7269\u53e4\u8ff9", "type": "scope", "detail_url": "http://api.map.baidu.com/place/detail?uid=c16c214146306e97fb2d61a9&output=html&source=placeapi_v2", "comment_num": "0", "children": []}}, {"name": "\u5367\u4f5b\u6bbf", "location": {"lat": 34.233983, "lng": 108.949491}, "address": "\u897f\u5b89\u5e02\u96c1\u5854\u533a\u5174\u5584\u5bfa\u897f\u8857", "province": "\u9655\u897f\u7701", "city": "\u897f\u5b89\u5e02", "area": "\u96c1\u5854\u533a", "street_id": "fdc454ef930568c82fe67b93", "detail": 1, "uid": "fdc454ef930568c82fe67b93", "detail_info": {"tag": "\u65c5\u6e38\u666f\u70b9;\u6587\u7269\u53e4\u8ff9", "navi_location": {"lng": 108.94994888925, "lat": 34.23174608599}, "type": "scope", "detail_url": "http://api.map.baidu.com/place/detail?uid=fdc454ef930568c82fe67b93&output=html&source=placeapi_v2", "children": []}}, {"name": "\u51e4\u6816\u5c71\u5317\u533a\u4eba\u6587\u7eaa\u5ff5\u56ed", "location": {"lat": 34.26995, "lng": 108.897203}, "address": "\u56e2\u7ed3\u4e2d\u8def35\u53f7\u9644\u8fd1", "province": "\u9655\u897f\u7701", "city": "\u897f\u5b89\u5e02", "area": "\u83b2\u6e56\u533a", "street_id": "59acc20372c79e75ae080f39", "telephone": "(029)84240340", "detail": 1, "uid": "59acc20372c79e75ae080f39", "detail_info": {"tag": "\u65c5\u6e38\u666f\u70b9;\u6587\u7269\u53e4\u8ff9", "type": "scope", "detail_url": "http://api.map.baidu.com/place/detail?uid=59acc20372c79e75ae080f39&output=html&source=placeapi_v2", "children": []}}, {"name": "\u8fc8\u79d1\u56fd\u9645\u5927\u53a6-\u4f1a\u8bae\u4e2d\u5fc3", "location": {"lat": 34.223522, "lng": 108.896673}, "address": "\u5510\u5ef6\u8def33\u53f7\u8fc8\u79d1\u56fd\u9645\u5927\u53a624\u5c42", "province": "\u9655\u897f\u7701", "city": "\u897f\u5b89\u5e02", "area": "\u96c1\u5854\u533a", "street_id": "017ebbb85fb0567debe58246", "detail": 1, "uid": "017ebbb85fb0567debe58246", "detail_info": {"tag": "\u6587\u5316\u4f20\u5a92;\u5c55\u89c8\u9986", "type": "scope", "detail_url": "http://api.map.baidu.com/place/detail?uid=017ebbb85fb0567debe58246&output=html&source=placeapi_v2", "overall_rating": "0.0", "children": []}}, {"name": "\u5929\u4e3b\u6559\u897f\u5b89\u6559\u533a\u5723\u5b89\u591a\u5c3c\u5802", "location": {"lat": 34.263061, "lng": 108.881585}, "address": "\u76ca\u6c11\u574a29\u53f7", "province": "\u9655\u897f\u7701", "city": "\u897f\u5b89\u5e02", "area": "\u83b2\u6e56\u533a", "street_id": "16f6b9b46ce9611fcd04ef72", "detail": 1, "uid": "16f6b9b46ce9611fcd04ef72", "detail_info": {"tag": "\u65c5\u6e38\u666f\u70b9;\u6559\u5802", "type": "scope", "detail_url": "http://api.map.baidu.com/place/detail?uid=16f6b9b46ce9611fcd04ef72&output=html&source=placeapi_v2", "children": []}}, {"name": "\u897f\u5b89\u5e02\u5927\u5510\u9752\u94dc\u955c\u535a\u7269\u9986", "location": {"lat": 34.188796, "lng": 108.887122}, "address": "\u897f\u5b89\u5e02\u9ad8\u65b0\u533a\u4e08\u516b\u4e8c\u8def\u548c\u9526\u4e1a\u4e8c\u8def\u5341\u5b57\u9038\u7fe0\u5c1a\u5e9c\u5317\u533a70117\u5ba4", "province": "\u9655\u897f\u7701", "city": "\u897f\u5b89\u5e02", "area": "\u96c1\u5854\u533a", "detail": 1, "uid": "12e6ed273446f7e160180982", "detail_info": {"tag": "\u65c5\u6e38\u666f\u70b9;\u535a\u7269\u9986", "type": "scope", "detail_url": "http://api.map.baidu.com/place/detail?uid=12e6ed273446f7e160180982&output=html&source=placeapi_v2", "children": []}}, {"name": "\u4e50\u7fd4\u513f\u7ae5\u4e3b\u9898\u4e50\u56ed", "location": {"lat": 34.253471, "lng": 108.883319}, "address": "\u6c11\u6d01\u8def\u98ce\u6797\u534e\u5e9c\u897f\u95e8\u5efa\u8bbe\u94f6\u884c2\u697c\u4e0a(\u5361\u5e03\u5947\u8bfa\u5bf9\u9762)", "province": "\u9655\u897f\u7701", "city": "\u897f\u5b89\u5e02", "area": "\u96c1\u5854\u533a", "street_id": "e1e0e1e194e62fbe51e5c5c4", "detail": 1, "uid": "e1e0e1e194e62fbe51e5c5c4", "detail_info": {"tag": "\u65c5\u6e38\u666f\u70b9;\u6e38\u4e50\u56ed", "type": "scope", "detail_url": "http://api.map.baidu.com/place/detail?uid=e1e0e1e194e62fbe51e5c5c4&output=html&source=placeapi_v2", "children": []}}, {"name": "\u5fd7\u8bda\u00b7\u4e3d\u67cf\u9152\u5e97-\u4f1a\u8bae\u4e2d\u5fc3", "location": {"lat": 34.240031, "lng": 108.911728}, "address": "\u9ad8\u65b0\u8def46\u53f7\u5fd7\u8bda\u00b7\u4e3d\u67cf\u9152\u5e9720\u5c42", "province": "\u9655\u897f\u7701", "city": "\u897f\u5b89\u5e02", "area": "\u96c1\u5854\u533a", "street_id": "b8acbe0d2d93a2938bfc06f1", "detail": 1, "uid": "b8acbe0d2d93a2938bfc06f1", "detail_info": {"tag": "\u6587\u5316\u4f20\u5a92;\u5c55\u89c8\u9986", "navi_location": {"lng": 108.91188843308, "lat": 34.239903534395}, "type": "scope", "detail_url": "http://api.map.baidu.com/place/detail?uid=b8acbe0d2d93a2938bfc06f1&output=html&source=placeapi_v2", "overall_rating": "0.0", "children": []}}, {"name": "\u52b3\u52a8\u516c\u56ed-\u4e1c\u95e8\u81ea\u884c\u8f66\u79df\u8d41\u70b9", "location": {"lat": 34.271795, "lng": 108.911925}, "address": "\u65b0\u56ed\u8def34\u53f7", "province": "\u9655\u897f\u7701", "city": "\u897f\u5b89\u5e02", "area": "\u83b2\u6e56\u533a", "street_id": "2a6fdbe9ae61465f90114c2f", "detail": 1, "uid": "2a6fdbe9ae61465f90114c2f", "detail_info": {"tag": "\u4ea4\u901a\u8bbe\u65bd;\u5176\u4ed6", "type": "life", "detail_url": "http://api.map.baidu.com/place/detail?uid=2a6fdbe9ae61465f90114c2f&output=html&source=placeapi_v2", "overall_rating": "4.0", "image_num": "1", "comment_num": "1", "children": []}}, {"name": "\u9f50\u5929\u5927\u5723\u4e32\u4e32(\u7389\u7965\u95e8\u5e97)", "location": {"lat": 34.275699, "lng": 108.922639}, "address": "\u7389\u7965\u95e8\u5916\u5927\u5e86\u8def\u7389\u6797\u6c7d\u914d\u57ce11-121\u53f7", "province": "\u9655\u897f\u7701", "city": "\u897f\u5b89\u5e02", "area": "\u83b2\u6e56\u533a", "street_id": "7b7d58cc8077625ef90cad9e", "detail": 1, "uid": "7b7d58cc8077625ef90cad9e", "detail_info": {"tag": "\u65c5\u6e38\u666f\u70b9;\u6587\u7269\u53e4\u8ff9", "type": "scope", "detail_url": "http://api.map.baidu.com/place/detail?uid=7b7d58cc8077625ef90cad9e&output=html&source=placeapi_v2", "children": []}}, {"name": "\u91d1\u6e56\u6e38\u8239", "location": {"lat": 34.252917, "lng": 108.903583}, "address": "\u4e8c\u73af\u5357\u8def\u897f\u6bb5401\u53f7\u4e30\u5e86\u516c\u56ed\u9644\u8fd1", "province": "\u9655\u897f\u7701", "city": "\u897f\u5b89\u5e02", "area": "\u83b2\u6e56\u533a", "street_id": "1f842d56b674751ea21de93e", "detail": 1, "uid": "1f842d56b674751ea21de93e", "detail_info": {"tag": "\u65c5\u6e38\u666f\u70b9;\u6e38\u4e50\u56ed", "type": "scope", "detail_url": "http://api.map.baidu.com/place/detail?uid=1f842d56b674751ea21de93e&output=html&source=placeapi_v2", "overall_rating": "0.0", "comment_num": "0", "children": []}}, {"name": "\u5b9e\u9645\u5bfa\u7eaa\u5ff5\u4ead\u7891", "location": {"lat": 34.2532, "lng": 108.933985}, "address": "\u592a\u767d\u5317\u8def229\u53f7\u534e\u4e25\u6559\u80b2\u9644\u8fd1", "province": "\u9655\u897f\u7701", "city": "\u897f\u5b89\u5e02", "area": "\u7891\u6797\u533a", "street_id": "2d8346330e1d217e873304fc", "detail": 1, "uid": "2d8346330e1d217e873304fc", "detail_info": {"tag": "\u65c5\u6e38\u666f\u70b9;\u6587\u7269\u53e4\u8ff9", "navi_location": {"lng": 108.93383126901, "lat": 34.253198788877}, "type": "scope", "detail_url": "http://api.map.baidu.com/place/detail?uid=2d8346330e1d217e873304fc&output=html&source=placeapi_v2", "overall_rating": "0.0", "comment_num": "2", "children": []}}, {"name": "\u84dd\u6eaa\u56fd\u9645\u9152\u5e97\u4f1a\u8bae\u4e2d\u5fc3", "location": {"lat": 34.244822, "lng": 108.905415}, "address": "\u5149\u548c\u8def\u4e0e\u9ad8\u65b0\u56db\u8def\u4ea4\u53c9\u53e3\u4e1c150\u7c73", "province": "\u9655\u897f\u7701", "city": "\u897f\u5b89\u5e02", "area": "\u96c1\u5854\u533a", "street_id": "441288b94766d17c4054d709", "detail": 1, "uid": "441288b94766d17c4054d709", "detail_info": {"tag": "\u6587\u5316\u4f20\u5a92;\u5c55\u89c8\u9986", "type": "enterprise", "detail_url": "http://api.map.baidu.com/place/detail?uid=441288b94766d17c4054d709&output=html&source=placeapi_v2", "children": []}}, {"name": "\u4ec1\u4e49\u5df7", "location": {"lat": 34.259134, "lng": 108.930772}, "address": "\u9655\u897f\u7701\u897f\u5b89\u5e02\u83b2\u6e56\u533a\u73af\u57ce\u897f\u8def\u5357\u6bb53\u8001\u5b57\u53f7\u897f\u51e4\u9152\u6587\u5316\u9986\u9644\u8fd1", "province": "\u9655\u897f\u7701", "city": "\u897f\u5b89\u5e02", "area": "\u83b2\u6e56\u533a", "street_id": "e907a887ebb324f0130daa8b", "detail": 1, "uid": "e907a887ebb324f0130daa8b", "detail_info": {"tag": "\u65c5\u6e38\u666f\u70b9;\u98ce\u666f\u533a", "type": "scope", "detail_url": "http://api.map.baidu.com/place/detail?uid=e907a887ebb324f0130daa8b&output=html&source=placeapi_v2", "children": []}}, {"name": "\u6e58\u5b50\u5e9970#\u7f8e\u672f\u9986", "location": {"lat": 34.258485, "lng": 108.948517}, "address": "\u9655\u897f\u7701\u897f\u5b89\u5e02\u7891\u6797\u533a\u6e58\u5b50\u5e9970\u53f7\u7f8e\u672f\u9986(\u73af\u57ce\u516c\u56ed\u9644\u8fd1)", "province": "\u9655\u897f\u7701", "city": "\u897f\u5b89\u5e02", "area": "\u7891\u6797\u533a", "street_id": "464ee00f4f5ea06610293576", "telephone": "(029)87269787", "detail": 1, "uid": "d8a6d2d7f943f3b949fd3f15", "detail_info": {"tag": "\u6587\u5316\u4f20\u5a92;\u7f8e\u672f\u9986", "navi_location": {"lng": 108.94845974844, "lat": 34.25867157568}, "type": "scope", "detail_url": "http://api.map.baidu.com/place/detail?uid=d8a6d2d7f943f3b949fd3f15&output=html&source=placeapi_v2", "overall_rating": "4.0", "comment_num": "2", "children": []}}, {"name": "\u534e\u51cc\u666f\u89c2", "location": {"lat": 34.181278, "lng": 108.911342}, "address": "\u9655\u897f\u7701\u897f\u5b89\u5e02\u96c1\u5854\u533a\u7535\u5b50\u57ce\u8857\u9053\u5b50\u5348\u5927\u9053\u534e\u51cc\u666f\u89c2", "province": "\u9655\u897f\u7701", "city": "\u897f\u5b89\u5e02", "area": "\u96c1\u5854\u533a", "street_id": "278adbc1931eed58354aaea1", "detail": 1, "uid": "278adbc1931eed58354aaea1", "detail_info": {"tag": "\u65c5\u6e38\u666f\u70b9", "type": "scope", "detail_url": "http://api.map.baidu.com/place/detail?uid=278adbc1931eed58354aaea1&output=html&source=placeapi_v2", "children": []}}, {"name": "\u534f\u540c\u5546\u52a1\u4f1a\u8bae\u4e2d\u5fc3", "location": {"lat": 34.242774, "lng": 108.908512}, "address": "\u9ad8\u65b0\u4e8c\u8def12\u53f7\u534f\u540c\u5927\u53a61\u5c42", "province": "\u9655\u897f\u7701", "city": "\u897f\u5b89\u5e02", "area": "\u96c1\u5854\u533a", "street_id": "fd13a3f295766587b1077d07", "detail": 1, "uid": "fd13a3f295766587b1077d07", "detail_info": {"tag": "\u6587\u5316\u4f20\u5a92;\u5c55\u89c8\u9986", "navi_location": {"lng": 108.90849378417, "lat": 34.242522116208}, "type": "scope", "detail_url": "http://api.map.baidu.com/place/detail?uid=fd13a3f295766587b1077d07&output=html&source=placeapi_v2", "overall_rating": "4.0", "children": []}}, {"name": "\u68a6\u5e90\u4e66\u753b\u827a\u672f\u9986", "location": {"lat": 34.265217, "lng": 108.941654}, "address": "\u897f\u5927\u8857160\u53f72\u5c42", "province": "\u9655\u897f\u7701", "city": "\u897f\u5b89\u5e02", "area": "\u7891\u6797\u533a", "street_id": "157766d276e67a0ea20464d7", "telephone": "(029)62885209", "detail": 1, "uid": "157766d276e67a0ea20464d7", "detail_info": {"tag": "\u6587\u5316\u4f20\u5a92;\u7f8e\u672f\u9986", "type": "scope", "detail_url": "http://api.map.baidu.com/place/detail?uid=157766d276e67a0ea20464d7&output=html&source=placeapi_v2", "comment_num": "0", "children": []}}, {"name": "\u6813\u9a6c\u6869", "location": {"lat": 34.266118, "lng": 108.930834}, "address": "\u897f\u5b89\u5e02\u83b2\u6e56\u533a\u897f\u95e8\u76d8\u9053\u57ce\u5899\u897f\u4fa7\u62a4\u57ce\u6cb3\u4e24\u5cb8\u73af\u57ce\u897f\u82d1(\u73af\u57ce\u897f\u8def\u5357\u6bb5)\u5185", "province": "\u9655\u897f\u7701", "city": "\u897f\u5b89\u5e02", "area": "\u83b2\u6e56\u533a", "street_id": "393a0211739bc2a226e0a0a9", "detail": 1, "uid": "393a0211739bc2a226e0a0a9", "detail_info": {"tag": "\u65c5\u6e38\u666f\u70b9;\u5176\u4ed6", "type": "scope", "detail_url": "http://api.map.baidu.com/place/detail?uid=393a0211739bc2a226e0a0a9&output=html&source=placeapi_v2", "children": []}}, {"name": "\u5927\u76ae\u9662\u6e05\u771f\u5bfa-\u5317\u9662", "location": {"lat": 34.270799, "lng": 108.946155}, "address": "\u897f\u5b89\u5e02\u83b2\u6e56\u533a\u5927\u76ae\u9662\u8857207\u53f7", "province": "\u9655\u897f\u7701", "city": "\u897f\u5b89\u5e02", "area": "\u83b2\u6e56\u533a", "street_id": "eb75f4f46d9832800ab93a05", "detail": 1, "uid": "eb75f4f46d9832800ab93a05", "detail_info": {"tag": "\u65c5\u6e38\u666f\u70b9;\u6559\u5802", "type": "scope", "detail_url": "http://api.map.baidu.com/place/detail?uid=eb75f4f46d9832800ab93a05&output=html&source=placeapi_v2", "children": []}}, {"name": "\u8001\u9e8b\u5bb6", "location": {"lat": 34.268527, "lng": 108.94282}, "address": "\u897f\u5b89\u5e02\u83b2\u6e56\u533a\u5927\u5b66\u4e60\u5df783", "province": "\u9655\u897f\u7701", "city": "\u897f\u5b89\u5e02", "area": "\u83b2\u6e56\u533a", "street_id": "7398fe3da7891f39d4851fce", "detail": 1, "uid": "7398fe3da7891f39d4851fce", "detail_info": {"tag": "\u65c5\u6e38\u666f\u70b9;\u6587\u7269\u53e4\u8ff9", "type": "scope", "detail_url": "http://api.map.baidu.com/place/detail?uid=7398fe3da7891f39d4851fce&output=html&source=placeapi_v2", "children": []}}, {"name": "\u9655\u897f\u7701\u8336\u6587\u5316\u535a\u7269\u9986", "location": {"lat": 34.176522, "lng": 108.876154}, "address": "\u535a\u58eb\u8def\u4e0e\u897f\u90e8\u5927\u9053\u5341\u5b57\u4f01\u4e1a\u4e00\u53f7\u516c\u56ed34\u680b", "province": "\u9655\u897f\u7701", "city": "\u897f\u5b89\u5e02", "area": "\u957f\u5b89\u533a", "street_id": "d2b57f509006781fa3d23016", "detail": 1, "uid": "d2b57f509006781fa3d23016", "detail_info": {"tag": "\u65c5\u6e38\u666f\u70b9;\u535a\u7269\u9986", "type": "scope", "detail_url": "http://api.map.baidu.com/place/detail?uid=d2b57f509006781fa3d23016&output=html&source=placeapi_v2", "children": []}}, {"name": "\u516c\u56ed\u5929\u4e0b-11\u680b", "location": {"lat": 34.255252, "lng": 108.909197}, "address": "\u516c\u56ed\u5929\u4e0b11\u680b", "province": "\u9655\u897f\u7701", "city": "\u897f\u5b89\u5e02", "area": "\u83b2\u6e56\u533a", "street_id": "2c3e0ddff3566f25f33cba5f", "detail": 1, "uid": "2c3e0ddff3566f25f33cba5f", "detail_info": {"tag": "\u623f\u5730\u4ea7;\u5185\u90e8\u697c\u680b", "type": "house", "detail_url": "http://api.map.baidu.com/place/detail?uid=2c3e0ddff3566f25f33cba5f&output=html&source=placeapi_v2", "children": []}}, {"name": "\u897f\u5317\u8054\u5927\u7eaa\u5ff5\u7891", "location": {"lat": 34.255606, "lng": 108.932214}, "address": "\u9655\u897f\u7701\u897f\u5b89\u5e02\u7891\u6797\u533a\u592a\u767d\u5317\u8def229\u53f7\u897f\u5317\u5927\u5b66\u592a\u767d\u6821\u533a", "province": "\u9655\u897f\u7701", "city": "\u897f\u5b89\u5e02", "area": "\u7891\u6797\u533a", "street_id": "73b1b4845c78a5c088f15dfc", "detail": 1, "uid": "73b1b4845c78a5c088f15dfc", "detail_info": {"tag": "\u65c5\u6e38\u666f\u70b9;\u6587\u7269\u53e4\u8ff9", "navi_location": {"lng": 108.93219870295, "lat": 34.2558755262}, "type": "scope", "detail_url": "http://api.map.baidu.com/place/detail?uid=73b1b4845c78a5c088f15dfc&output=html&source=placeapi_v2", "overall_rating": "0.0", "comment_num": "2", "children": []}}, {"name": "\u897f\u5317\u5927\u5b66\u6843\u56ed\u6821\u533a-\u4f1a\u8bae\u4e2d\u5fc3", "location": {"lat": 34.245063, "lng": 108.901622}, "address": "\u9ad8\u65b0\u56db\u8def\u75328\u897f\u5317\u5927\u5b66\u6843\u56ed\u6821\u533a\u9644\u8fd1", "province": "\u9655\u897f\u7701", "city": "\u897f\u5b89\u5e02", "area": "\u96c1\u5854\u533a", "street_id": "3516d2b5674c8d8602294fdd", "detail": 1, "uid": "3516d2b5674c8d8602294fdd", "detail_info": {"tag": "\u6587\u5316\u4f20\u5a92;\u5c55\u89c8\u9986", "type": "scope", "detail_url": "http://api.map.baidu.com/place/detail?uid=3516d2b5674c8d8602294fdd&output=html&source=placeapi_v2", "overall_rating": "3.0", "children": []}}, {"name": "\u5927\u660e\u5bab\u56fd\u5bb6\u9057\u5740\u516c\u56ed", "location": {"lat": 34.298634, "lng": 108.969898}, "address": "\u897f\u5b89\u5e02\u65b0\u57ce\u533a\u81ea\u5f3a\u4e1c\u8def585\u53f7", "province": "\u9655\u897f\u7701", "city": "\u897f\u5b89\u5e02", "area": "\u65b0\u57ce\u533a", "street_id": "14cefcf000806b7aa8175a24", "telephone": "(029)82200808", "detail": 1, "uid": "14cefcf000806b7aa8175a24", "detail_info": {"tag": "\u65c5\u6e38\u666f\u70b9;\u6587\u7269\u53e4\u8ff9", "navi_location": {"lng": 108.97049230712, "lat": 34.310354933588}, "type": "scope", "detail_url": "http://api.map.baidu.com/place/detail?uid=14cefcf000806b7aa8175a24&output=html&source=placeapi_v2", "overall_rating": "4.3", "comment_num": "500", "children": []}}, {"name": "\u897f\u5b89\u4e16\u535a\u56ed", "location": {"lat": 34.329558, "lng": 109.06792}, "address": "\u4e16\u535a\u5927\u90531\u53f7", "province": "\u9655\u897f\u7701", "city": "\u897f\u5b89\u5e02", "area": "\u705e\u6865\u533a", "street_id": "45dedf7d678747191e1d11cf", "detail": 1, "uid": "632f100d93fd423894ec84f8", "detail_info": {"tag": "\u65c5\u6e38\u666f\u70b9;\u98ce\u666f\u533a", "navi_location": {"lng": 109.07744583584, "lat": 34.32695906901}, "type": "scope", "detail_url": "http://api.map.baidu.com/place/detail?uid=632f100d93fd423894ec84f8&output=html&source=placeapi_v2", "overall_rating": "4.2", "comment_num": "258", "children": []}}, {"name": "\u5927\u534e1935", "location": {"lat": 34.2908, "lng": 108.980426}, "address": "\u9655\u897f\u7701\u897f\u5b89\u5e02\u65b0\u57ce\u533a\u592a\u534e\u5357\u8def251\u53f7", "province": "\u9655\u897f\u7701", "city": "\u897f\u5b89\u5e02", "area": "\u65b0\u57ce\u533a", "street_id": "88d8c74e29a2f6153b13fdbc", "detail": 1, "uid": "88d8c74e29a2f6153b13fdbc", "detail_info": {"tag": "\u65c5\u6e38\u666f\u70b9;\u5176\u4ed6", "navi_location": {"lng": 108.97801221209, "lat": 34.291061545697}, "type": "scope", "detail_url": "http://api.map.baidu.com/place/detail?uid=88d8c74e29a2f6153b13fdbc&output=html&source=placeapi_v2", "overall_rating": "5.0", "comment_num": "10", "children": []}}, {"name": "\u6843\u82b1\u6f6d", "location": {"lat": 34.309826, "lng": 109.039547}, "address": "\u9655\u897f\u7701\u897f\u5b89\u5e02\u705e\u6865\u533a\u6d50\u6cb3\u4e1c\u8def", "province": "\u9655\u897f\u7701", "city": "\u897f\u5b89\u5e02", "area": "\u705e\u6865\u533a", "street_id": "8bbda9efb8cedfa41ce99931", "detail": 1, "uid": "8bbda9efb8cedfa41ce99931", "detail_info": {"tag": "\u65c5\u6e38\u666f\u70b9;\u516c\u56ed", "navi_location": {"lng": 109.03929458074, "lat": 34.306181811521}, "type": "scope", "detail_url": "http://api.map.baidu.com/place/detail?uid=8bbda9efb8cedfa41ce99931&output=html&source=placeapi_v2", "overall_rating": "3.5", "comment_num": "11", "children": []}}, {"name": "\u705e\u6865\u751f\u6001\u6e7f\u5730\u516c\u56ed", "location": {"lat": 34.314038, "lng": 109.083857}, "address": "\u897f\u5b89\u5e02\u4e1c\u57ce\u5927\u9053", "province": "\u9655\u897f\u7701", "city": "\u897f\u5b89\u5e02", "area": "\u705e\u6865\u533a", "street_id": "fa42f5ef1bfffa5543ab9a78", "detail": 1, "uid": "fa42f5ef1bfffa5543ab9a78", "detail_info": {"tag": "\u65c5\u6e38\u666f\u70b9;\u516c\u56ed", "navi_location": {"lng": 109.08367675953, "lat": 34.314150397588}, "type": "scope", "detail_url": "http://api.map.baidu.com/place/detail?uid=fa42f5ef1bfffa5543ab9a78&output=html&source=placeapi_v2", "overall_rating": "4.0", "comment_num": "3", "children": []}}, {"name": "\u4e39\u51e4\u95e8\u9057\u5740\u535a\u7269\u9986", "location": {"lat": 34.287558, "lng": 108.970484}, "address": "\u81ea\u5f3a\u4e1c\u8def585\u53f7\u5927\u660e\u5bab\u56fd\u5bb6\u9057\u5740\u516c\u56ed\u5185", "province": "\u9655\u897f\u7701", "city": "\u897f\u5b89\u5e02", "area": "\u65b0\u57ce\u533a", "street_id": "b0efb0cf20475a4d250bd008", "detail": 1, "uid": "b0efb0cf20475a4d250bd008", "detail_info": {"tag": "\u65c5\u6e38\u666f\u70b9;\u535a\u7269\u9986", "navi_location": {"lng": 108.97204284442, "lat": 34.286864401329}, "type": "scope", "detail_url": "http://api.map.baidu.com/place/detail?uid=b0efb0cf20475a4d250bd008&output=html&source=placeapi_v2", "overall_rating": "4.3", "comment_num": "11", "children": []}}, {"name": "\u7384\u6b66\u95e8\u9057\u5740", "location": {"lat": 34.30856, "lng": 108.968653}, "address": "\u897f\u5b89\u5e02\u672a\u592e\u533a\u7384\u6b66\u8def126\u53f7\u9644\u8fd1", "province": "\u9655\u897f\u7701", "city": "\u897f\u5b89\u5e02", "area": "\u672a\u592e\u533a", "street_id": "1a539afaee6a3100adb22a9f", "detail": 1, "uid": "1a539afaee6a3100adb22a9f", "detail_info": {"tag": "\u65c5\u6e38\u666f\u70b9;\u6587\u7269\u53e4\u8ff9", "type": "scope", "detail_url": "http://api.map.baidu.com/place/detail?uid=1a539afaee6a3100adb22a9f&output=html&source=placeapi_v2", "overall_rating": "3.7", "comment_num": "12", "children": []}}, {"name": "\u949f\u9f13\u697c", "location": {"lat": 34.295946, "lng": 108.97177}, "address": "\u897f\u5b89\u5e02\u65b0\u57ce\u533a\u7384\u6b66\u8def126\u53f7\u5411\u4e1c400\u7c73\u5927\u660e\u5bab\u56fd\u5bb6\u9057\u5740\u516c\u56ed\u5185", "province": "\u9655\u897f\u7701", "city": "\u897f\u5b89\u5e02", "area": "\u65b0\u57ce\u533a", "street_id": "fd52a03241ba00e0e9f85389", "detail": 1, "uid": "fd52a03241ba00e0e9f85389", "detail_info": {"tag": "\u65c5\u6e38\u666f\u70b9;\u666f\u70b9", "type": "scope", "detail_url": "http://api.map.baidu.com/place/detail?uid=fd52a03241ba00e0e9f85389&output=html&source=placeapi_v2", "children": []}}, {"name": "\u534e\u5357\u57ce\u6b22\u4e50\u6c34\u4e16\u754c", "location": {"lat": 34.363955, "lng": 109.049672}, "address": "\u705e\u6865\u533a\u56fd\u9645\u6e2f\u52a1\u533a\u6e2f\u5174\u8def\u4e2d\u6bb52\u53f7\u534e\u5357\u57ce\u4ea4\u6613\u5e7f\u573a", "province": "\u9655\u897f\u7701", "city": "\u897f\u5b89\u5e02", "area": "\u705e\u6865\u533a", "street_id": "b36171458acba801f4eafcb6", "detail": 1, "uid": "b36171458acba801f4eafcb6", "detail_info": {"tag": "\u65c5\u6e38\u666f\u70b9;\u6e38\u4e50\u56ed", "navi_location": {"lng": 109.05025720295, "lat": 34.362789775931}, "type": "scope", "detail_url": "http://api.map.baidu.com/place/detail?uid=b36171458acba801f4eafcb6&output=html&source=placeapi_v2", "overall_rating": "4.0", "comment_num": "5", "children": []}}, {"name": "\u5e7f\u8fd0\u6f6d", "location": {"lat": 34.321727, "lng": 109.062931}, "address": "\u9655\u897f\u7701\u897f\u5b89\u5e02\u705e\u6865\u533a\u705e\u6865\u9547\u6d50\u705e\u751f\u6001\u533a", "province": "\u9655\u897f\u7701", "city": "\u897f\u5b89\u5e02", "area": "\u705e\u6865\u533a", "street_id": "8d96925c2354c646c1f1cf47", "detail": 1, "uid": "8d96925c2354c646c1f1cf47", "detail_info": {"tag": "\u65c5\u6e38\u666f\u70b9;\u5176\u4ed6", "navi_location": {"lng": 109.0644936421, "lat": 34.324327026165}, "type": "scope", "detail_url": "http://api.map.baidu.com/place/detail?uid=8d96925c2354c646c1f1cf47&output=html&source=placeapi_v2", "overall_rating": "4.5", "comment_num": "2", "children": []}}, {"name": "\u5b89\u8fdc\u95e8", "location": {"lat": 34.282565, "lng": 108.953645}, "address": "\u897f\u5b89\u5e02\u65b0\u57ce\u533a\u5317\u5927\u8857\u4e0e\u73af\u57ce\u5317\u8def\u4ea4\u6c47\u5904", "province": "\u9655\u897f\u7701", "city": "\u897f\u5b89\u5e02", "area": "\u65b0\u57ce\u533a", "street_id": "08fc93dff89627919b68b44f", "detail": 1, "uid": "08fc93dff89627919b68b44f", "detail_info": {"tag": "\u65c5\u6e38\u666f\u70b9;\u6587\u7269\u53e4\u8ff9", "navi_location": {"lng": 108.95357282615, "lat": 34.281550511021}, "type": "scope", "detail_url": "http://api.map.baidu.com/place/detail?uid=08fc93dff89627919b68b44f&output=html&source=placeapi_v2", "overall_rating": "3.4", "comment_num": "7", "children": []}}, {"name": "\u84ec\u83b1\u5c9b", "location": {"lat": 34.30369, "lng": 108.970215}, "address": "\u897f\u5b89\u5e02\u672a\u592e\u533a\u81ea\u5f3a\u4e1c\u8def585\u53f7\u5927\u660e\u5bab\u56fd\u5bb6\u9057\u5740\u516c\u56ed\u5185", "province": "\u9655\u897f\u7701", "city": "\u897f\u5b89\u5e02", "area": "\u672a\u592e\u533a", "street_id": "b317867113353557fa42b249", "detail": 1, "uid": "b317867113353557fa42b249", "detail_info": {"tag": "\u65c5\u6e38\u666f\u70b9;\u6587\u7269\u53e4\u8ff9", "type": "scope", "detail_url": "http://api.map.baidu.com/place/detail?uid=b317867113353557fa42b249&output=html&source=placeapi_v2", "overall_rating": "5.0", "comment_num": "4", "children": []}}, {"name": "\u897f\u5b89\u5d14\u632f\u5bbd\u7f8e\u672f\u9986", "location": {"lat": 34.294557, "lng": 109.095598}, "address": "\u67f3\u96ea\u8def996\u53f7", "province": "\u9655\u897f\u7701", "city": "\u897f\u5b89\u5e02", "area": "\u705e\u6865\u533a", "street_id": "4ed78398f151b3c345e27466", "telephone": "(029)88854699", "detail": 1, "uid": "4ed78398f151b3c345e27466", "detail_info": {"tag": "\u6587\u5316\u4f20\u5a92;\u7f8e\u672f\u9986", "type": "scope", "detail_url": "http://api.map.baidu.com/place/detail?uid=4ed78398f151b3c345e27466&output=html&source=placeapi_v2", "overall_rating": "5.0", "children": []}}, {"name": "\u957f\u5b89\u5854", "location": {"lat": 34.328264, "lng": 109.066501}, "address": "\u897f\u5b89\u5e02\u705e\u6865\u533a\u897f\u5b89\u4e16\u535a\u56ed\u5185\u73af\u9760\u8fd1\u9526\u7ee3\u6e56\u4e00\u4fa7", "province": "\u9655\u897f\u7701", "city": "\u897f\u5b89\u5e02", "area": "\u705e\u6865\u533a", "street_id": "91e3c7dea510b4eb210220df", "detail": 1, "uid": "91e3c7dea510b4eb210220df", "detail_info": {"tag": "\u65c5\u6e38\u666f\u70b9;\u6587\u7269\u53e4\u8ff9", "navi_location": {"lng": 109.06704940751, "lat": 34.328857288901}, "type": "scope", "detail_url": "http://api.map.baidu.com/place/detail?uid=91e3c7dea510b4eb210220df&output=html&source=placeapi_v2", "overall_rating": "4.3", "comment_num": "16", "children": []}}, {"name": "\u6e2d\u6ee8\u516c\u56ed", "location": {"lat": 34.355636, "lng": 108.964441}, "address": "\u9655\u897f\u7701\u897f\u5b89\u5e02\u672a\u592e\u533a\u6e2d\u6e05\u8def\u6e2d\u6ee8\u516c\u56ed(\u897f\u822a\u5916\u62db\u5c0f\u533a\u531750\u7c73)", "province": "\u9655\u897f\u7701", "city": "\u897f\u5b89\u5e02", "area": "\u672a\u592e\u533a", "street_id": "b5c14ef200149471a2d23014", "detail": 1, "uid": "b5c14ef200149471a2d23014", "detail_info": {"tag": "\u65c5\u6e38\u666f\u70b9;\u516c\u56ed", "navi_location": {"lng": 108.96440656577, "lat": 34.355226088312}, "type": "scope", "detail_url": "http://api.map.baidu.com/place/detail?uid=b5c14ef200149471a2d23014&output=html&source=placeapi_v2", "overall_rating": "5.0", "comment_num": "5", "children": []}}, {"name": "\u5927\u660e\u5bab\u513f\u7ae5\u4e50\u56ed", "location": {"lat": 34.305285, "lng": 108.976127}, "address": "\u897f\u5b89\u5e02\u672a\u592e\u533a\u81ea\u5f3a\u4e1c\u8def585\u53f7\u5927\u660e\u5bab\u56fd\u5bb6\u9057\u5740\u516c\u56ed\u5185", "province": "\u9655\u897f\u7701", "city": "\u897f\u5b89\u5e02", "area": "\u672a\u592e\u533a", "street_id": "24ba311b91ae2ddd07026f6c", "detail": 1, "uid": "24ba311b91ae2ddd07026f6c", "detail_info": {"tag": "\u65c5\u6e38\u666f\u70b9;\u666f\u70b9", "type": "scope", "detail_url": "http://api.map.baidu.com/place/detail?uid=24ba311b91ae2ddd07026f6c&output=html&source=placeapi_v2", "overall_rating": "4.6", "comment_num": "74", "children": []}}, {"name": "\u897f\u5b89\u89c4\u5212\u9986", "location": {"lat": 34.348837, "lng": 108.955793}, "address": "\u897f\u5b89\u5e02\u672a\u592e\u533a\u672a\u592e\u8def189", "province": "\u9655\u897f\u7701", "city": "\u897f\u5b89\u5e02", "area": "\u672a\u592e\u533a", "street_id": "23e85f0a8eab23146849f35b", "telephone": "(029)86783131", "detail": 1, "uid": "23e85f0a8eab23146849f35b", "detail_info": {"tag": "\u6587\u5316\u4f20\u5a92;\u5c55\u89c8\u9986", "navi_location": {"lng": 108.95683337332, "lat": 34.348925062748}, "type": "scope", "detail_url": "http://api.map.baidu.com/place/detail?uid=23e85f0a8eab23146849f35b&output=html&source=placeapi_v2", "overall_rating": "3.0", "children": []}}, {"name": "\u5e7f\u6cf0\u5e99", "location": {"lat": 34.329675, "lng": 109.023254}, "address": "\u897f\u5b89\u5e02\u672a\u592e\u533a\u5e7f\u5927\u95e8\u6751\u540e\u88572\u53f7", "province": "\u9655\u897f\u7701", "city": "\u897f\u5b89\u5e02", "area": "\u672a\u592e\u533a", "street_id": "a325f52145a929fd1d1d117e", "detail": 1, "uid": "a325f52145a929fd1d1d117e", "detail_info": {"tag": "\u65c5\u6e38\u666f\u70b9;\u6587\u7269\u53e4\u8ff9", "navi_location": {"lng": 109.02343969421, "lat": 34.329850757387}, "type": "scope", "detail_url": "http://api.map.baidu.com/place/detail?uid=a325f52145a929fd1d1d117e&output=html&source=placeapi_v2", "overall_rating": "3.3", "comment_num": "5", "children": []}}, {"name": "\u6167\u9759\u5bfa", "location": {"lat": 34.300773, "lng": 109.050442}, "address": "\u4e1c\u57ce\u5927\u9053\u4e0e\u5b98\u5385\u7acb\u4ea4\u4ea4\u53c9\u53e3\u897f\u5317100\u7c73", "province": "\u9655\u897f\u7701", "city": "\u897f\u5b89\u5e02", "area": "\u705e\u6865\u533a", "street_id": "9a360302a6c30f250d3dda48", "detail": 1, "uid": "9a360302a6c30f250d3dda48", "detail_info": {"tag": "\u65c5\u6e38\u666f\u70b9;\u6587\u7269\u53e4\u8ff9", "navi_location": {"lng": 109.05051617006, "lat": 34.300147134066}, "type": "scope", "detail_url": "http://api.map.baidu.com/place/detail?uid=9a360302a6c30f250d3dda48&output=html&source=placeapi_v2", "overall_rating": "4.0", "comment_num": "2", "children": []}}, {"name": "\u5927\u660e\u5bab\u56fd\u5bb6\u9057\u5740\u516c\u56ed-\u6e38\u5ba2\u670d\u52a1\u4e2d\u5fc3", "location": {"lat": 34.288532, "lng": 108.973096}, "address": "\u897f\u5b89\u5e02\u65b0\u57ce\u533a\u81ea\u5f3a\u4e1c\u8def585\u53f7\u5927\u660e\u5bab\u56fd\u5bb6\u9057\u5740\u516c\u56ed\u5185", "province": "\u9655\u897f\u7701", "city": "\u897f\u5b89\u5e02", "area": "\u65b0\u57ce\u533a", "detail": 1, "uid": "295bc2b394a66704621809a9", "detail_info": {"tag": "\u751f\u6d3b\u670d\u52a1;\u5176\u4ed6", "type": "scope", "detail_url": "http://api.map.baidu.com/place/detail?uid=295bc2b394a66704621809a9&output=html&source=placeapi_v2", "overall_rating": "5.0", "comment_num": "2", "children": []}}, {"name": "\u535a\u96c4\u6e38\u4e50\u573a", "location": {"lat": 34.325404, "lng": 109.072836}, "address": "\u4e16\u535a\u56ed\u6d63\u6eaa\u6c99\u6e38\u4e50\u573a\u5357\u4fa7", "province": "\u9655\u897f\u7701", "city": "\u897f\u5b89\u5e02", "area": "\u705e\u6865\u533a", "street_id": "3ee0edfe47b35870130daaff", "detail": 1, "uid": "3ee0edfe47b35870130daaff", "detail_info": {"tag": "\u65c5\u6e38\u666f\u70b9;\u6e38\u4e50\u56ed", "type": "scope", "detail_url": "http://api.map.baidu.com/place/detail?uid=3ee0edfe47b35870130daaff&output=html&source=placeapi_v2", "overall_rating": "4.6", "comment_num": "0", "children": []}}, {"name": "\u6d50\u705e\u751f\u6001\u533a\u57ce\u5efa\u535a\u7269\u9986", "location": {"lat": 34.325267, "lng": 109.052344}, "address": "\u6d50\u705e\u751f\u6001\u533a\u6d50\u705e\u5927\u90531\u53f7", "province": "\u9655\u897f\u7701", "city": "\u897f\u5b89\u5e02", "area": "\u705e\u6865\u533a", "street_id": "9dfc377c1e58cc5e1b11d5cb", "telephone": "(029)83565247", "detail": 1, "uid": "9dfc377c1e58cc5e1b11d5cb", "detail_info": {"tag": "\u65c5\u6e38\u666f\u70b9;\u535a\u7269\u9986", "navi_location": {"lng": 109.05302606889, "lat": 34.325288336802}, "type": "scope", "detail_url": "http://api.map.baidu.com/place/detail?uid=9dfc377c1e58cc5e1b11d5cb&output=html&source=placeapi_v2", "overall_rating": "4.0", "comment_num": "0", "children": []}}, {"name": "\u4e09\u6e05\u6bbf\u9057\u5740", "location": {"lat": 34.307102, "lng": 108.965811}, "address": "\u897f\u5b89\u5e02\u672a\u592e\u533a\u81ea\u5f3a\u4e1c\u8def585\u53f7\u5927\u660e\u5bab\u56fd\u5bb6\u9057\u5740\u516c\u56ed\u5185", "province": "\u9655\u897f\u7701", "city": "\u897f\u5b89\u5e02", "area": "\u672a\u592e\u533a", "street_id": "c0bdce36719aa692601c6710", "detail": 1, "uid": "c0bdce36719aa692601c6710", "detail_info": {"tag": "\u65c5\u6e38\u666f\u70b9;\u6587\u7269\u53e4\u8ff9", "navi_location": {"lng": 108.96689486215, "lat": 34.310193298888}, "type": "scope", "detail_url": "http://api.map.baidu.com/place/detail?uid=c0bdce36719aa692601c6710&output=html&source=placeapi_v2", "overall_rating": "5.0", "comment_num": "1", "children": []}}, {"name": "\u68a6\u5e7b\u5821\u513f\u7ae5\u6e38\u4e50\u573a", "location": {"lat": 34.358203, "lng": 108.972201}, "address": "\u6e2d\u6ee8\u4e1c\u8def\u4e0e\u6e2d\u6ee8\u897f\u8def\u5341\u5b57,\u534e\u6da6\u4e07\u5bb6\u5bf9\u9762(\u4ebf\u8fbe\u5546\u57ce\u4e8c\u697c)", "province": "\u9655\u897f\u7701", "city": "\u897f\u5b89\u5e02", "area": "\u672a\u592e\u533a", "street_id": "44bacdaaa7a5cc7c63180908", "telephone": "(029)88562302", "detail": 1, "uid": "44bacdaaa7a5cc7c63180908", "detail_info": {"tag": "\u65c5\u6e38\u666f\u70b9;\u6e38\u4e50\u56ed", "navi_location": {"lng": 108.97210948162, "lat": 34.35802551002}, "type": "scope", "detail_url": "http://api.map.baidu.com/place/detail?uid=44bacdaaa7a5cc7c63180908&output=html&source=placeapi_v2", "overall_rating": "4.9", "comment_num": "37", "children": []}}, {"name": "\u9655\u897f\u7701\u975e\u7269\u8d28\u6587\u5316\u9057\u4ea7\u9648\u5217\u9986", "location": {"lat": 34.280114, "lng": 108.956837}, "address": "\u897f\u4e03\u8def285-1", "province": "\u9655\u897f\u7701", "city": "\u897f\u5b89\u5e02", "area": "\u65b0\u57ce\u533a", "street_id": "1025b99308c76e7802294ffd", "detail": 1, "uid": "1025b99308c76e7802294ffd", "detail_info": {"tag": "\u65c5\u6e38\u666f\u70b9;\u6587\u7269\u53e4\u8ff9", "type": "scope", "detail_url": "http://api.map.baidu.com/place/detail?uid=1025b99308c76e7802294ffd&output=html&source=placeapi_v2", "overall_rating": "4.0", "comment_num": "1", "children": []}}, {"name": "\u65ed\u8f89\u8363\u534e\u516c\u56ed\u5927\u9053(\u5efa\u8bbe\u4e2d)", "location": {"lat": 34.336968, "lng": 109.016544}, "address": "\u5e7f\u8fd0\u6f6d\u5927\u9053\u4e0e\u6b27\u4e9a\u5927\u9053\u4ea4\u53c9\u53e3\u4e1c\u5317\u89d2", "province": "\u9655\u897f\u7701", "city": "\u897f\u5b89\u5e02", "area": "\u672a\u592e\u533a", "street_id": "55b810e4957f0cf30ab93a8b", "detail": 1, "uid": "55b810e4957f0cf30ab93a8b", "detail_info": {"tag": "\u65c5\u6e38\u666f\u70b9;\u516c\u56ed", "type": "scope", "detail_url": "http://api.map.baidu.com/place/detail?uid=55b810e4957f0cf30ab93a8b&output=html&source=placeapi_v2", "children": []}}, {"name": "\u5927\u660e\u5bab\u9057\u5740\u535a\u7269\u9986", "location": {"lat": 34.294871, "lng": 108.97124}, "address": "\u897f\u5b89\u5e02\u65b0\u57ce\u533a\u81ea\u5f3a\u4e1c\u8def585\u53f7\u5927\u660e\u5bab\u56fd\u5bb6\u9057\u5740\u516c\u56ed\u5185", "province": "\u9655\u897f\u7701", "city": "\u897f\u5b89\u5e02", "area": "\u65b0\u57ce\u533a", "detail": 1, "uid": "ab93bc70a6538df238e4a610", "detail_info": {"tag": "\u65c5\u6e38\u666f\u70b9;\u535a\u7269\u9986", "type": "scope", "detail_url": "http://api.map.baidu.com/place/detail?uid=ab93bc70a6538df238e4a610&output=html&source=placeapi_v2", "overall_rating": "3.0", "comment_num": "3", "children": []}}, {"name": "\u9655\u897f\u56fd\u753b\u9662", "location": {"lat": 34.297608, "lng": 108.95333}, "address": "\u672a\u592e\u8def36\u53f7", "province": "\u9655\u897f\u7701", "city": "\u897f\u5b89\u5e02", "area": "\u83b2\u6e56\u533a", "street_id": "e30828480bbbc7bcb34c4970", "telephone": "(029)86255997", "detail": 1, "uid": "e30828480bbbc7bcb34c4970", "detail_info": {"tag": "\u6587\u5316\u4f20\u5a92;\u7f8e\u672f\u9986", "navi_location": {"lng": 108.95360573288, "lat": 34.297609741333}, "type": "scope", "detail_url": "http://api.map.baidu.com/place/detail?uid=e30828480bbbc7bcb34c4970&output=html&source=placeapi_v2", "overall_rating": "3.7", "comment_num": "4", "children": []}}, {"name": "\u8f69\u8f95\u6bbf", "location": {"lat": 34.346132, "lng": 109.014512}, "address": "\u9655\u897f\u7701\u897f\u5b89\u5e02\u672a\u592e\u533a\u8f69\u8f95\u6bbf(\u6b27\u4e9a\u4e09\u8def\u5317)", "province": "\u9655\u897f\u7701", "city": "\u897f\u5b89\u5e02", "area": "\u672a\u592e\u533a", "street_id": "6761b6b18af51cacb4265537", "detail": 1, "uid": "6761b6b18af51cacb4265537", "detail_info": {"tag": "\u65c5\u6e38\u666f\u70b9;\u6587\u7269\u53e4\u8ff9", "navi_location": {"lng": 109.01460197326, "lat": 34.345945669008}, "type": "scope", "detail_url": "http://api.map.baidu.com/place/detail?uid=6761b6b18af51cacb4265537&output=html&source=placeapi_v2", "overall_rating": "3.5", "comment_num": "2", "children": []}}, {"name": "\u705e\u6cb3\u897f\u5cb8\u6ee8\u6cb3\u516c\u56ed", "location": {"lat": 34.317976, "lng": 109.063331}, "address": "\u705e\u6865\u8857\u9053\u705e\u67f3\u897f\u8def(\u9999\u6c5f\u6e7e\u5c0f\u533a\u9644\u8fd1)", "province": "\u9655\u897f\u7701", "city": "\u897f\u5b89\u5e02", "area": "\u705e\u6865\u533a", "street_id": "ae8f9c3012cbee0b7702697f", "detail": 1, "uid": "ae8f9c3012cbee0b7702697f", "detail_info": {"tag": "\u65c5\u6e38\u666f\u70b9;\u516c\u56ed", "type": "scope", "detail_url": "http://api.map.baidu.com/place/detail?uid=ae8f9c3012cbee0b7702697f&output=html&source=placeapi_v2", "children": []}}, {"name": "\u56db\u6d77\u5510\u4eba\u8857\u5546\u4e1a\u5c55\u793a\u4e2d\u5fc3", "location": {"lat": 34.325988, "lng": 108.977572}, "address": "\u897f\u5b89\u5e02\u672a\u592e\u533a\u592a\u534e\u5317\u8def", "province": "\u9655\u897f\u7701", "city": "\u897f\u5b89\u5e02", "area": "\u672a\u592e\u533a", "street_id": "dad0f6b6cc01872890114cc5", "detail": 1, "uid": "dad0f6b6cc01872890114cc5", "detail_info": {"tag": "\u6587\u5316\u4f20\u5a92;\u5c55\u89c8\u9986", "navi_location": {"lng": 108.97793891845, "lat": 34.325965113715}, "type": "scope", "detail_url": "http://api.map.baidu.com/place/detail?uid=dad0f6b6cc01872890114cc5&output=html&source=placeapi_v2", "children": []}}, {"name": "\u519c\u4e1a\u5c55\u89c8\u9986", "location": {"lat": 34.298471, "lng": 108.953539}, "address": "\u83b2\u6e56\u533a\u672a\u592e\u8def38\u53f7", "province": "\u9655\u897f\u7701", "city": "\u897f\u5b89\u5e02", "area": "\u83b2\u6e56\u533a", "street_id": "c7db3a514e15cde9b3077d4b", "detail": 1, "uid": "c7db3a514e15cde9b3077d4b", "detail_info": {"tag": "\u6587\u5316\u4f20\u5a92;\u5c55\u89c8\u9986", "type": "scope", "detail_url": "http://api.map.baidu.com/place/detail?uid=c7db3a514e15cde9b3077d4b&output=html&source=placeapi_v2", "overall_rating": "4.3", "comment_num": "0", "children": []}}, {"name": "\u897f\u5b89\u4e2d\u56fd\u4e66\u6cd5\u827a\u672f\u535a\u7269\u9986", "location": {"lat": 34.287634, "lng": 108.964547}, "address": "\u897f\u5b89\u5e02\u65b0\u57ce\u533a\u81ea\u5f3a\u4e1c\u8def585\u53f7\u5357\u5bab\u5899\u897f\u6bb5\u4e66\u6cd5\u535a\u7269\u9986\u5185", "province": "\u9655\u897f\u7701", "city": "\u897f\u5b89\u5e02", "area": "\u65b0\u57ce\u533a", "street_id": "87dda60522b13080a8059df0", "telephone": "15332426223", "detail": 1, "uid": "87dda60522b13080a8059df0", "detail_info": {"tag": "\u65c5\u6e38\u666f\u70b9;\u535a\u7269\u9986", "navi_location": {"lng": 108.96460636149, "lat": 34.287861070114}, "type": "scope", "detail_url": "http://api.map.baidu.com/place/detail?uid=87dda60522b13080a8059df0&output=html&source=placeapi_v2", "overall_rating": "3.5", "comment_num": "0", "children": []}}, {"name": "\u6253\u9a6c\u7403", "location": {"lat": 34.299444, "lng": 108.964233}, "address": "\u897f\u5b89\u5e02\u65b0\u57ce\u533a\u81ea\u5f3a\u4e1c\u8def585\u53f7\u5927\u660e\u5bab\u56fd\u5bb6\u9057\u5740\u516c\u56ed\u5185", "province": "\u9655\u897f\u7701", "city": "\u897f\u5b89\u5e02", "area": "\u65b0\u57ce\u533a", "street_id": "d152f57518a5b959c4f50d4a", "detail": 1, "uid": "d152f57518a5b959c4f50d4a", "detail_info": {"tag": "\u65c5\u6e38\u666f\u70b9;\u666f\u70b9", "type": "scope", "detail_url": "http://api.map.baidu.com/place/detail?uid=d152f57518a5b959c4f50d4a&output=html&source=placeapi_v2", "overall_rating": "5.0", "comment_num": "1", "children": []}}, {"name": "\u542f\u822a\u516c\u56ed", "location": {"lat": 34.375419, "lng": 109.075278}, "address": "\u897f\u5b89\u5e02\u705e\u6865\u533a\u6e2f\u52a1\u5927\u90537\u53f7", "province": "\u9655\u897f\u7701", "city": "\u897f\u5b89\u5e02", "area": "\u705e\u6865\u533a", "street_id": "8973404e6abe5511364aaee8", "detail": 1, "uid": "8973404e6abe5511364aaee8", "detail_info": {"tag": "\u65c5\u6e38\u666f\u70b9;\u516c\u56ed", "type": "scope", "detail_url": "http://api.map.baidu.com/place/detail?uid=8973404e6abe5511364aaee8&output=html&source=placeapi_v2", "children": []}}, {"name": "\u5174\u5b89\u95e8", "location": {"lat": 34.287611, "lng": 108.963424}, "address": "\u897f\u5b89\u5e02\u65b0\u57ce\u533a\u81ea\u5f3a\u4e1c\u8def585\u53f7\u5927\u660e\u5bab\u56fd\u5bb6\u9057\u5740\u516c\u56ed\u5185", "province": "\u9655\u897f\u7701", "city": "\u897f\u5b89\u5e02", "area": "\u65b0\u57ce\u533a", "street_id": "1a941d399f864cdfc1f1cf45", "detail": 1, "uid": "4fdae1de35a0adcbf60e779a", "detail_info": {"tag": "\u65c5\u6e38\u666f\u70b9;\u666f\u70b9", "type": "scope", "detail_url": "http://api.map.baidu.com/place/detail?uid=4fdae1de35a0adcbf60e779a&output=html&source=placeapi_v2", "overall_rating": "5.0", "children": []}}, {"name": "\u592a\u6db2\u6c60", "location": {"lat": 34.302949, "lng": 108.971379}, "address": "\u897f\u5b89\u5e02\u672a\u592e\u533a\u592a\u6db2\u6c60", "province": "\u9655\u897f\u7701", "city": "\u897f\u5b89\u5e02", "area": "\u672a\u592e\u533a", "street_id": "b5b1ec194ca626df2cb9081b", "detail": 1, "uid": "b5b1ec194ca626df2cb9081b", "detail_info": {"tag": "\u65c5\u6e38\u666f\u70b9;\u666f\u70b9", "type": "scope", "detail_url": "http://api.map.baidu.com/place/detail?uid=b5b1ec194ca626df2cb9081b&output=html&source=placeapi_v2", "comment_num": "0", "children": []}}, {"name": "\u897f\u5b89\u6d50\u705e\u6ecb\u6c34\u516c\u56ed", "location": {"lat": 34.341108, "lng": 109.016125}, "address": "\u9655\u897f\u7701\u897f\u5b89\u5e02\u672a\u592e\u533a\u6b27\u4e9a\u4e00\u8def", "province": "\u9655\u897f\u7701", "city": "\u897f\u5b89\u5e02", "area": "\u672a\u592e\u533a", "street_id": "f30848c444942ec83a221c05", "detail": 1, "uid": "f30848c444942ec83a221c05", "detail_info": {"tag": "\u65c5\u6e38\u666f\u70b9;\u516c\u56ed", "navi_location": {"lng": 109.01669277125, "lat": 34.338992653481}, "type": "scope", "detail_url": "http://api.map.baidu.com/place/detail?uid=f30848c444942ec83a221c05&output=html&source=placeapi_v2", "children": []}}, {"name": "\u5b98\u5385\u6c34\u4e0a\u4e50\u56ed", "location": {"lat": 34.301118, "lng": 109.059203}, "address": "\u5e2d\u738b\u8857\u9053\u8001\u5b98\u5385\u4e8c\u7ec4\u4e03\u5f69\u4e50\u8fea\u5e7c\u513f\u56ed\u897f\u95e8\u6b63\u5bf9\u9762", "province": "\u9655\u897f\u7701", "city": "\u897f\u5b89\u5e02", "area": "\u705e\u6865\u533a", "street_id": "caa3af2f19cce568f4b916d5", "detail": 1, "uid": "caa3af2f19cce568f4b916d5", "detail_info": {"tag": "\u65c5\u6e38\u666f\u70b9;\u6e38\u4e50\u56ed", "type": "scope", "detail_url": "http://api.map.baidu.com/place/detail?uid=caa3af2f19cce568f4b916d5&output=html&source=placeapi_v2", "children": []}}, {"name": "\u5927\u660e\u5bab\u56fd\u5bb6\u9057\u5740\u516c\u56ed\u5c11\u9633\u9662", "location": {"lat": 34.295191, "lng": 108.974228}, "address": "\u897f\u5b89\u5e02\u65b0\u57ce\u533a\u81ea\u5f3a\u4e1c\u8def585\u53f7\u5927\u660e\u5bab\u56fd\u5bb6\u9057\u5740\u516c\u56ed\u5185", "province": "\u9655\u897f\u7701", "city": "\u897f\u5b89\u5e02", "area": "\u65b0\u57ce\u533a", "street_id": "b6401b27dd7e37c25d0d025c", "detail": 1, "uid": "b6401b27dd7e37c25d0d025c", "detail_info": {"tag": "\u65c5\u6e38\u666f\u70b9;\u666f\u70b9", "navi_location": {"lng": 108.97409334083, "lat": 34.295341676768}, "type": "scope", "detail_url": "http://api.map.baidu.com/place/detail?uid=b6401b27dd7e37c25d0d025c&output=html&source=placeapi_v2", "overall_rating": "5.0", "comment_num": "0", "children": []}}, {"name": "\u5510\u5927\u660e\u5bab\u9057\u5740", "location": {"lat": 34.29685, "lng": 108.968451}, "address": "\u897f\u5b89\u5e02\u65b0\u57ce\u533a\u81ea\u5f3a\u4e1c\u8def585\u53f7\u5927\u660e\u5bab\u56fd\u5bb6\u9057\u5740\u516c\u56ed\u5185", "province": "\u9655\u897f\u7701", "city": "\u897f\u5b89\u5e02", "area": "\u65b0\u57ce\u533a", "street_id": "da11f159438aeabf15764374", "detail": 1, "uid": "da11f159438aeabf15764374", "detail_info": {"tag": "\u65c5\u6e38\u666f\u70b9;\u6587\u7269\u53e4\u8ff9", "type": "scope", "detail_url": "http://api.map.baidu.com/place/detail?uid=da11f159438aeabf15764374&output=html&source=placeapi_v2", "children": []}}, {"name": "\u5224\u5b98\u5e99", "location": {"lat": 34.329707, "lng": 109.023411}, "address": "\u9655\u897f\u7701\u897f\u5b89\u5e02\u672a\u592e\u533a\u8f9b\u5bb6\u5e99\u8857\u9053\u5e7f\u5927\u95e8\u6751\u540e\u8857\u5e7f\u6cf0\u5e99", "province": "\u9655\u897f\u7701", "city": "\u897f\u5b89\u5e02", "area": "\u672a\u592e\u533a", "street_id": "62b21fb05974bf082cb96d8b", "detail": 1, "uid": "62b21fb05974bf082cb96d8b", "detail_info": {"tag": "\u65c5\u6e38\u666f\u70b9;\u6587\u7269\u53e4\u8ff9", "navi_location": {"lng": 109.02363184894, "lat": 34.329838226899}, "type": "scope", "detail_url": "http://api.map.baidu.com/place/detail?uid=62b21fb05974bf082cb96d8b&output=html&source=placeapi_v2", "children": []}}, {"name": "\u4e5d\u4ed9\u95e8\u9057\u5740", "location": {"lat": 34.306162, "lng": 108.962703}, "address": "\u897f\u5b89\u5e02\u672a\u592e\u533a\u81ea\u5f3a\u4e1c\u8def585\u53f7\u5927\u660e\u5bab\u56fd\u5bb6\u9057\u5740\u516c\u56ed\u5185", "province": "\u9655\u897f\u7701", "city": "\u897f\u5b89\u5e02", "area": "\u672a\u592e\u533a", "street_id": "574582027d87b8ec373a713b", "detail": 1, "uid": "574582027d87b8ec373a713b", "detail_info": {"tag": "\u65c5\u6e38\u666f\u70b9;\u6587\u7269\u53e4\u8ff9", "type": "scope", "detail_url": "http://api.map.baidu.com/place/detail?uid=574582027d87b8ec373a713b&output=html&source=placeapi_v2", "overall_rating": "2.1", "children": []}}, {"name": "\u5c1a\u52e4\u95e8", "location": {"lat": 34.282579, "lng": 108.973498}, "address": "\u897f\u5b89\u5e02\u65b0\u57ce\u533a\u5c1a\u52e4\u8def\u5317\u53e3", "province": "\u9655\u897f\u7701", "city": "\u897f\u5b89\u5e02", "area": "\u65b0\u57ce\u533a", "street_id": "14076deee95ed7f402294f4e", "detail": 1, "uid": "14076deee95ed7f402294f4e", "detail_info": {"tag": "\u65c5\u6e38\u666f\u70b9;\u98ce\u666f\u533a", "navi_location": {"lng": 108.97341576964, "lat": 34.282455565088}, "type": "scope", "detail_url": "http://api.map.baidu.com/place/detail?uid=14076deee95ed7f402294f4e&output=html&source=placeapi_v2", "comment_num": "1", "children": []}}, {"name": "\u8fea\u58eb\u5361\u745e\u4eb2\u5b50\u4e50\u56ed(\u541b\u57ce\u5e97)", "location": {"lat": 34.307334, "lng": 108.986635}, "address": "\u9655\u897f\u7701\u897f\u5b89\u5e02\u672a\u592e\u533a\u592a\u5143\u8def218\u53f7\u534e\u8fdc\u00b7\u597d\u5929\u5730\u8d2d\u7269\u5e7f\u573a1\u5c42", "province": "\u9655\u897f\u7701", "city": "\u897f\u5b89\u5e02", "area": "\u672a\u592e\u533a", "street_id": "85c2a258de720dc4c7f025ab", "detail": 1, "uid": "85c2a258de720dc4c7f025ab", "detail_info": {"tag": "\u6559\u80b2\u57f9\u8bad;\u4eb2\u5b50\u6559\u80b2", "navi_location": {"lng": 108.98660359341, "lat": 34.307607011966}, "type": "scope", "detail_url": "http://api.map.baidu.com/place/detail?uid=85c2a258de720dc4c7f025ab&output=html&source=placeapi_v2", "overall_rating": "4.4", "comment_num": "4", "children": []}}, {"name": "\u5149\u6cf0\u95e8\u5e7f\u5927\u95e8\u6751", "location": {"lat": 34.32916, "lng": 109.020881}, "address": "\u9655\u897f\u7701\u897f\u5b89\u5e02\u672a\u592e\u533a\u5e7f\u8fd0\u6f6d\u5927\u9053", "province": "\u9655\u897f\u7701", "city": "\u897f\u5b89\u5e02", "area": "\u672a\u592e\u533a", "street_id": "63eed055a69c70411e5800c4", "detail": 1, "uid": "63eed055a69c70411e5800c4", "detail_info": {"tag": "\u65c5\u6e38\u666f\u70b9;\u5176\u4ed6", "type": "scope", "detail_url": "http://api.map.baidu.com/place/detail?uid=63eed055a69c70411e5800c4&output=html&source=placeapi_v2", "children": []}}, {"name": "\u65b0\u5bfa\u9057\u5740\u516c\u56ed", "location": {"lat": 34.365417, "lng": 109.051724}, "address": "\u6e2f\u5174\u8def\u534e\u5357\u57ce\u673a\u7535\u5e02\u573a\u65c1", "province": "\u9655\u897f\u7701", "city": "\u897f\u5b89\u5e02", "area": "\u705e\u6865\u533a", "street_id": "8bbbf09b36fd9dceb6f42f6b", "detail": 1, "uid": "8bbbf09b36fd9dceb6f42f6b", "detail_info": {"tag": "\u65c5\u6e38\u666f\u70b9;\u516c\u56ed", "type": "scope", "detail_url": "http://api.map.baidu.com/place/detail?uid=8bbbf09b36fd9dceb6f42f6b&output=html&source=placeapi_v2", "children": []}}, {"name": "\u705e\u4e0a\u4eba\u5bb6", "location": {"lat": 34.324379, "lng": 109.066919}, "address": "\u897f\u5b89\u5e02\u705e\u6865\u533a\u705e\u6cb3\u4e1c\u8def", "province": "\u9655\u897f\u7701", "city": "\u897f\u5b89\u5e02", "area": "\u705e\u6865\u533a", "detail": 1, "uid": "772643f387eb9fe52de67b0c", "detail_info": {"tag": "\u65c5\u6e38\u666f\u70b9;\u666f\u70b9", "type": "scope", "detail_url": "http://api.map.baidu.com/place/detail?uid=772643f387eb9fe52de67b0c&output=html&source=placeapi_v2", "children": []}}, {"name": "\u671b\u4ed9\u95e8\u9057\u5740", "location": {"lat": 34.287476, "lng": 108.975507}, "address": "\u897f\u5b89\u5e02\u65b0\u57ce\u533a\u81ea\u5f3a\u4e1c\u8def585\u53f7\u5927\u660e\u5bab\u56fd\u5bb6\u9057\u5740\u516c\u56ed\u5185", "province": "\u9655\u897f\u7701", "city": "\u897f\u5b89\u5e02", "area": "\u65b0\u57ce\u533a", "street_id": "6a18dcb2318293b7bfa8224a", "detail": 1, "uid": "6a18dcb2318293b7bfa8224a", "detail_info": {"tag": "\u65c5\u6e38\u666f\u70b9;\u6587\u7269\u53e4\u8ff9", "navi_location": {"lng": 108.97533419448, "lat": 34.287359387665}, "type": "scope", "detail_url": "http://api.map.baidu.com/place/detail?uid=6a18dcb2318293b7bfa8224a&output=html&source=placeapi_v2", "overall_rating": "3.5", "comment_num": "1", "children": []}}, {"name": "\u9655\u897f\u7701\u827a\u672f\u9986", "location": {"lat": 34.280125, "lng": 108.956987}, "address": "\u897f\u4e03\u8def279\u53f7", "province": "\u9655\u897f\u7701", "city": "\u897f\u5b89\u5e02", "area": "\u65b0\u57ce\u533a", "street_id": "af1ae56b757d43124207c106", "telephone": "(029)87276409", "detail": 1, "uid": "af1ae56b757d43124207c106", "detail_info": {"tag": "\u6587\u5316\u4f20\u5a92;\u7f8e\u672f\u9986", "navi_location": {"lng": 108.95698690361, "lat": 34.279936069583}, "type": "scope", "detail_url": "http://api.map.baidu.com/place/detail?uid=af1ae56b757d43124207c106&output=html&source=placeapi_v2", "children": []}}, {"name": "\u57ce\u5317\u6e05\u771f\u5bfa", "location": {"lat": 34.35625, "lng": 108.981266}, "address": "\u897f\u5b89\u5e02\u672a\u592e\u533a\u540c\u5efa\u8def8\u53f7", "province": "\u9655\u897f\u7701", "city": "\u897f\u5b89\u5e02", "area": "\u672a\u592e\u533a", "street_id": "5238b5f8e680b00428201add", "detail": 1, "uid": "5238b5f8e680b00428201add", "detail_info": {"tag": "\u65c5\u6e38\u666f\u70b9;\u6559\u5802", "navi_location": {"lng": 108.97985529695, "lat": 34.356056773083}, "type": "scope", "detail_url": "http://api.map.baidu.com/place/detail?uid=5238b5f8e680b00428201add&output=html&source=placeapi_v2", "overall_rating": "0.0", "comment_num": "1", "children": []}}, {"name": "\u798f\u5473\u5c45\u9910\u996e\u5bb4\u4f1a\u4e2d\u5fc3", "location": {"lat": 34.316862, "lng": 109.016981}, "address": "\u9655\u897f\u7701\u897f\u5b89\u5e02\u672a\u592e\u533a\u5e7f\u5b89\u8def\u8f9b\u5bb6\u5e99\u793e\u533a\u536b\u751f\u670d\u52a1\u4e2d\u5fc3\u4e1c\u5357", "province": "\u9655\u897f\u7701", "city": "\u897f\u5b89\u5e02", "area": "\u672a\u592e\u533a", "street_id": "cc2db0b2f953695f96f08c5b", "detail": 1, "uid": "cc2db0b2f953695f96f08c5b", "detail_info": {"tag": "\u6587\u5316\u4f20\u5a92;\u5c55\u89c8\u9986", "type": "cater", "detail_url": "http://api.map.baidu.com/place/detail?uid=cc2db0b2f953695f96f08c5b&output=html&source=placeapi_v2", "children": []}}, {"name": "\u5927\u660e\u5bab\u94bb\u77f3\u6c34\u4e0a\u4e50\u56ed", "location": {"lat": 34.315353, "lng": 108.978276}, "address": "\u9655\u897f\u7701\u897f\u5b89\u5e02\u672a\u592e\u533a\u5927\u660e\u5bab\u5bb6\u5c45\u94bb\u77f3\u5e97\u5317\u5e7f\u573a(\u897f\u4e34\u592a\u534e\u8def,\u5317\u4e34\u5317\u4e8c\u73af)", "province": "\u9655\u897f\u7701", "city": "\u897f\u5b89\u5e02", "area": "\u672a\u592e\u533a", "street_id": "f9ec0bce76aefdb4a11de9ce", "detail": 1, "uid": "f9ec0bce76aefdb4a11de9ce", "detail_info": {"tag": "\u65c5\u6e38\u666f\u70b9;\u6e38\u4e50\u56ed", "type": "scope", "detail_url": "http://api.map.baidu.com/place/detail?uid=f9ec0bce76aefdb4a11de9ce&output=html&source=placeapi_v2", "children": []}}, {"name": "\u5982\u6d77\u513f\u7ae5\u4e50\u56ed", "location": {"lat": 34.311985, "lng": 108.993526}, "address": "\u897f\u5b89\u5e02\u672a\u592e\u533a\u7384\u6b66\u65b0\u57ce\u5317\u95e8", "province": "\u9655\u897f\u7701", "city": "\u897f\u5b89\u5e02", "area": "\u672a\u592e\u533a", "street_id": "8abeb7d05d990db829d7ab8f", "detail": 1, "uid": "8abeb7d05d990db829d7ab8f", "detail_info": {"tag": "\u65c5\u6e38\u666f\u70b9;\u6e38\u4e50\u56ed", "type": "scope", "detail_url": "http://api.map.baidu.com/place/detail?uid=8abeb7d05d990db829d7ab8f&output=html&source=placeapi_v2", "overall_rating": "4.0", "comment_num": "2", "children": []}}, {"name": "\u897f\u5b89\u9886\u4e8b\u9986\u533a", "location": {"lat": 34.320403, "lng": 109.045315}, "address": "\u6d50\u705e\u751f\u6001\u533a\u6d50\u705e\u5927\u90531\u53f7", "province": "\u9655\u897f\u7701", "city": "\u897f\u5b89\u5e02", "area": "\u705e\u6865\u533a", "street_id": "3c3aa40599a2052208b93a21", "detail": 1, "uid": "3c3aa40599a2052208b93a21", "detail_info": {"tag": "\u65c5\u6e38\u666f\u70b9;\u6587\u7269\u53e4\u8ff9", "type": "scope", "detail_url": "http://api.map.baidu.com/place/detail?uid=3c3aa40599a2052208b93a21&output=html&source=placeapi_v2", "comment_num": "2", "children": []}}, {"name": "\u5317\u5173\u6e05\u771f\u5927\u5bfa", "location": {"lat": 34.29738, "lng": 108.981751}, "address": "\u9655\u897f\u7701\u897f\u5b89\u5e02\u65b0\u57ce\u533a\u65b0\u5174\u8def\u6c11\u65cf\u5c0f\u533a(\u4e2d\u5929\u9526\u5ead\u897f\u5357100\u7c73)", "province": "\u9655\u897f\u7701", "city": "\u897f\u5b89\u5e02", "area": "\u65b0\u57ce\u533a", "street_id": "9d6baf08fabf44a0c929157c", "detail": 1, "uid": "9d6baf08fabf44a0c929157c", "detail_info": {"tag": "\u65c5\u6e38\u666f\u70b9;\u6559\u5802", "navi_location": {"lng": 108.98192520394, "lat": 34.297408890391}, "type": "scope", "detail_url": "http://api.map.baidu.com/place/detail?uid=9d6baf08fabf44a0c929157c&output=html&source=placeapi_v2", "overall_rating": "1.0", "comment_num": "1", "children": []}}, {"name": "\u91d1\u6c34\u6865", "location": {"lat": 34.292323, "lng": 108.970539}, "address": "\u9655\u897f\u7701\u897f\u5b89\u5e02\u65b0\u57ce\u533a\u81ea\u5f3a\u4e1c\u8def585\u53f7\u5927\u660e\u5bab\u56fd\u5bb6\u9057\u5740\u516c\u56ed\u5185", "province": "\u9655\u897f\u7701", "city": "\u897f\u5b89\u5e02", "area": "\u65b0\u57ce\u533a", "street_id": "55ca47136d0eea645e17c3aa", "detail": 1, "uid": "55ca47136d0eea645e17c3aa", "detail_info": {"tag": "\u65c5\u6e38\u666f\u70b9;\u666f\u70b9", "type": "scope", "detail_url": "http://api.map.baidu.com/place/detail?uid=55ca47136d0eea645e17c3aa&output=html&source=placeapi_v2", "overall_rating": "0.0", "children": []}}, {"name": "\u9e9f\u5fb7\u6bbf\u9057\u5740", "location": {"lat": 34.301435, "lng": 108.964628}, "address": "\u897f\u5b89\u5e02\u672a\u592e\u533a\u5317\u5173\u81ea\u5f3a\u4e1c\u8def\u4e8c\u9a6c\u8def", "province": "\u9655\u897f\u7701", "city": "\u897f\u5b89\u5e02", "area": "\u672a\u592e\u533a", "street_id": "eb146efc9ebf35d7fbdc85d2", "telephone": "(029)86261230", "detail": 1, "uid": "eb146efc9ebf35d7fbdc85d2", "detail_info": {"tag": "\u65c5\u6e38\u666f\u70b9;\u6587\u7269\u53e4\u8ff9", "navi_location": {"lng": 108.96626629353, "lat": 34.299408974585}, "type": "scope", "detail_url": "http://api.map.baidu.com/place/detail?uid=eb146efc9ebf35d7fbdc85d2&output=html&source=placeapi_v2", "overall_rating": "4.0", "comment_num": "1", "children": []}}, {"name": "\u957f\u5e86\u79d1\u6280\u9986", "location": {"lat": 34.331265, "lng": 108.954551}, "address": "\u672a\u592e\u8def151\u53f7", "province": "\u9655\u897f\u7701", "city": "\u897f\u5b89\u5e02", "area": "\u672a\u592e\u533a", "street_id": "7a4753a20e49785a6849f3c0", "detail": 1, "uid": "7a4753a20e49785a6849f3c0", "detail_info": {"tag": "\u6559\u80b2\u57f9\u8bad;\u79d1\u6280\u9986", "navi_location": {"lng": 108.9547200629, "lat": 34.332707398704}, "type": "scope", "detail_url": "http://api.map.baidu.com/place/detail?uid=7a4753a20e49785a6849f3c0&output=html&source=placeapi_v2", "comment_num": "1", "children": []}}, {"name": "\u4e16\u535a\u56ed\u91d1\u6c99\u6ee9\u6b22\u52a8\u4e16\u754c", "location": {"lat": 34.321502, "lng": 109.07046}, "address": "\u4e16\u535a\u4f1a\u56ed\u533a\u6c99\u96d5\u533a", "province": "\u9655\u897f\u7701", "city": "\u897f\u5b89\u5e02", "area": "\u705e\u6865\u533a", "detail": 1, "uid": "33f22cba75a3c3108f55ec41", "detail_info": {"tag": "\u65c5\u6e38\u666f\u70b9;\u6e38\u4e50\u56ed", "type": "scope", "detail_url": "http://api.map.baidu.com/place/detail?uid=33f22cba75a3c3108f55ec41&output=html&source=placeapi_v2", "children": []}}]
