唐宁国际-地下停车场,108.93206452949194,34.2597319980161,c92cb03fe8a9e2f632870a06,"{'name': '唐宁国际-地下停车场', 'location': {'lat': 34.264247, 'lng': 108.943172}, 'address': '陕西省西安市碑林区西大街128号(西大街城隍庙斜对面)', 'province': '陕西省', 'city': '西安市', 'area': '碑林区', 'street_id': 'c92cb03fe8a9e2f632870a06', 'detail': 1, 'uid': 'c92cb03fe8a9e2f632870a06', 'detail_info': {'tag': '交通设施;停车场', 'type': 'life', 'detail_url': 'http://api.map.baidu.com/place/detail?uid=c92cb03fe8a9e2f632870a06&output=html&source=placeapi_v2', 'image_num': '1', 'children': []}}"
"{'name': '唐宁国际-地下停车场', 'location': {'lat': 34.264247, 'lng': 108.943172}, 'address': '陕西省西安市碑林区西大街128号(西大街城隍庙斜对面)', 'province': '陕西省', 'city': '西安市', 'area': '碑林区', 'street_id': 'c92cb03fe8a9e2f632870a06', 'detail': 1, 'uid': 'c92cb03fe8a9e2f632870a06', 'detail_info': {'tag': '交通设施;停车场', 'type': 'life', 'detail_url': 'http://api.map.baidu.com/place/detail?uid=c92cb03fe8a9e2f632870a06&output=html&source=placeapi_v2', 'image_num': '1', 'children': []}}"
西安市第一医院-停车场,108.9399038775981,34.25618278254525,374721fe36f7d639c4f02568,"{'name': '西安市第一医院-停车场', 'location': {'lat': 34.260824, 'lng': 108.951}, 'address': '粉巷30号西安市第一医院内', 'province': '陕西省', 'city': '西安市', 'area': '碑林区', 'street_id': '374721fe36f7d639c4f02568', 'detail': 1, 'uid': '374721fe36f7d639c4f02568', 'detail_info': {'tag': '交通设施;停车场', 'navi_location': {'lng': 108.95147665809, 'lat': 34.261685089291}, 'type': 'life', 'detail_url': 'http://api.map.baidu.com/place/detail?uid=374721fe36f7d639c4f02568&output=html&source=placeapi_v2', 'image_num': '1', 'children': []}}"
"{'name': '西安市第一医院-停车场', 'location': {'lat': 34.260824, 'lng': 108.951}, 'address': '粉巷30号西安市第一医院内', 'province': '陕西省', 'city': '西安市', 'area': '碑林区', 'street_id': '374721fe36f7d639c4f02568', 'detail': 1, 'uid': '374721fe36f7d639c4f02568', 'detail_info': {'tag': '交通设施;停车场', 'navi_location': {'lng': 108.95147665809, 'lat': 34.261685089291}, 'type': 'life', 'detail_url': 'http://api.map.baidu.com/place/detail?uid=374721fe36f7d639c4f02568&output=html&source=placeapi_v2', 'image_num': '1', 'children': []}}"
草场巷/五星街(路口),108.92963677921976,34.25735852034205,38e480378eea5848363a7184,"{'name': '草场巷/五星街(路口)', 'location': {'lat': 34.26183, 'lng': 108.940753}, 'address': '西安市莲湖区五星街', 'province': '陕西省', 'city': '西安市', 'area': '莲湖区', 'street_id': '38e480378eea5848363a7184', 'detail': 1, 'uid': '38e480378eea5848363a7184', 'detail_info': {'tag': '道路;路口', 'type': 'life', 'detail_url': 'http://api.map.baidu.com/place/detail?uid=38e480378eea5848363a7184&output=html&source=placeapi_v2', 'image_num': '1', 'children': []}}"
"{'name': '草场巷/五星街(路口)', 'location': {'lat': 34.26183, 'lng': 108.940753}, 'address': '西安市莲湖区五星街', 'province': '陕西省', 'city': '西安市', 'area': '莲湖区', 'street_id': '38e480378eea5848363a7184', 'detail': 1, 'uid': '38e480378eea5848363a7184', 'detail_info': {'tag': '道路;路口', 'type': 'life', 'detail_url': 'http://api.map.baidu.com/place/detail?uid=38e480378eea5848363a7184&output=html&source=placeapi_v2', 'image_num': '1', 'children': []}}"
真爱・粉巷里-停车场,108.9402661758833,34.257245568951255,fc0c8a9b65bb02a13a221c5b,"{'name': '真爱・粉巷里-停车场', 'location': {'lat': 34.261892, 'lng': 108.951361}, 'address': '粉巷3号真爱粉巷里', 'province': '陕西省', 'city': '西安市', 'area': '碑林区', 'street_id': 'fc0c8a9b65bb02a13a221c5b', 'detail': 1, 'uid': 'fc0c8a9b65bb02a13a221c5b', 'detail_info': {'tag': '交通设施;停车场', 'navi_location': {'lng': 108.95136697499, 'lat': 34.261754754727}, 'type': 'life', 'detail_url': 'http://api.map.baidu.com/place/detail?uid=fc0c8a9b65bb02a13a221c5b&output=html&source=placeapi_v2', 'image_num': '1', 'children': []}}"
"{'name': '真爱・粉巷里-停车场', 'location': {'lat': 34.261892, 'lng': 108.951361}, 'address': '粉巷3号真爱粉巷里', 'province': '陕西省', 'city': '西安市', 'area': '碑林区', 'street_id': 'fc0c8a9b65bb02a13a221c5b', 'detail': 1, 'uid': 'fc0c8a9b65bb02a13a221c5b', 'detail_info': {'tag': '交通设施;停车场', 'navi_location': {'lng': 108.95136697499, 'lat': 34.261754754727}, 'type': 'life', 'detail_url': 'http://api.map.baidu.com/place/detail?uid=fc0c8a9b65bb02a13a221c5b&output=html&source=placeapi_v2', 'image_num': '1', 'children': []}}"
盐店街/南广济街(路口),108.93457095226654,34.2591858885546,11a06122884f41e1adcb66de,"{'name': '盐店街/南广济街(路口)', 'location': {'lat': 34.263744, 'lng': 108.945673}, 'address': '西安市碑林区盐店街', 'province': '陕西省', 'city': '西安市', 'area': '碑林区', 'street_id': '11a06122884f41e1adcb66de', 'detail': 1, 'uid': '11a06122884f41e1adcb66de', 'detail_info': {'tag': '道路;路口', 'type': 'life', 'detail_url': 'http://api.map.baidu.com/place/detail?uid=11a06122884f41e1adcb66de&output=html&source=placeapi_v2', 'image_num': '1', 'children': []}}"
"{'name': '盐店街/南广济街(路口)', 'location': {'lat': 34.263744, 'lng': 108.945673}, 'address': '西安市碑林区盐店街', 'province': '陕西省', 'city': '西安市', 'area': '碑林区', 'street_id': '11a06122884f41e1adcb66de', 'detail': 1, 'uid': '11a06122884f41e1adcb66de', 'detail_info': {'tag': '道路;路口', 'type': 'life', 'detail_url': 'http://api.map.baidu.com/place/detail?uid=11a06122884f41e1adcb66de&output=html&source=placeapi_v2', 'image_num': '1', 'children': []}}"
二环南路西段/朱雀路环岛(路口),108.93399414077082,34.231507665459986,eb9d803b5c7e0bae04fef50d,"{'name': '二环南路西段/朱雀路环岛(路口)', 'location': {'lat': 34.236051, 'lng': 108.945112}, 'address': '西安市雁塔区二环南路西段辅路', 'province': '陕西省', 'city': '西安市', 'area': '雁塔区', 'street_id': 'eb9d803b5c7e0bae04fef50d', 'detail': 1, 'uid': 'eb9d803b5c7e0bae04fef50d', 'detail_info': {'tag': '道路;路口', 'type': 'life', 'detail_url': 'http://api.map.baidu.com/place/detail?uid=eb9d803b5c7e0bae04fef50d&output=html&source=placeapi_v2', 'image_num': '1', 'children': []}}"
"{'name': '二环南路西段/朱雀路环岛(路口)', 'location': {'lat': 34.236051, 'lng': 108.945112}, 'address': '西安市雁塔区二环南路西段辅路', 'province': '陕西省', 'city': '西安市', 'area': '雁塔区', 'street_id': 'eb9d803b5c7e0bae04fef50d', 'detail': 1, 'uid': 'eb9d803b5c7e0bae04fef50d', 'detail_info': {'tag': '道路;路口', 'type': 'life', 'detail_url': 'http://api.map.baidu.com/place/detail?uid=eb9d803b5c7e0bae04fef50d&output=html&source=placeapi_v2', 'image_num': '1', 'children': []}}"
中贸广场-地下停车场,108.94009164225906,34.24306574921629,e7199136700d330b9a0050e2,"{'name': '中贸广场-地下停车场', 'location': {'lat': 34.247708, 'lng': 108.951197}, 'address': '西安市碑林区友谊西路', 'province': '陕西省', 'city': '西安市', 'area': '碑林区', 'street_id': 'ead7d0047c42591e43024521', 'detail': 1, 'uid': 'e7199136700d330b9a0050e2', 'detail_info': {'tag': '交通设施;停车场', 'navi_location': {'lng': 108.95093015686, 'lat': 34.247578792724}, 'type': 'life', 'detail_url': 'http://api.map.baidu.com/place/detail?uid=e7199136700d330b9a0050e2&output=html&source=placeapi_v2', 'image_num': '6', 'children': []}}"
"{'name': '中贸广场-地下停车场', 'location': {'lat': 34.247708, 'lng': 108.951197}, 'address': '西安市碑林区友谊西路', 'province': '陕西省', 'city': '西安市', 'area': '碑林区', 'street_id': 'ead7d0047c42591e43024521', 'detail': 1, 'uid': 'e7199136700d330b9a0050e2', 'detail_info': {'tag': '交通设施;停车场', 'navi_location': {'lng': 108.95093015686, 'lat': 34.247578792724}, 'type': 'life', 'detail_url': 'http://api.map.baidu.com/place/detail?uid=e7199136700d330b9a0050e2&output=html&source=placeapi_v2', 'image_num': '6', 'children': []}}"
粉巷1号凯曼酒店-停车场,108.93461235827402,34.25731732569227,0b44c4cfa699803dd7851fd8,"{'name': '粉巷1号凯曼酒店-停车场', 'location': {'lat': 34.261876, 'lng': 108.945716}, 'address': '粉巷1号', 'province': '陕西省', 'city': '西安市', 'area': '碑林区', 'street_id': '0b44c4cfa699803dd7851fd8', 'detail': 1, 'uid': '0b44c4cfa699803dd7851fd8', 'detail_info': {'tag': '交通设施;停车场', 'type': 'life', 'detail_url': 'http://api.map.baidu.com/place/detail?uid=0b44c4cfa699803dd7851fd8&output=html&source=placeapi_v2', 'image_num': '1', 'children': []}}"
"{'name': '粉巷1号凯曼酒店-停车场', 'location': {'lat': 34.261876, 'lng': 108.945716}, 'address': '粉巷1号', 'province': '陕西省', 'city': '西安市', 'area': '碑林区', 'street_id': '0b44c4cfa699803dd7851fd8', 'detail': 1, 'uid': '0b44c4cfa699803dd7851fd8', 'detail_info': {'tag': '交通设施;停车场', 'type': 'life', 'detail_url': 'http://api.map.baidu.com/place/detail?uid=0b44c4cfa699803dd7851fd8&output=html&source=placeapi_v2', 'image_num': '1', 'children': []}}"
四府街/五味什字(路口),108.93129044091054,34.25744284525482,d0939ee9aca9d605cc06a477,"{'name': '四府街/五味什字(路口)', 'location': {'lat': 34.261944, 'lng': 108.942402}, 'address': '西安市碑林区四府街', 'province': '陕西省', 'city': '西安市', 'area': '碑林区', 'street_id': 'd0939ee9aca9d605cc06a477', 'detail': 1, 'uid': 'd0939ee9aca9d605cc06a477', 'detail_info': {'tag': '道路;路口', 'type': 'life', 'detail_url': 'http://api.map.baidu.com/place/detail?uid=d0939ee9aca9d605cc06a477&output=html&source=placeapi_v2', 'image_num': '1', 'children': []}}"
"{'name': '四府街/五味什字(路口)', 'location': {'lat': 34.261944, 'lng': 108.942402}, 'address': '西安市碑林区四府街', 'province': '陕西省', 'city': '西安市', 'area': '碑林区', 'street_id': 'd0939ee9aca9d605cc06a477', 'detail': 1, 'uid': 'd0939ee9aca9d605cc06a477', 'detail_info': {'tag': '道路;路口', 'type': 'life', 'detail_url': 'http://api.map.baidu.com/place/detail?uid=d0939ee9aca9d605cc06a477&output=html&source=placeapi_v2', 'image_num': '1', 'children': []}}"
庙后街/西仓南巷(路口),108.93054009403714,34.26481572684538,ef7666de589fdc963010af86,"{'name': '庙后街/西仓南巷(路口)', 'location': {'lat': 34.269304, 'lng': 108.941647}, 'address': '西安市莲湖区庙后街', 'province': '陕西省', 'city': '西安市', 'area': '莲湖区', 'street_id': 'ef7666de589fdc963010af86', 'detail': 1, 'uid': 'ef7666de589fdc963010af86', 'detail_info': {'tag': '道路;路口', 'type': 'life', 'detail_url': 'http://api.map.baidu.com/place/detail?uid=ef7666de589fdc963010af86&output=html&source=placeapi_v2', 'image_num': '1', 'children': []}}"
"{'name': '庙后街/西仓南巷(路口)', 'location': {'lat': 34.269304, 'lng': 108.941647}, 'address': '西安市莲湖区庙后街', 'province': '陕西省', 'city': '西安市', 'area': '莲湖区', 'street_id': 'ef7666de589fdc963010af86', 'detail': 1, 'uid': 'ef7666de589fdc963010af86', 'detail_info': {'tag': '道路;路口', 'type': 'life', 'detail_url': 'http://api.map.baidu.com/place/detail?uid=ef7666de589fdc963010af86&output=html&source=placeapi_v2', 'image_num': '1', 'children': []}}"
华融国际商务大厦-地上停车场,108.93398307501715,34.232210599576355,0c196e57970a9cfc3686f482,"{'name': '华融国际商务大厦-地上停车场', 'location': {'lat': 34.236754, 'lng': 108.945101}, 'address': '二环南路西段与朱雀大街交汇处', 'province': '陕西省', 'city': '西安市', 'area': '碑林区', 'street_id': '0c196e57970a9cfc3686f482', 'detail': 1, 'uid': '0c196e57970a9cfc3686f482', 'detail_info': {'tag': '交通设施;停车场', 'type': 'life', 'detail_url': 'http://api.map.baidu.com/place/detail?uid=0c196e57970a9cfc3686f482&output=html&source=placeapi_v2', 'price': '３元／小时', 'overall_rating': '0.0', 'image_num': '1', 'children': []}}"
"{'name': '华融国际商务大厦-地上停车场', 'location': {'lat': 34.236754, 'lng': 108.945101}, 'address': '二环南路西段与朱雀大街交汇处', 'province': '陕西省', 'city': '西安市', 'area': '碑林区', 'street_id': '0c196e57970a9cfc3686f482', 'detail': 1, 'uid': '0c196e57970a9cfc3686f482', 'detail_info': {'tag': '交通设施;停车场', 'type': 'life', 'detail_url': 'http://api.map.baidu.com/place/detail?uid=0c196e57970a9cfc3686f482&output=html&source=placeapi_v2', 'price': '３元／小时', 'overall_rating': '0.0', 'image_num': '1', 'children': []}}"
钟鼓楼西广场地面停车场,108.93864110681538,34.2613978685747,45204e0daea39db6cae33c9c,"{'name': '钟鼓楼西广场地面停车场', 'location': {'lat': 34.266021, 'lng': 108.949734}, 'address': '西大街北侧北大街西侧', 'province': '陕西省', 'city': '西安市', 'area': '莲湖区', 'street_id': '45204e0daea39db6cae33c9c', 'detail': 1, 'uid': '45204e0daea39db6cae33c9c', 'detail_info': {'tag': '交通设施;停车场', 'navi_location': {'lng': 108.94995719139, 'lat': 34.266172614774}, 'type': 'life', 'detail_url': 'http://api.map.baidu.com/place/detail?uid=45204e0daea39db6cae33c9c&output=html&source=placeapi_v2', 'image_num': '1', 'children': []}}"
"{'name': '钟鼓楼西广场地面停车场', 'location': {'lat': 34.266021, 'lng': 108.949734}, 'address': '西大街北侧北大街西侧', 'province': '陕西省', 'city': '西安市', 'area': '莲湖区', 'street_id': '45204e0daea39db6cae33c9c', 'detail': 1, 'uid': '45204e0daea39db6cae33c9c', 'detail_info': {'tag': '交通设施;停车场', 'navi_location': {'lng': 108.94995719139, 'lat': 34.266172614774}, 'type': 'life', 'detail_url': 'http://api.map.baidu.com/place/detail?uid=45204e0daea39db6cae33c9c&output=html&source=placeapi_v2', 'image_num': '1', 'children': []}}"
围墙巷/振兴路(路口),108.93827996047254,34.24733160880194,92554dbdac2821f338e4a6ab,"{'name': '围墙巷/振兴路(路口)', 'location': {'lat': 34.251948, 'lng': 108.949385}, 'address': '西安市碑林区振兴路', 'province': '陕西省', 'city': '西安市', 'area': '碑林区', 'street_id': '92554dbdac2821f338e4a6ab', 'detail': 1, 'uid': '92554dbdac2821f338e4a6ab', 'detail_info': {'tag': '道路;路口', 'type': 'life', 'detail_url': 'http://api.map.baidu.com/place/detail?uid=92554dbdac2821f338e4a6ab&output=html&source=placeapi_v2', 'image_num': '1', 'children': []}}"
"{'name': '围墙巷/振兴路(路口)', 'location': {'lat': 34.251948, 'lng': 108.949385}, 'address': '西安市碑林区振兴路', 'province': '陕西省', 'city': '西安市', 'area': '碑林区', 'street_id': '92554dbdac2821f338e4a6ab', 'detail': 1, 'uid': '92554dbdac2821f338e4a6ab', 'detail_info': {'tag': '道路;路口', 'type': 'life', 'detail_url': 'http://api.map.baidu.com/place/detail?uid=92554dbdac2821f338e4a6ab&output=html&source=placeapi_v2', 'image_num': '1', 'children': []}}"
四民巷与中贸街交叉口,108.93985957640263,34.24523166451193,b83de619ca70bdab6140a9d3,"{'name': '四民巷与中贸街交叉口', 'location': {'lat': 34.249871, 'lng': 108.950964}, 'address': '陕西省西安市碑林区中贸广场南区北(中贸街)', 'province': '陕西省', 'city': '西安市', 'area': '碑林区', 'street_id': 'b83de619ca70bdab6140a9d3', 'detail': 1, 'uid': 'b83de619ca70bdab6140a9d3', 'detail_info': {'tag': '道路;路口', 'type': 'life', 'detail_url': 'http://api.map.baidu.com/place/detail?uid=b83de619ca70bdab6140a9d3&output=html&source=placeapi_v2', 'image_num': '1', 'children': []}}"
"{'name': '四民巷与中贸街交叉口', 'location': {'lat': 34.249871, 'lng': 108.950964}, 'address': '陕西省西安市碑林区中贸广场南区北(中贸街)', 'province': '陕西省', 'city': '西安市', 'area': '碑林区', 'street_id': 'b83de619ca70bdab6140a9d3', 'detail': 1, 'uid': 'b83de619ca70bdab6140a9d3', 'detail_info': {'tag': '道路;路口', 'type': 'life', 'detail_url': 'http://api.map.baidu.com/place/detail?uid=b83de619ca70bdab6140a9d3&output=html&source=placeapi_v2', 'image_num': '1', 'children': []}}"
西安博物院-西门停车场,108.93489122493283,34.239860048768946,5a02e5a96eacdda3fbdc858e,"{'name': '西安博物院-西门停车场', 'location': {'lat': 34.244421, 'lng': 108.946006}, 'address': '陕西省西安市碑林区友谊西路72号西安博物院内', 'province': '陕西省', 'city': '西安市', 'area': '碑林区', 'street_id': '5a02e5a96eacdda3fbdc858e', 'detail': 1, 'uid': '5a02e5a96eacdda3fbdc858e', 'detail_info': {'tag': '交通设施;停车场', 'type': 'life', 'detail_url': 'http://api.map.baidu.com/place/detail?uid=5a02e5a96eacdda3fbdc858e&output=html&source=placeapi_v2', 'overall_rating': '0.0', 'image_num': '2', 'children': []}}"
"{'name': '西安博物院-西门停车场', 'location': {'lat': 34.244421, 'lng': 108.946006}, 'address': '陕西省西安市碑林区友谊西路72号西安博物院内', 'province': '陕西省', 'city': '西安市', 'area': '碑林区', 'street_id': '5a02e5a96eacdda3fbdc858e', 'detail': 1, 'uid': '5a02e5a96eacdda3fbdc858e', 'detail_info': {'tag': '交通设施;停车场', 'type': 'life', 'detail_url': 'http://api.map.baidu.com/place/detail?uid=5a02e5a96eacdda3fbdc858e&output=html&source=placeapi_v2', 'overall_rating': '0.0', 'image_num': '2', 'children': []}}"
西安市第一人民医院-地上停车场,108.9397963339186,34.25682527078585,1ebb9ed6ae62552887154195,"{'name': '西安市第一人民医院-地上停车场', 'location': {'lat': 34.261465, 'lng': 108.950892}, 'address': '南大街46号附近', 'province': '陕西省', 'city': '西安市', 'area': '碑林区', 'street_id': '1ebb9ed6ae62552887154195', 'detail': 1, 'uid': '1ebb9ed6ae62552887154195', 'detail_info': {'tag': '交通设施;停车场', 'type': 'life', 'detail_url': 'http://api.map.baidu.com/place/detail?uid=1ebb9ed6ae62552887154195&output=html&source=placeapi_v2', 'image_num': '1', 'children': []}}"
"{'name': '西安市第一人民医院-地上停车场', 'location': {'lat': 34.261465, 'lng': 108.950892}, 'address': '南大街46号附近', 'province': '陕西省', 'city': '西安市', 'area': '碑林区', 'street_id': '1ebb9ed6ae62552887154195', 'detail': 1, 'uid': '1ebb9ed6ae62552887154195', 'detail_info': {'tag': '交通设施;停车场', 'type': 'life', 'detail_url': 'http://api.map.baidu.com/place/detail?uid=1ebb9ed6ae62552887154195&output=html&source=placeapi_v2', 'image_num': '1', 'children': []}}"
大学习巷与西大街交叉口,108.93170898045905,34.261233164939696,e2b26c26f13cd5448936eea8,"{'name': '大学习巷与西大街交叉口', 'location': {'lat': 34.265742, 'lng': 108.942816}, 'address': '西安市莲湖区大学习巷', 'province': '陕西省', 'city': '西安市', 'area': '莲湖区', 'street_id': 'e2b26c26f13cd5448936eea8', 'detail': 1, 'uid': 'e2b26c26f13cd5448936eea8', 'detail_info': {'tag': '道路;路口', 'type': 'life', 'detail_url': 'http://api.map.baidu.com/place/detail?uid=e2b26c26f13cd5448936eea8&output=html&source=placeapi_v2', 'image_num': '1', 'children': []}}"
"{'name': '大学习巷与西大街交叉口', 'location': {'lat': 34.265742, 'lng': 108.942816}, 'address': '西安市莲湖区大学习巷', 'province': '陕西省', 'city': '西安市', 'area': '莲湖区', 'street_id': 'e2b26c26f13cd5448936eea8', 'detail': 1, 'uid': 'e2b26c26f13cd5448936eea8', 'detail_info': {'tag': '道路;路口', 'type': 'life', 'detail_url': 'http://api.map.baidu.com/place/detail?uid=e2b26c26f13cd5448936eea8&output=html&source=placeapi_v2', 'image_num': '1', 'children': []}}"
长安国际中心-地下停车场,108.94040711674123,34.24976828892123,70d48595165bd09eafee7aee,"{'name': '长安国际中心-地下停车场', 'location': {'lat': 34.254416, 'lng': 108.951508}, 'address': '南关正街88号长安国际中心c座', 'province': '陕西省', 'city': '西安市', 'area': '碑林区', 'street_id': '70d48595165bd09eafee7aee', 'detail': 1, 'uid': '70d48595165bd09eafee7aee', 'detail_info': {'tag': '交通设施;停车场', 'navi_location': {'lng': 108.95150100397, 'lat': 34.254627325613}, 'type': 'life', 'detail_url': 'http://api.map.baidu.com/place/detail?uid=70d48595165bd09eafee7aee&output=html&source=placeapi_v2', 'overall_rating': '3.5', 'image_num': '2', 'comment_num': '0', 'children': []}}"
"{'name': '长安国际中心-地下停车场', 'location': {'lat': 34.254416, 'lng': 108.951508}, 'address': '南关正街88号长安国际中心c座', 'province': '陕西省', 'city': '西安市', 'area': '碑林区', 'street_id': '70d48595165bd09eafee7aee', 'detail': 1, 'uid': '70d48595165bd09eafee7aee', 'detail_info': {'tag': '交通设施;停车场', 'navi_location': {'lng': 108.95150100397, 'lat': 34.254627325613}, 'type': 'life', 'detail_url': 'http://api.map.baidu.com/place/detail?uid=70d48595165bd09eafee7aee&output=html&source=placeapi_v2', 'overall_rating': '3.5', 'image_num': '2', 'comment_num': '0', 'children': []}}"
振兴路北口,108.93826174647246,34.25248828014173,1ba82a1c4051ddd28a36ee89,"{'name': '振兴路北口', 'location': {'lat': 34.257105, 'lng': 108.949363}, 'address': '陕西省西安市碑林区环城南路(金花豪生国际大酒店旁)', 'province': '陕西省', 'city': '西安市', 'area': '碑林区', 'street_id': '1ba82a1c4051ddd28a36ee89', 'detail': 1, 'uid': '1ba82a1c4051ddd28a36ee89', 'detail_info': {'tag': '交通设施;其他', 'type': 'life', 'detail_url': 'http://api.map.baidu.com/place/detail?uid=1ba82a1c4051ddd28a36ee89&output=html&source=placeapi_v2', 'image_num': '1', 'comment_num': '1', 'children': []}}"
"{'name': '振兴路北口', 'location': {'lat': 34.257105, 'lng': 108.949363}, 'address': '陕西省西安市碑林区环城南路(金花豪生国际大酒店旁)', 'province': '陕西省', 'city': '西安市', 'area': '碑林区', 'street_id': '1ba82a1c4051ddd28a36ee89', 'detail': 1, 'uid': '1ba82a1c4051ddd28a36ee89', 'detail_info': {'tag': '交通设施;其他', 'type': 'life', 'detail_url': 'http://api.map.baidu.com/place/detail?uid=1ba82a1c4051ddd28a36ee89&output=html&source=placeapi_v2', 'image_num': '1', 'comment_num': '1', 'children': []}}"
陕西省中医医院-地下停车场,108.94011681041799,34.26581303336533,71dbdf7a0993859f616858c5,"{'name': '陕西省中医医院-地下停车场', 'location': {'lat': 34.270458, 'lng': 108.951204}, 'address': '陕西省西安市莲湖区西华门大街4', 'province': '陕西省', 'city': '西安市', 'area': '莲湖区', 'street_id': '71dbdf7a0993859f616858c5', 'detail': 1, 'uid': '71dbdf7a0993859f616858c5', 'detail_info': {'tag': '交通设施;停车场', 'navi_location': {'lng': 108.951288508, 'lat': 34.270592138452}, 'type': 'life', 'detail_url': 'http://api.map.baidu.com/place/detail?uid=71dbdf7a0993859f616858c5&output=html&source=placeapi_v2', 'image_num': '1', 'children': []}}"
"{'name': '陕西省中医医院-地下停车场', 'location': {'lat': 34.270458, 'lng': 108.951204}, 'address': '陕西省西安市莲湖区西华门大街4', 'province': '陕西省', 'city': '西安市', 'area': '莲湖区', 'street_id': '71dbdf7a0993859f616858c5', 'detail': 1, 'uid': '71dbdf7a0993859f616858c5', 'detail_info': {'tag': '交通设施;停车场', 'navi_location': {'lng': 108.951288508, 'lat': 34.270592138452}, 'type': 'life', 'detail_url': 'http://api.map.baidu.com/place/detail?uid=71dbdf7a0993859f616858c5&output=html&source=placeapi_v2', 'image_num': '1', 'children': []}}"
凯德广场-地下停车场,108.93216089782992,34.23038779262362,6e9ca6fbc355793715a190f3,"{'name': '凯德广场-地下停车场', 'location': {'lat': 34.234899, 'lng': 108.943283}, 'address': '二环南路西段64号', 'province': '陕西省', 'city': '西安市', 'area': '雁塔区', 'street_id': '6e9ca6fbc355793715a190f3', 'detail': 1, 'uid': '6e9ca6fbc355793715a190f3', 'detail_info': {'tag': '交通设施;停车场', 'navi_location': {'lng': 108.94216192793, 'lat': 34.234165651686}, 'type': 'life', 'detail_url': 'http://api.map.baidu.com/place/detail?uid=6e9ca6fbc355793715a190f3&output=html&source=placeapi_v2', 'overall_rating': '0.0', 'image_num': '3', 'children': []}}"
"{'name': '凯德广场-地下停车场', 'location': {'lat': 34.234899, 'lng': 108.943283}, 'address': '二环南路西段64号', 'province': '陕西省', 'city': '西安市', 'area': '雁塔区', 'street_id': '6e9ca6fbc355793715a190f3', 'detail': 1, 'uid': '6e9ca6fbc355793715a190f3', 'detail_info': {'tag': '交通设施;停车场', 'navi_location': {'lng': 108.94216192793, 'lat': 34.234165651686}, 'type': 'life', 'detail_url': 'http://api.map.baidu.com/place/detail?uid=6e9ca6fbc355793715a190f3&output=html&source=placeapi_v2', 'overall_rating': '0.0', 'image_num': '3', 'children': []}}"
西羊市街/庙后街(路口),108.93437463250356,34.26479179381812,35debf29bff67445a6da39ec,"{'name': '西羊市街/庙后街(路口)', 'location': {'lat': 34.269347, 'lng': 108.945472}, 'address': '西安市莲湖区北广济街', 'province': '陕西省', 'city': '西安市', 'area': '莲湖区', 'street_id': '35debf29bff67445a6da39ec', 'detail': 1, 'uid': '35debf29bff67445a6da39ec', 'detail_info': {'tag': '道路;路口', 'type': 'life', 'detail_url': 'http://api.map.baidu.com/place/detail?uid=35debf29bff67445a6da39ec&output=html&source=placeapi_v2', 'overall_rating': '2.3', 'image_num': '1', 'comment_num': '1', 'children': []}}"
"{'name': '西羊市街/庙后街(路口)', 'location': {'lat': 34.269347, 'lng': 108.945472}, 'address': '西安市莲湖区北广济街', 'province': '陕西省', 'city': '西安市', 'area': '莲湖区', 'street_id': '35debf29bff67445a6da39ec', 'detail': 1, 'uid': '35debf29bff67445a6da39ec', 'detail_info': {'tag': '道路;路口', 'type': 'life', 'detail_url': 'http://api.map.baidu.com/place/detail?uid=35debf29bff67445a6da39ec&output=html&source=placeapi_v2', 'overall_rating': '2.3', 'image_num': '1', 'comment_num': '1', 'children': []}}"
西市中路/西市北路(路口),108.90148661455305,34.24971245509454,d8dd29793847ff22ddee8b89,"{'name': '西市中路/西市北路(路口)', 'location': {'lat': 34.253778, 'lng': 108.912684}, 'address': '西安市莲湖区西市北路', 'province': '陕西省', 'city': '西安市', 'area': '莲湖区', 'street_id': 'd8dd29793847ff22ddee8b89', 'detail': 1, 'uid': 'd8dd29793847ff22ddee8b89', 'detail_info': {'tag': '道路;路口', 'type': 'life', 'detail_url': 'http://api.map.baidu.com/place/detail?uid=d8dd29793847ff22ddee8b89&output=html&source=placeapi_v2', 'image_num': '1', 'children': []}}"
"{'name': '西市中路/西市北路(路口)', 'location': {'lat': 34.253778, 'lng': 108.912684}, 'address': '西安市莲湖区西市北路', 'province': '陕西省', 'city': '西安市', 'area': '莲湖区', 'street_id': 'd8dd29793847ff22ddee8b89', 'detail': 1, 'uid': 'd8dd29793847ff22ddee8b89', 'detail_info': {'tag': '道路;路口', 'type': 'life', 'detail_url': 'http://api.map.baidu.com/place/detail?uid=d8dd29793847ff22ddee8b89&output=html&source=placeapi_v2', 'image_num': '1', 'children': []}}"
含光路北段/环城南路西段(路口),108.92755337812946,34.25243486753568,f4376f8fa1d45ff37f29bd77,"{'name': '含光路北段/环城南路西段(路口)', 'location': {'lat': 34.256868, 'lng': 108.93868}, 'address': '西安市碑林区环城南路西段', 'province': '陕西省', 'city': '西安市', 'area': '碑林区', 'street_id': 'f4376f8fa1d45ff37f29bd77', 'detail': 1, 'uid': 'f4376f8fa1d45ff37f29bd77', 'detail_info': {'tag': '道路;路口', 'type': 'life', 'detail_url': 'http://api.map.baidu.com/place/detail?uid=f4376f8fa1d45ff37f29bd77&output=html&source=placeapi_v2', 'image_num': '1', 'children': []}}"
"{'name': '含光路北段/环城南路西段(路口)', 'location': {'lat': 34.256868, 'lng': 108.93868}, 'address': '西安市碑林区环城南路西段', 'province': '陕西省', 'city': '西安市', 'area': '碑林区', 'street_id': 'f4376f8fa1d45ff37f29bd77', 'detail': 1, 'uid': 'f4376f8fa1d45ff37f29bd77', 'detail_info': {'tag': '道路;路口', 'type': 'life', 'detail_url': 'http://api.map.baidu.com/place/detail?uid=f4376f8fa1d45ff37f29bd77&output=html&source=placeapi_v2', 'image_num': '1', 'children': []}}"
瑞金东路/瑞金西路(路口),108.91445494546124,34.236064346028236,3e4c98a23fbefa644251c069,"{'name': '瑞金东路/瑞金西路(路口)', 'location': {'lat': 34.240267, 'lng': 108.925632}, 'address': '西安市雁塔区瑞金西路', 'province': '陕西省', 'city': '西安市', 'area': '雁塔区', 'street_id': '3e4c98a23fbefa644251c069', 'detail': 1, 'uid': '3e4c98a23fbefa644251c069', 'detail_info': {'tag': '道路;路口', 'type': 'life', 'detail_url': 'http://api.map.baidu.com/place/detail?uid=3e4c98a23fbefa644251c069&output=html&source=placeapi_v2', 'image_num': '1', 'children': []}}"
"{'name': '瑞金东路/瑞金西路(路口)', 'location': {'lat': 34.240267, 'lng': 108.925632}, 'address': '西安市雁塔区瑞金西路', 'province': '陕西省', 'city': '西安市', 'area': '雁塔区', 'street_id': '3e4c98a23fbefa644251c069', 'detail': 1, 'uid': '3e4c98a23fbefa644251c069', 'detail_info': {'tag': '道路;路口', 'type': 'life', 'detail_url': 'http://api.map.baidu.com/place/detail?uid=3e4c98a23fbefa644251c069&output=html&source=placeapi_v2', 'image_num': '1', 'children': []}}"
西安电子科技大学-停车场,108.91655215825011,34.23391116617234,40935129af0cc061d618b789,"{'name': '西安电子科技大学-停车场', 'location': {'lat': 34.238146, 'lng': 108.927723}, 'address': '二环南路西段136号西安电子科技大学北校区内', 'province': '陕西省', 'city': '西安市', 'area': '雁塔区', 'street_id': '40935129af0cc061d618b789', 'detail': 1, 'uid': '40935129af0cc061d618b789', 'detail_info': {'tag': '交通设施;停车场', 'navi_location': {'lng': 108.92769394515, 'lat': 34.238165609351}, 'type': 'life', 'detail_url': 'http://api.map.baidu.com/place/detail?uid=40935129af0cc061d618b789&output=html&source=placeapi_v2', 'image_num': '1', 'children': []}}"
"{'name': '西安电子科技大学-停车场', 'location': {'lat': 34.238146, 'lng': 108.927723}, 'address': '二环南路西段136号西安电子科技大学北校区内', 'province': '陕西省', 'city': '西安市', 'area': '雁塔区', 'street_id': '40935129af0cc061d618b789', 'detail': 1, 'uid': '40935129af0cc061d618b789', 'detail_info': {'tag': '交通设施;停车场', 'navi_location': {'lng': 108.92769394515, 'lat': 34.238165609351}, 'type': 'life', 'detail_url': 'http://api.map.baidu.com/place/detail?uid=40935129af0cc061d618b789&output=html&source=placeapi_v2', 'image_num': '1', 'children': []}}"
高新三路与光德路交叉口,108.89367576887074,34.237513875072494,2d722cc1e78a008196f08c48,"{'name': '高新三路与光德路交叉口', 'location': {'lat': 34.241561, 'lng': 108.904879}, 'address': '西安市雁塔区高新三路', 'province': '陕西省', 'city': '西安市', 'area': '雁塔区', 'street_id': '4edf9fbf68bf8b95cc06a457', 'detail': 1, 'uid': '2d722cc1e78a008196f08c48', 'detail_info': {'tag': '道路;路口', 'type': 'life', 'detail_url': 'http://api.map.baidu.com/place/detail?uid=2d722cc1e78a008196f08c48&output=html&source=placeapi_v2', 'image_num': '1', 'children': []}}"
"{'name': '高新三路与光德路交叉口', 'location': {'lat': 34.241561, 'lng': 108.904879}, 'address': '西安市雁塔区高新三路', 'province': '陕西省', 'city': '西安市', 'area': '雁塔区', 'street_id': '4edf9fbf68bf8b95cc06a457', 'detail': 1, 'uid': '2d722cc1e78a008196f08c48', 'detail_info': {'tag': '道路;路口', 'type': 'life', 'detail_url': 'http://api.map.baidu.com/place/detail?uid=2d722cc1e78a008196f08c48&output=html&source=placeapi_v2', 'image_num': '1', 'children': []}}"
新纪元公园-东门自行车租赁点,108.89269646480126,34.23135988321652,e58b0e7e01a5bc8c40ab9a56,"{'name': '新纪元公园-东门自行车租赁点', 'location': {'lat': 34.235407, 'lng': 108.903899}, 'address': '枫叶南路与高新二路交叉口西南200米', 'province': '陕西省', 'city': '西安市', 'area': '雁塔区', 'street_id': 'e58b0e7e01a5bc8c40ab9a56', 'detail': 1, 'uid': 'e58b0e7e01a5bc8c40ab9a56', 'detail_info': {'tag': '交通设施;其他', 'type': 'life', 'detail_url': 'http://api.map.baidu.com/place/detail?uid=e58b0e7e01a5bc8c40ab9a56&output=html&source=placeapi_v2', 'image_num': '1', 'children': []}}"
"{'name': '新纪元公园-东门自行车租赁点', 'location': {'lat': 34.235407, 'lng': 108.903899}, 'address': '枫叶南路与高新二路交叉口西南200米', 'province': '陕西省', 'city': '西安市', 'area': '雁塔区', 'street_id': 'e58b0e7e01a5bc8c40ab9a56', 'detail': 1, 'uid': 'e58b0e7e01a5bc8c40ab9a56', 'detail_info': {'tag': '交通设施;其他', 'type': 'life', 'detail_url': 'http://api.map.baidu.com/place/detail?uid=e58b0e7e01a5bc8c40ab9a56&output=html&source=placeapi_v2', 'image_num': '1', 'children': []}}"
五公司家属院自行车租赁点,108.9146928844592,34.22934510206949,b94562b5ee5e419f95f08c03,"{'name': '五公司家属院自行车租赁点', 'location': {'lat': 34.233549, 'lng': 108.925869}, 'address': '太白南路与光华路十字向东500米路南', 'province': '陕西省', 'city': '西安市', 'area': '雁塔区', 'street_id': 'b94562b5ee5e419f95f08c03', 'detail': 1, 'uid': 'b94562b5ee5e419f95f08c03', 'detail_info': {'tag': '交通设施;其他', 'type': 'life', 'detail_url': 'http://api.map.baidu.com/place/detail?uid=b94562b5ee5e419f95f08c03&output=html&source=placeapi_v2', 'image_num': '1', 'children': []}}"
"{'name': '五公司家属院自行车租赁点', 'location': {'lat': 34.233549, 'lng': 108.925869}, 'address': '太白南路与光华路十字向东500米路南', 'province': '陕西省', 'city': '西安市', 'area': '雁塔区', 'street_id': 'b94562b5ee5e419f95f08c03', 'detail': 1, 'uid': 'b94562b5ee5e419f95f08c03', 'detail_info': {'tag': '交通设施;其他', 'type': 'life', 'detail_url': 'http://api.map.baidu.com/place/detail?uid=b94562b5ee5e419f95f08c03&output=html&source=placeapi_v2', 'image_num': '1', 'children': []}}"
羽源欣居自行车租赁点,108.91244578555401,34.256438235430714,01b09a6ac00324d02102206c,"{'name': '羽源欣居自行车租赁点', 'location': {'lat': 34.260615, 'lng': 108.923617}, 'address': '陕西省西安市莲湖区西关街道人民西巷羽源欣居', 'province': '陕西省', 'city': '西安市', 'area': '莲湖区', 'street_id': '01b09a6ac00324d02102206c', 'detail': 1, 'uid': '01b09a6ac00324d02102206c', 'detail_info': {'tag': '交通设施;其他', 'type': 'life', 'detail_url': 'http://api.map.baidu.com/place/detail?uid=01b09a6ac00324d02102206c&output=html&source=placeapi_v2', 'image_num': '1', 'children': []}}"
"{'name': '羽源欣居自行车租赁点', 'location': {'lat': 34.260615, 'lng': 108.923617}, 'address': '陕西省西安市莲湖区西关街道人民西巷羽源欣居', 'province': '陕西省', 'city': '西安市', 'area': '莲湖区', 'street_id': '01b09a6ac00324d02102206c', 'detail': 1, 'uid': '01b09a6ac00324d02102206c', 'detail_info': {'tag': '交通设施;其他', 'type': 'life', 'detail_url': 'http://api.map.baidu.com/place/detail?uid=01b09a6ac00324d02102206c&output=html&source=placeapi_v2', 'image_num': '1', 'children': []}}"
西市中路/西市南路(路口),108.90146427247491,34.24618009780686,5a1c06ee8b492f8f48fd3f78,"{'name': '西市中路/西市南路(路口)', 'location': {'lat': 34.250245, 'lng': 108.912664}, 'address': '西安市莲湖区西市中路', 'province': '陕西省', 'city': '西安市', 'area': '莲湖区', 'street_id': '5a1c06ee8b492f8f48fd3f78', 'detail': 1, 'uid': '5a1c06ee8b492f8f48fd3f78', 'detail_info': {'tag': '道路;路口', 'type': 'life', 'detail_url': 'http://api.map.baidu.com/place/detail?uid=5a1c06ee8b492f8f48fd3f78&output=html&source=placeapi_v2', 'image_num': '1', 'children': []}}"
"{'name': '西市中路/西市南路(路口)', 'location': {'lat': 34.250245, 'lng': 108.912664}, 'address': '西安市莲湖区西市中路', 'province': '陕西省', 'city': '西安市', 'area': '莲湖区', 'street_id': '5a1c06ee8b492f8f48fd3f78', 'detail': 1, 'uid': '5a1c06ee8b492f8f48fd3f78', 'detail_info': {'tag': '道路;路口', 'type': 'life', 'detail_url': 'http://api.map.baidu.com/place/detail?uid=5a1c06ee8b492f8f48fd3f78&output=html&source=placeapi_v2', 'image_num': '1', 'children': []}}"
莲湖区西关正街一尊皇牛停车场,108.91670672081516,34.26118924637793,aae33dbe516d281cc4f02594,"{'name': '莲湖区西关正街一尊皇牛停车场', 'location': {'lat': 34.265431, 'lng': 108.927861}, 'address': '西关正街东段', 'province': '陕西省', 'city': '西安市', 'area': '莲湖区', 'street_id': 'aae33dbe516d281cc4f02594', 'detail': 1, 'uid': 'aae33dbe516d281cc4f02594', 'detail_info': {'tag': '交通设施;停车场', 'type': 'life', 'detail_url': 'http://api.map.baidu.com/place/detail?uid=aae33dbe516d281cc4f02594&output=html&source=placeapi_v2', 'overall_rating': '0.0', 'image_num': '1', 'children': []}}"
"{'name': '莲湖区西关正街一尊皇牛停车场', 'location': {'lat': 34.265431, 'lng': 108.927861}, 'address': '西关正街东段', 'province': '陕西省', 'city': '西安市', 'area': '莲湖区', 'street_id': 'aae33dbe516d281cc4f02594', 'detail': 1, 'uid': 'aae33dbe516d281cc4f02594', 'detail_info': {'tag': '交通设施;停车场', 'type': 'life', 'detail_url': 'http://api.map.baidu.com/place/detail?uid=aae33dbe516d281cc4f02594&output=html&source=placeapi_v2', 'overall_rating': '0.0', 'image_num': '1', 'children': []}}"
长安老铺茶苑-地上停车场,108.89868209939492,34.27067367869135,91a54a3ffc840e469cf77900,"{'name': '长安老铺茶苑-地上停车场', 'location': {'lat': 34.274729, 'lng': 108.909863}, 'address': '大庆路与桃园路交口向东1100米路南', 'province': '陕西省', 'city': '西安市', 'area': '莲湖区', 'street_id': '91a54a3ffc840e469cf77900', 'detail': 1, 'uid': '91a54a3ffc840e469cf77900', 'detail_info': {'tag': '交通设施;停车场', 'type': 'life', 'detail_url': 'http://api.map.baidu.com/place/detail?uid=91a54a3ffc840e469cf77900&output=html&source=placeapi_v2', 'image_num': '1', 'children': []}}"
"{'name': '长安老铺茶苑-地上停车场', 'location': {'lat': 34.274729, 'lng': 108.909863}, 'address': '大庆路与桃园路交口向东1100米路南', 'province': '陕西省', 'city': '西安市', 'area': '莲湖区', 'street_id': '91a54a3ffc840e469cf77900', 'detail': 1, 'uid': '91a54a3ffc840e469cf77900', 'detail_info': {'tag': '交通设施;停车场', 'type': 'life', 'detail_url': 'http://api.map.baidu.com/place/detail?uid=91a54a3ffc840e469cf77900&output=html&source=placeapi_v2', 'image_num': '1', 'children': []}}"
中国外运陕西公司海运进出口部,108.9231530603909,34.26139562301354,34059f9725f0d75570455bae,"{'name': '中国外运陕西公司海运进出口部', 'location': {'lat': 34.265749, 'lng': 108.934286}, 'address': '西安市莲湖区西大街西梆子市街零三招待所411室', 'province': '陕西省', 'city': '西安市', 'area': '莲湖区', 'street_id': '34059f9725f0d75570455bae', 'detail': 1, 'uid': '34059f9725f0d75570455bae', 'detail_info': {'tag': '交通设施', 'type': 'life', 'detail_url': 'http://api.map.baidu.com/place/detail?uid=34059f9725f0d75570455bae&output=html&source=placeapi_v2', 'image_num': '1', 'children': []}}"
"{'name': '中国外运陕西公司海运进出口部', 'location': {'lat': 34.265749, 'lng': 108.934286}, 'address': '西安市莲湖区西大街西梆子市街零三招待所411室', 'province': '陕西省', 'city': '西安市', 'area': '莲湖区', 'street_id': '34059f9725f0d75570455bae', 'detail': 1, 'uid': '34059f9725f0d75570455bae', 'detail_info': {'tag': '交通设施', 'type': 'life', 'detail_url': 'http://api.map.baidu.com/place/detail?uid=34059f9725f0d75570455bae&output=html&source=placeapi_v2', 'image_num': '1', 'children': []}}"
唐兴路/高新三路(路口),108.89044443154225,34.23430482473503,593850fbc51e565cdf1e52c2,"{'name': '唐兴路/高新三路(路口)', 'location': {'lat': 34.238361, 'lng': 108.901644}, 'address': '西安市雁塔区唐兴路', 'province': '陕西省', 'city': '西安市', 'area': '雁塔区', 'street_id': '593850fbc51e565cdf1e52c2', 'detail': 1, 'uid': '593850fbc51e565cdf1e52c2', 'detail_info': {'tag': '道路;路口', 'type': 'life', 'detail_url': 'http://api.map.baidu.com/place/detail?uid=593850fbc51e565cdf1e52c2&output=html&source=placeapi_v2', 'image_num': '1', 'children': []}}"
"{'name': '唐兴路/高新三路(路口)', 'location': {'lat': 34.238361, 'lng': 108.901644}, 'address': '西安市雁塔区唐兴路', 'province': '陕西省', 'city': '西安市', 'area': '雁塔区', 'street_id': '593850fbc51e565cdf1e52c2', 'detail': 1, 'uid': '593850fbc51e565cdf1e52c2', 'detail_info': {'tag': '道路;路口', 'type': 'life', 'detail_url': 'http://api.map.baidu.com/place/detail?uid=593850fbc51e565cdf1e52c2&output=html&source=placeapi_v2', 'image_num': '1', 'children': []}}"
停车场,108.89896490380355,34.23482303613625,04e0f996627a764e210262f4,"{'name': '停车场', 'location': {'lat': 34.238874, 'lng': 108.91017}, 'address': '陕西省西安市雁塔区嘉会巷世纪金花高新购物中心北门', 'province': '陕西省', 'city': '西安市', 'area': '雁塔区', 'street_id': '04e0f996627a764e210262f4', 'detail': 1, 'uid': '04e0f996627a764e210262f4', 'detail_info': {'tag': '交通设施;停车场', 'type': 'life', 'detail_url': 'http://api.map.baidu.com/place/detail?uid=04e0f996627a764e210262f4&output=html&source=placeapi_v2', 'price': '２元／小时。', 'overall_rating': '0.0', 'image_num': '1', 'children': []}}"
"{'name': '停车场', 'location': {'lat': 34.238874, 'lng': 108.91017}, 'address': '陕西省西安市雁塔区嘉会巷世纪金花高新购物中心北门', 'province': '陕西省', 'city': '西安市', 'area': '雁塔区', 'street_id': '04e0f996627a764e210262f4', 'detail': 1, 'uid': '04e0f996627a764e210262f4', 'detail_info': {'tag': '交通设施;停车场', 'type': 'life', 'detail_url': 'http://api.map.baidu.com/place/detail?uid=04e0f996627a764e210262f4&output=html&source=placeapi_v2', 'price': '２元／小时。', 'overall_rating': '0.0', 'image_num': '1', 'children': []}}"
丰镐东路与西关正街交叉口,108.90546227349397,34.261103166771704,d14b05847b26006632870a11,"{'name': '丰镐东路与西关正街交叉口', 'location': {'lat': 34.265199, 'lng': 108.916645}, 'address': '西安市莲湖区西关正街', 'province': '陕西省', 'city': '西安市', 'area': '莲湖区', 'street_id': 'd14b05847b26006632870a11', 'detail': 1, 'uid': 'd14b05847b26006632870a11', 'detail_info': {'tag': '道路;路口', 'type': 'life', 'detail_url': 'http://api.map.baidu.com/place/detail?uid=d14b05847b26006632870a11&output=html&source=placeapi_v2', 'image_num': '1', 'children': []}}"
"{'name': '丰镐东路与西关正街交叉口', 'location': {'lat': 34.265199, 'lng': 108.916645}, 'address': '西安市莲湖区西关正街', 'province': '陕西省', 'city': '西安市', 'area': '莲湖区', 'street_id': 'd14b05847b26006632870a11', 'detail': 1, 'uid': 'd14b05847b26006632870a11', 'detail_info': {'tag': '道路;路口', 'type': 'life', 'detail_url': 'http://api.map.baidu.com/place/detail?uid=d14b05847b26006632870a11&output=html&source=placeapi_v2', 'image_num': '1', 'children': []}}"
东泰・城市之光北区-停车场,108.92460803139095,34.24526274365156,fef8ad6a9cddcf31f8dc8597,"{'name': '东泰・城市之光北区-停车场', 'location': {'lat': 34.249641, 'lng': 108.935749}, 'address': '边家街18', 'province': '陕西省', 'city': '西安市', 'area': '碑林区', 'street_id': 'fef8ad6a9cddcf31f8dc8597', 'detail': 1, 'uid': 'fef8ad6a9cddcf31f8dc8597', 'detail_info': {'tag': '交通设施;停车场', 'navi_location': {'lng': 108.93587887916, 'lat': 34.249593641442}, 'type': 'life', 'detail_url': 'http://api.map.baidu.com/place/detail?uid=fef8ad6a9cddcf31f8dc8597&output=html&source=placeapi_v2', 'image_num': '1', 'children': []}}"
"{'name': '东泰・城市之光北区-停车场', 'location': {'lat': 34.249641, 'lng': 108.935749}, 'address': '边家街18', 'province': '陕西省', 'city': '西安市', 'area': '碑林区', 'street_id': 'fef8ad6a9cddcf31f8dc8597', 'detail': 1, 'uid': 'fef8ad6a9cddcf31f8dc8597', 'detail_info': {'tag': '交通设施;停车场', 'navi_location': {'lng': 108.93587887916, 'lat': 34.249593641442}, 'type': 'life', 'detail_url': 'http://api.map.baidu.com/place/detail?uid=fef8ad6a9cddcf31f8dc8597&output=html&source=placeapi_v2', 'image_num': '1', 'children': []}}"
桃园西路与沣惠路北段交叉口,108.88644226988198,34.26852184873801,3cd7e2b2345f70ec0d3dda1a,"{'name': '桃园西路与沣惠路北段交叉口', 'location': {'lat': 34.272609, 'lng': 108.897611}, 'address': '莲湖区', 'province': '陕西省', 'city': '西安市', 'area': '莲湖区', 'street_id': '3cd7e2b2345f70ec0d3dda1a', 'detail': 1, 'uid': '3cd7e2b2345f70ec0d3dda1a', 'detail_info': {'tag': '道路;路口', 'type': 'life', 'detail_url': 'http://api.map.baidu.com/place/detail?uid=3cd7e2b2345f70ec0d3dda1a&output=html&source=placeapi_v2', 'image_num': '1', 'children': []}}"
"{'name': '桃园西路与沣惠路北段交叉口', 'location': {'lat': 34.272609, 'lng': 108.897611}, 'address': '莲湖区', 'province': '陕西省', 'city': '西安市', 'area': '莲湖区', 'street_id': '3cd7e2b2345f70ec0d3dda1a', 'detail': 1, 'uid': '3cd7e2b2345f70ec0d3dda1a', 'detail_info': {'tag': '道路;路口', 'type': 'life', 'detail_url': 'http://api.map.baidu.com/place/detail?uid=3cd7e2b2345f70ec0d3dda1a&output=html&source=placeapi_v2', 'image_num': '1', 'children': []}}"
草阳小区-停车场,108.90745854042086,34.2550100479901,6bccc686411845f543afe630,"{'name': '草阳小区-停车场', 'location': {'lat': 34.259125, 'lng': 108.918643}, 'address': '陕西省西安市莲湖区劳动南路草阳小区(西安广成大酒店东南)', 'province': '陕西省', 'city': '西安市', 'area': '莲湖区', 'street_id': '6bccc686411845f543afe630', 'detail': 1, 'uid': '6bccc686411845f543afe630', 'detail_info': {'tag': '交通设施;停车场', 'navi_location': {'lng': 108.9178100612, 'lat': 34.259065110321}, 'type': 'life', 'detail_url': 'http://api.map.baidu.com/place/detail?uid=6bccc686411845f543afe630&output=html&source=placeapi_v2', 'image_num': '1', 'children': []}}"
"{'name': '草阳小区-停车场', 'location': {'lat': 34.259125, 'lng': 108.918643}, 'address': '陕西省西安市莲湖区劳动南路草阳小区(西安广成大酒店东南)', 'province': '陕西省', 'city': '西安市', 'area': '莲湖区', 'street_id': '6bccc686411845f543afe630', 'detail': 1, 'uid': '6bccc686411845f543afe630', 'detail_info': {'tag': '交通设施;停车场', 'navi_location': {'lng': 108.9178100612, 'lat': 34.259065110321}, 'type': 'life', 'detail_url': 'http://api.map.baidu.com/place/detail?uid=6bccc686411845f543afe630&output=html&source=placeapi_v2', 'image_num': '1', 'children': []}}"
丰园社区-停车场,108.894682215913,34.25281817141597,08c95a6b0031c14980a00cbd,"{'name': '丰园社区-停车场', 'location': {'lat': 34.256867, 'lng': 108.905878}, 'address': '桃园南路38号院附近', 'province': '陕西省', 'city': '西安市', 'area': '莲湖区', 'street_id': '08c95a6b0031c14980a00cbd', 'detail': 1, 'uid': '08c95a6b0031c14980a00cbd', 'detail_info': {'tag': '交通设施;停车场', 'type': 'life', 'detail_url': 'http://api.map.baidu.com/place/detail?uid=08c95a6b0031c14980a00cbd&output=html&source=placeapi_v2', 'image_num': '1', 'children': []}}"
"{'name': '丰园社区-停车场', 'location': {'lat': 34.256867, 'lng': 108.905878}, 'address': '桃园南路38号院附近', 'province': '陕西省', 'city': '西安市', 'area': '莲湖区', 'street_id': '08c95a6b0031c14980a00cbd', 'detail': 1, 'uid': '08c95a6b0031c14980a00cbd', 'detail_info': {'tag': '交通设施;停车场', 'type': 'life', 'detail_url': 'http://api.map.baidu.com/place/detail?uid=08c95a6b0031c14980a00cbd&output=html&source=placeapi_v2', 'image_num': '1', 'children': []}}"
家业新苑-停车场,108.91170111388674,34.25683146786307,796556cdced6725a2fb90847,"{'name': '家业新苑-停车场', 'location': {'lat': 34.260998, 'lng': 108.922874}, 'address': '南小巷与草阳巷交叉口西南50米', 'province': '陕西省', 'city': '西安市', 'area': '莲湖区', 'street_id': '796556cdced6725a2fb90847', 'detail': 1, 'uid': '796556cdced6725a2fb90847', 'detail_info': {'tag': '交通设施;停车场', 'type': 'life', 'detail_url': 'http://api.map.baidu.com/place/detail?uid=796556cdced6725a2fb90847&output=html&source=placeapi_v2', 'image_num': '1', 'children': []}}"
"{'name': '家业新苑-停车场', 'location': {'lat': 34.260998, 'lng': 108.922874}, 'address': '南小巷与草阳巷交叉口西南50米', 'province': '陕西省', 'city': '西安市', 'area': '莲湖区', 'street_id': '796556cdced6725a2fb90847', 'detail': 1, 'uid': '796556cdced6725a2fb90847', 'detail_info': {'tag': '交通设施;停车场', 'type': 'life', 'detail_url': 'http://api.map.baidu.com/place/detail?uid=796556cdced6725a2fb90847&output=html&source=placeapi_v2', 'image_num': '1', 'children': []}}"
停车场,108.89344685301316,34.24063167242404,e8854ae91e7355acc72ba1e6,"{'name': '停车场', 'location': {'lat': 34.24468, 'lng': 108.904649}, 'address': '高新四路13号', 'province': '陕西省', 'city': '西安市', 'area': '雁塔区', 'street_id': 'e8854ae91e7355acc72ba1e6', 'detail': 1, 'uid': 'e8854ae91e7355acc72ba1e6', 'detail_info': {'tag': '交通设施;停车场', 'type': 'life', 'detail_url': 'http://api.map.baidu.com/place/detail?uid=e8854ae91e7355acc72ba1e6&output=html&source=placeapi_v2', 'image_num': '1', 'children': []}}"
"{'name': '停车场', 'location': {'lat': 34.24468, 'lng': 108.904649}, 'address': '高新四路13号', 'province': '陕西省', 'city': '西安市', 'area': '雁塔区', 'street_id': 'e8854ae91e7355acc72ba1e6', 'detail': 1, 'uid': 'e8854ae91e7355acc72ba1e6', 'detail_info': {'tag': '交通设施;停车场', 'type': 'life', 'detail_url': 'http://api.map.baidu.com/place/detail?uid=e8854ae91e7355acc72ba1e6&output=html&source=placeapi_v2', 'image_num': '1', 'children': []}}"
科技路辅路/高新一路(路口),108.89762964178725,34.233756032936526,c70ff194345822762902e1bc,"{'name': '科技路辅路/高新一路(路口)', 'location': {'lat': 34.237803, 'lng': 108.908835}, 'address': '西安市雁塔区高新一路', 'province': '陕西省', 'city': '西安市', 'area': '雁塔区', 'street_id': 'c70ff194345822762902e1bc', 'detail': 1, 'uid': 'c70ff194345822762902e1bc', 'detail_info': {'tag': '道路;路口', 'type': 'life', 'detail_url': 'http://api.map.baidu.com/place/detail?uid=c70ff194345822762902e1bc&output=html&source=placeapi_v2', 'image_num': '1', 'children': []}}"
"{'name': '科技路辅路/高新一路(路口)', 'location': {'lat': 34.237803, 'lng': 108.908835}, 'address': '西安市雁塔区高新一路', 'province': '陕西省', 'city': '西安市', 'area': '雁塔区', 'street_id': 'c70ff194345822762902e1bc', 'detail': 1, 'uid': 'c70ff194345822762902e1bc', 'detail_info': {'tag': '道路;路口', 'type': 'life', 'detail_url': 'http://api.map.baidu.com/place/detail?uid=c70ff194345822762902e1bc&output=html&source=placeapi_v2', 'image_num': '1', 'children': []}}"
二环南路西段/金光门桥(路口),108.89012897905938,34.247914119541605,850bc64f5cc4d06c0bf5eba9,"{'name': '二环南路西段/金光门桥(路口)', 'location': {'lat': 34.251975, 'lng': 108.901323}, 'address': '西安市莲湖区二环南路西段', 'province': '陕西省', 'city': '西安市', 'area': '莲湖区', 'street_id': '850bc64f5cc4d06c0bf5eba9', 'detail': 1, 'uid': '850bc64f5cc4d06c0bf5eba9', 'detail_info': {'tag': '道路;路口', 'type': 'life', 'detail_url': 'http://api.map.baidu.com/place/detail?uid=850bc64f5cc4d06c0bf5eba9&output=html&source=placeapi_v2', 'image_num': '1', 'children': []}}"
"{'name': '二环南路西段/金光门桥(路口)', 'location': {'lat': 34.251975, 'lng': 108.901323}, 'address': '西安市莲湖区二环南路西段', 'province': '陕西省', 'city': '西安市', 'area': '莲湖区', 'street_id': '850bc64f5cc4d06c0bf5eba9', 'detail': 1, 'uid': '850bc64f5cc4d06c0bf5eba9', 'detail_info': {'tag': '道路;路口', 'type': 'life', 'detail_url': 'http://api.map.baidu.com/place/detail?uid=850bc64f5cc4d06c0bf5eba9&output=html&source=placeapi_v2', 'image_num': '1', 'children': []}}"
世新家园-停车场,108.90180314686395,34.265110228373786,f5f5b473e2726f6abfa82203,"{'name': '世新家园-停车场', 'location': {'lat': 34.269179, 'lng': 108.912987}, 'address': '团结东路17号', 'province': '陕西省', 'city': '西安市', 'area': '莲湖区', 'detail': 1, 'uid': 'f5f5b473e2726f6abfa82203', 'detail_info': {'tag': '交通设施;停车场', 'type': 'life', 'detail_url': 'http://api.map.baidu.com/place/detail?uid=f5f5b473e2726f6abfa82203&output=html&source=placeapi_v2', 'image_num': '1', 'children': []}}"
"{'name': '世新家园-停车场', 'location': {'lat': 34.269179, 'lng': 108.912987}, 'address': '团结东路17号', 'province': '陕西省', 'city': '西安市', 'area': '莲湖区', 'detail': 1, 'uid': 'f5f5b473e2726f6abfa82203', 'detail_info': {'tag': '交通设施;停车场', 'type': 'life', 'detail_url': 'http://api.map.baidu.com/place/detail?uid=f5f5b473e2726f6abfa82203&output=html&source=placeapi_v2', 'image_num': '1', 'children': []}}"
丰庆路与人民南巷交叉口,108.91349339243583,34.25245158714954,12d47d8ed3a54f72c03644b9,"{'name': '丰庆路与人民南巷交叉口', 'location': {'lat': 34.256643, 'lng': 108.924665}, 'address': '莲湖区', 'province': '陕西省', 'city': '西安市', 'area': '莲湖区', 'street_id': '12d47d8ed3a54f72c03644b9', 'detail': 1, 'uid': '12d47d8ed3a54f72c03644b9', 'detail_info': {'tag': '道路;路口', 'type': 'life', 'detail_url': 'http://api.map.baidu.com/place/detail?uid=12d47d8ed3a54f72c03644b9&output=html&source=placeapi_v2', 'image_num': '1', 'children': []}}"
"{'name': '丰庆路与人民南巷交叉口', 'location': {'lat': 34.256643, 'lng': 108.924665}, 'address': '莲湖区', 'province': '陕西省', 'city': '西安市', 'area': '莲湖区', 'street_id': '12d47d8ed3a54f72c03644b9', 'detail': 1, 'uid': '12d47d8ed3a54f72c03644b9', 'detail_info': {'tag': '道路;路口', 'type': 'life', 'detail_url': 'http://api.map.baidu.com/place/detail?uid=12d47d8ed3a54f72c03644b9&output=html&source=placeapi_v2', 'image_num': '1', 'children': []}}"
停车场,108.90199978560189,34.261212365813336,8d0d665249afa8743a04b1a9,"{'name': '停车场', 'location': {'lat': 34.265282, 'lng': 108.913187}, 'address': '西安市莲湖区沣镐东路1号', 'province': '陕西省', 'city': '西安市', 'area': '莲湖区', 'street_id': '8d0d665249afa8743a04b1a9', 'detail': 1, 'uid': '8d0d665249afa8743a04b1a9', 'detail_info': {'tag': '交通设施;停车场', 'navi_location': {'lng': 108.9131871942, 'lat': 34.265203717704}, 'type': 'life', 'detail_url': 'http://api.map.baidu.com/place/detail?uid=8d0d665249afa8743a04b1a9&output=html&source=placeapi_v2', 'image_num': '1', 'comment_num': '0', 'children': []}}"
"{'name': '停车场', 'location': {'lat': 34.265282, 'lng': 108.913187}, 'address': '西安市莲湖区沣镐东路1号', 'province': '陕西省', 'city': '西安市', 'area': '莲湖区', 'street_id': '8d0d665249afa8743a04b1a9', 'detail': 1, 'uid': '8d0d665249afa8743a04b1a9', 'detail_info': {'tag': '交通设施;停车场', 'navi_location': {'lng': 108.9131871942, 'lat': 34.265203717704}, 'type': 'life', 'detail_url': 'http://api.map.baidu.com/place/detail?uid=8d0d665249afa8743a04b1a9&output=html&source=placeapi_v2', 'image_num': '1', 'comment_num': '0', 'children': []}}"
关中客栈停车场,108.89392572757589,34.26077466254165,e20ae781e71e829a2cb17e7e,"{'name': '关中客栈停车场', 'location': {'lat': 34.264825, 'lng': 108.905114}, 'address': '丰镐东路30号喜来登东邻', 'province': '陕西省', 'city': '西安市', 'area': '莲湖区', 'street_id': 'e20ae781e71e829a2cb17e7e', 'detail': 1, 'uid': 'e20ae781e71e829a2cb17e7e', 'detail_info': {'tag': '交通设施;停车场', 'type': 'life', 'detail_url': 'http://api.map.baidu.com/place/detail?uid=e20ae781e71e829a2cb17e7e&output=html&source=placeapi_v2', 'image_num': '1', 'children': []}}"
"{'name': '关中客栈停车场', 'location': {'lat': 34.264825, 'lng': 108.905114}, 'address': '丰镐东路30号喜来登东邻', 'province': '陕西省', 'city': '西安市', 'area': '莲湖区', 'street_id': 'e20ae781e71e829a2cb17e7e', 'detail': 1, 'uid': 'e20ae781e71e829a2cb17e7e', 'detail_info': {'tag': '交通设施;停车场', 'type': 'life', 'detail_url': 'http://api.map.baidu.com/place/detail?uid=e20ae781e71e829a2cb17e7e&output=html&source=placeapi_v2', 'image_num': '1', 'children': []}}"
西仓北巷/西仓西巷(路口),108.92917206148972,34.26807114630268,cf22a47ec1d99611bca822ee,"{'name': '西仓北巷/西仓西巷(路口)', 'location': {'lat': 34.272535, 'lng': 108.94028}, 'address': '西安市莲湖区西仓西巷', 'province': '陕西省', 'city': '西安市', 'area': '莲湖区', 'street_id': 'cf22a47ec1d99611bca822ee', 'detail': 1, 'uid': 'cf22a47ec1d99611bca822ee', 'detail_info': {'tag': '道路;路口', 'type': 'life', 'detail_url': 'http://api.map.baidu.com/place/detail?uid=cf22a47ec1d99611bca822ee&output=html&source=placeapi_v2', 'image_num': '1', 'children': []}}"
"{'name': '西仓北巷/西仓西巷(路口)', 'location': {'lat': 34.272535, 'lng': 108.94028}, 'address': '西安市莲湖区西仓西巷', 'province': '陕西省', 'city': '西安市', 'area': '莲湖区', 'street_id': 'cf22a47ec1d99611bca822ee', 'detail': 1, 'uid': 'cf22a47ec1d99611bca822ee', 'detail_info': {'tag': '道路;路口', 'type': 'life', 'detail_url': 'http://api.map.baidu.com/place/detail?uid=cf22a47ec1d99611bca822ee&output=html&source=placeapi_v2', 'image_num': '1', 'children': []}}"
橡树国际自行车租赁点,108.89681620556568,34.27088975101096,e9656a7722d2f6fe5b1093de,"{'name': '橡树国际自行车租赁点', 'location': {'lat': 34.274941, 'lng': 108.907997}, 'address': '大庆路与土门坊十字向南500米沣惠路北段136号付工号', 'province': '陕西省', 'city': '西安市', 'area': '莲湖区', 'street_id': 'e9656a7722d2f6fe5b1093de', 'detail': 1, 'uid': 'e9656a7722d2f6fe5b1093de', 'detail_info': {'tag': '交通设施;其他', 'type': 'life', 'detail_url': 'http://api.map.baidu.com/place/detail?uid=e9656a7722d2f6fe5b1093de&output=html&source=placeapi_v2', 'image_num': '1', 'comment_num': '1', 'children': []}}"
"{'name': '橡树国际自行车租赁点', 'location': {'lat': 34.274941, 'lng': 108.907997}, 'address': '大庆路与土门坊十字向南500米沣惠路北段136号付工号', 'province': '陕西省', 'city': '西安市', 'area': '莲湖区', 'street_id': 'e9656a7722d2f6fe5b1093de', 'detail': 1, 'uid': 'e9656a7722d2f6fe5b1093de', 'detail_info': {'tag': '交通设施;其他', 'type': 'life', 'detail_url': 'http://api.map.baidu.com/place/detail?uid=e9656a7722d2f6fe5b1093de&output=html&source=placeapi_v2', 'image_num': '1', 'comment_num': '1', 'children': []}}"
理工大高等技术学院自行车租赁点,108.9070732888225,34.271501642414236,bbd4a651a5572d2d88fc06ae,"{'name': '理工大高等技术学院自行车租赁点', 'location': {'lat': 34.275614, 'lng': 108.918244}, 'address': '大庆路219附近', 'province': '陕西省', 'city': '西安市', 'area': '莲湖区', 'street_id': 'bbd4a651a5572d2d88fc06ae', 'detail': 1, 'uid': 'bbd4a651a5572d2d88fc06ae', 'detail_info': {'tag': '交通设施;其他', 'type': 'life', 'detail_url': 'http://api.map.baidu.com/place/detail?uid=bbd4a651a5572d2d88fc06ae&output=html&source=placeapi_v2', 'image_num': '2', 'comment_num': '1', 'children': []}}"
"{'name': '理工大高等技术学院自行车租赁点', 'location': {'lat': 34.275614, 'lng': 108.918244}, 'address': '大庆路219附近', 'province': '陕西省', 'city': '西安市', 'area': '莲湖区', 'street_id': 'bbd4a651a5572d2d88fc06ae', 'detail': 1, 'uid': 'bbd4a651a5572d2d88fc06ae', 'detail_info': {'tag': '交通设施;其他', 'type': 'life', 'detail_url': 'http://api.map.baidu.com/place/detail?uid=bbd4a651a5572d2d88fc06ae&output=html&source=placeapi_v2', 'image_num': '2', 'comment_num': '1', 'children': []}}"
莲湖路/联盟巷(路口),108.92086713626519,34.27133666700767,81d6a509f24a66416e20b930,"{'name': '莲湖路/联盟巷(路口)', 'location': {'lat': 34.27565, 'lng': 108.931999}, 'address': '陕西省西安市莲湖区', 'province': '陕西省', 'city': '西安市', 'area': '莲湖区', 'street_id': '68542316b3035d7338221c21', 'detail': 1, 'uid': '81d6a509f24a66416e20b930', 'detail_info': {'tag': '道路;路口', 'type': 'life', 'detail_url': 'http://api.map.baidu.com/place/detail?uid=81d6a509f24a66416e20b930&output=html&source=placeapi_v2', 'image_num': '1', 'children': []}}"
"{'name': '莲湖路/联盟巷(路口)', 'location': {'lat': 34.27565, 'lng': 108.931999}, 'address': '陕西省西安市莲湖区', 'province': '陕西省', 'city': '西安市', 'area': '莲湖区', 'street_id': '68542316b3035d7338221c21', 'detail': 1, 'uid': '81d6a509f24a66416e20b930', 'detail_info': {'tag': '道路;路口', 'type': 'life', 'detail_url': 'http://api.map.baidu.com/place/detail?uid=81d6a509f24a66416e20b930&output=html&source=placeapi_v2', 'image_num': '1', 'children': []}}"
西市北路北段-停车场,108.90139608088748,34.249067046434476,500e86f075ad8a99d0ff234e,"{'name': '西市北路北段-停车场', 'location': {'lat': 34.253132, 'lng': 108.912594}, 'address': '西市中路与西市北路交叉口东南100米', 'province': '陕西省', 'city': '西安市', 'area': '莲湖区', 'detail': 1, 'uid': '500e86f075ad8a99d0ff234e', 'detail_info': {'tag': '交通设施;停车场', 'type': 'life', 'detail_url': 'http://api.map.baidu.com/place/detail?uid=500e86f075ad8a99d0ff234e&output=html&source=placeapi_v2', 'image_num': '1', 'children': []}}"
"{'name': '西市北路北段-停车场', 'location': {'lat': 34.253132, 'lng': 108.912594}, 'address': '西市中路与西市北路交叉口东南100米', 'province': '陕西省', 'city': '西安市', 'area': '莲湖区', 'detail': 1, 'uid': '500e86f075ad8a99d0ff234e', 'detail_info': {'tag': '交通设施;停车场', 'type': 'life', 'detail_url': 'http://api.map.baidu.com/place/detail?uid=500e86f075ad8a99d0ff234e&output=html&source=placeapi_v2', 'image_num': '1', 'children': []}}"
协和宾馆-停车场,108.89345664152454,34.2591230522089,a6f64adb3b0448c1b14c497a,"{'name': '协和宾馆-停车场', 'location': {'lat': 34.263174, 'lng': 108.904646}, 'address': '沣镐东路258号', 'province': '陕西省', 'city': '西安市', 'area': '莲湖区', 'detail': 1, 'uid': 'a6f64adb3b0448c1b14c497a', 'detail_info': {'tag': '交通设施;停车场', 'navi_location': {'lng': 108.90465673327, 'lat': 34.263170819637}, 'type': 'life', 'detail_url': 'http://api.map.baidu.com/place/detail?uid=a6f64adb3b0448c1b14c497a&output=html&source=placeapi_v2', 'image_num': '1', 'children': []}}"
"{'name': '协和宾馆-停车场', 'location': {'lat': 34.263174, 'lng': 108.904646}, 'address': '沣镐东路258号', 'province': '陕西省', 'city': '西安市', 'area': '莲湖区', 'detail': 1, 'uid': 'a6f64adb3b0448c1b14c497a', 'detail_info': {'tag': '交通设施;停车场', 'navi_location': {'lng': 108.90465673327, 'lat': 34.263170819637}, 'type': 'life', 'detail_url': 'http://api.map.baidu.com/place/detail?uid=a6f64adb3b0448c1b14c497a&output=html&source=placeapi_v2', 'image_num': '1', 'children': []}}"
地下停车场,108.91276112252527,34.26810189195923,931c710c1af28c5ba80dd80a,"{'name': '地下停车场', 'location': {'lat': 34.272284, 'lng': 108.923921}, 'address': '陕西省西安市莲湖区恒天国际城(西安市第一中学西北)', 'province': '陕西省', 'city': '西安市', 'area': '莲湖区', 'street_id': '931c710c1af28c5ba80dd80a', 'detail': 1, 'uid': '931c710c1af28c5ba80dd80a', 'detail_info': {'tag': '交通设施;停车场', 'type': 'life', 'detail_url': 'http://api.map.baidu.com/place/detail?uid=931c710c1af28c5ba80dd80a&output=html&source=placeapi_v2', 'image_num': '1', 'children': []}}"
"{'name': '地下停车场', 'location': {'lat': 34.272284, 'lng': 108.923921}, 'address': '陕西省西安市莲湖区恒天国际城(西安市第一中学西北)', 'province': '陕西省', 'city': '西安市', 'area': '莲湖区', 'street_id': '931c710c1af28c5ba80dd80a', 'detail': 1, 'uid': '931c710c1af28c5ba80dd80a', 'detail_info': {'tag': '交通设施;停车场', 'type': 'life', 'detail_url': 'http://api.map.baidu.com/place/detail?uid=931c710c1af28c5ba80dd80a&output=html&source=placeapi_v2', 'image_num': '1', 'children': []}}"
停车场(西安市粮食局莲湖分局西),108.90509636298228,34.267409893894275,7287e0cf4258909cbf4842aa,"{'name': '停车场(西安市粮食局莲湖分局西)', 'location': {'lat': 34.271503, 'lng': 108.916274}, 'address': '陕西省西安市莲湖区劳动路196号', 'province': '陕西省', 'city': '西安市', 'area': '莲湖区', 'street_id': '7287e0cf4258909cbf4842aa', 'detail': 1, 'uid': '7287e0cf4258909cbf4842aa', 'detail_info': {'tag': '交通设施;停车场', 'type': 'life', 'detail_url': 'http://api.map.baidu.com/place/detail?uid=7287e0cf4258909cbf4842aa&output=html&source=placeapi_v2', 'image_num': '1', 'children': []}}"
"{'name': '停车场(西安市粮食局莲湖分局西)', 'location': {'lat': 34.271503, 'lng': 108.916274}, 'address': '陕西省西安市莲湖区劳动路196号', 'province': '陕西省', 'city': '西安市', 'area': '莲湖区', 'street_id': '7287e0cf4258909cbf4842aa', 'detail': 1, 'uid': '7287e0cf4258909cbf4842aa', 'detail_info': {'tag': '交通设施;停车场', 'type': 'life', 'detail_url': 'http://api.map.baidu.com/place/detail?uid=7287e0cf4258909cbf4842aa&output=html&source=placeapi_v2', 'image_num': '1', 'children': []}}"
二环南路西段/桃园南路辅路(路口),108.89567150463957,34.245352414351395,13ed76c96994c25acc06a4dc,"{'name': '二环南路西段/桃园南路辅路(路口)', 'location': {'lat': 34.2494, 'lng': 108.906873}, 'address': '西安市莲湖区桃园南路辅路', 'province': '陕西省', 'city': '西安市', 'area': '莲湖区', 'street_id': '13ed76c96994c25acc06a4dc', 'detail': 1, 'uid': '13ed76c96994c25acc06a4dc', 'detail_info': {'tag': '道路;路口', 'type': 'life', 'detail_url': 'http://api.map.baidu.com/place/detail?uid=13ed76c96994c25acc06a4dc&output=html&source=placeapi_v2', 'image_num': '1', 'children': []}}"
"{'name': '二环南路西段/桃园南路辅路(路口)', 'location': {'lat': 34.2494, 'lng': 108.906873}, 'address': '西安市莲湖区桃园南路辅路', 'province': '陕西省', 'city': '西安市', 'area': '莲湖区', 'street_id': '13ed76c96994c25acc06a4dc', 'detail': 1, 'uid': '13ed76c96994c25acc06a4dc', 'detail_info': {'tag': '道路;路口', 'type': 'life', 'detail_url': 'http://api.map.baidu.com/place/detail?uid=13ed76c96994c25acc06a4dc&output=html&source=placeapi_v2', 'image_num': '1', 'children': []}}"
西安协成花园酒店-停车场,108.90436812238103,34.25951566565739,d24871910814fee10d0a70a2,"{'name': '西安协成花园酒店-停车场', 'location': {'lat': 34.263602, 'lng': 108.915554}, 'address': '陕西省西安市莲湖区西稍门西关正街西安协成花园酒店', 'province': '陕西省', 'city': '西安市', 'area': '莲湖区', 'street_id': 'd24871910814fee10d0a70a2', 'detail': 1, 'uid': 'd24871910814fee10d0a70a2', 'detail_info': {'tag': '交通设施;停车场', 'type': 'life', 'detail_url': 'http://api.map.baidu.com/place/detail?uid=d24871910814fee10d0a70a2&output=html&source=placeapi_v2', 'image_num': '1', 'children': []}}"
"{'name': '西安协成花园酒店-停车场', 'location': {'lat': 34.263602, 'lng': 108.915554}, 'address': '陕西省西安市莲湖区西稍门西关正街西安协成花园酒店', 'province': '陕西省', 'city': '西安市', 'area': '莲湖区', 'street_id': 'd24871910814fee10d0a70a2', 'detail': 1, 'uid': 'd24871910814fee10d0a70a2', 'detail_info': {'tag': '交通设施;停车场', 'type': 'life', 'detail_url': 'http://api.map.baidu.com/place/detail?uid=d24871910814fee10d0a70a2&output=html&source=placeapi_v2', 'image_num': '1', 'children': []}}"
西京医院高新区干部住宅楼停车场-出口,108.89199869521497,34.238046727001525,8893357d932fbdd252e5c52e,"{'name': '西京医院高新区干部住宅楼停车场-出口', 'location': {'lat': 34.242098, 'lng': 108.9032}, 'address': '光智路与高新四路交叉口东100米', 'province': '陕西省', 'city': '西安市', 'area': '雁塔区', 'street_id': '8893357d932fbdd252e5c52e', 'detail': 1, 'uid': '8893357d932fbdd252e5c52e', 'detail_info': {'tag': '交通设施;停车场', 'type': 'life', 'detail_url': 'http://api.map.baidu.com/place/detail?uid=8893357d932fbdd252e5c52e&output=html&source=placeapi_v2', 'image_num': '1', 'children': []}}"
"{'name': '西京医院高新区干部住宅楼停车场-出口', 'location': {'lat': 34.242098, 'lng': 108.9032}, 'address': '光智路与高新四路交叉口东100米', 'province': '陕西省', 'city': '西安市', 'area': '雁塔区', 'street_id': '8893357d932fbdd252e5c52e', 'detail': 1, 'uid': '8893357d932fbdd252e5c52e', 'detail_info': {'tag': '交通设施;停车场', 'type': 'life', 'detail_url': 'http://api.map.baidu.com/place/detail?uid=8893357d932fbdd252e5c52e&output=html&source=placeapi_v2', 'image_num': '1', 'children': []}}"
易佰良品酒店西安西稍门店停车场,108.89630386490033,34.26348206279387,bfbd520925943cb8d5b74ecb,"{'name': '易佰良品酒店西安西稍门店停车场', 'location': {'lat': 34.267532, 'lng': 108.907491}, 'address': '桃园中路14号易佰良品酒店西安西稍门店', 'province': '陕西省', 'city': '西安市', 'area': '莲湖区', 'street_id': 'bfbd520925943cb8d5b74ecb', 'detail': 1, 'uid': 'bfbd520925943cb8d5b74ecb', 'detail_info': {'tag': '交通设施;停车场', 'type': 'life', 'detail_url': 'http://api.map.baidu.com/place/detail?uid=bfbd520925943cb8d5b74ecb&output=html&source=placeapi_v2', 'image_num': '1', 'children': []}}"
"{'name': '易佰良品酒店西安西稍门店停车场', 'location': {'lat': 34.267532, 'lng': 108.907491}, 'address': '桃园中路14号易佰良品酒店西安西稍门店', 'province': '陕西省', 'city': '西安市', 'area': '莲湖区', 'street_id': 'bfbd520925943cb8d5b74ecb', 'detail': 1, 'uid': 'bfbd520925943cb8d5b74ecb', 'detail_info': {'tag': '交通设施;停车场', 'type': 'life', 'detail_url': 'http://api.map.baidu.com/place/detail?uid=bfbd520925943cb8d5b74ecb&output=html&source=placeapi_v2', 'image_num': '1', 'children': []}}"
西安都市医院-自行车租赁点,108.90958376279846,34.271558438599484,9c4bc9b6e023cce1d23ce37d,"{'name': '西安都市医院-自行车租赁点', 'location': {'lat': 34.275699, 'lng': 108.920749}, 'address': '西安市莲湖区大庆路与劳动北路十字向东150米路北', 'province': '陕西省', 'city': '西安市', 'area': '莲湖区', 'street_id': '9c4bc9b6e023cce1d23ce37d', 'detail': 1, 'uid': '9c4bc9b6e023cce1d23ce37d', 'detail_info': {'tag': '交通设施;其他', 'type': 'life', 'detail_url': 'http://api.map.baidu.com/place/detail?uid=9c4bc9b6e023cce1d23ce37d&output=html&source=placeapi_v2', 'image_num': '1', 'comment_num': '1', 'children': []}}"
"{'name': '西安都市医院-自行车租赁点', 'location': {'lat': 34.275699, 'lng': 108.920749}, 'address': '西安市莲湖区大庆路与劳动北路十字向东150米路北', 'province': '陕西省', 'city': '西安市', 'area': '莲湖区', 'street_id': '9c4bc9b6e023cce1d23ce37d', 'detail': 1, 'uid': '9c4bc9b6e023cce1d23ce37d', 'detail_info': {'tag': '交通设施;其他', 'type': 'life', 'detail_url': 'http://api.map.baidu.com/place/detail?uid=9c4bc9b6e023cce1d23ce37d&output=html&source=placeapi_v2', 'image_num': '1', 'comment_num': '1', 'children': []}}"
P计时收费,108.89506243407881,34.23533284430161,47e5dd4775731c52f4b91678,"{'name': 'P计时收费', 'location': {'lat': 34.239378, 'lng': 108.906267}, 'address': '高新路27号附近', 'province': '陕西省', 'city': '西安市', 'area': '雁塔区', 'street_id': '47e5dd4775731c52f4b91678', 'detail': 1, 'uid': '47e5dd4775731c52f4b91678', 'detail_info': {'tag': '交通设施;停车场', 'type': 'life', 'detail_url': 'http://api.map.baidu.com/place/detail?uid=47e5dd4775731c52f4b91678&output=html&source=placeapi_v2', 'image_num': '1', 'children': []}}"
"{'name': 'P计时收费', 'location': {'lat': 34.239378, 'lng': 108.906267}, 'address': '高新路27号附近', 'province': '陕西省', 'city': '西安市', 'area': '雁塔区', 'street_id': '47e5dd4775731c52f4b91678', 'detail': 1, 'uid': '47e5dd4775731c52f4b91678', 'detail_info': {'tag': '交通设施;停车场', 'type': 'life', 'detail_url': 'http://api.map.baidu.com/place/detail?uid=47e5dd4775731c52f4b91678&output=html&source=placeapi_v2', 'image_num': '1', 'children': []}}"
停车场(民航小区东),108.90157223876558,34.25426246371983,bee18ebf698999a4130daa48,"{'name': '停车场(民航小区东)', 'location': {'lat': 34.258329, 'lng': 108.912766}, 'address': '锦园路东150米', 'province': '陕西省', 'city': '西安市', 'area': '莲湖区', 'detail': 1, 'uid': 'bee18ebf698999a4130daa48', 'detail_info': {'tag': '交通设施;停车场', 'type': 'life', 'detail_url': 'http://api.map.baidu.com/place/detail?uid=bee18ebf698999a4130daa48&output=html&source=placeapi_v2', 'image_num': '1', 'children': []}}"
"{'name': '停车场(民航小区东)', 'location': {'lat': 34.258329, 'lng': 108.912766}, 'address': '锦园路东150米', 'province': '陕西省', 'city': '西安市', 'area': '莲湖区', 'detail': 1, 'uid': 'bee18ebf698999a4130daa48', 'detail_info': {'tag': '交通设施;停车场', 'type': 'life', 'detail_url': 'http://api.map.baidu.com/place/detail?uid=bee18ebf698999a4130daa48&output=html&source=placeapi_v2', 'image_num': '1', 'children': []}}"
太白北路/环城西路南段(路口),108.91888593237196,34.25221664970382,b556646ccfb2e08d17948e4a,"{'name': '太白北路/环城西路南段(路口)', 'location': {'lat': 34.256494, 'lng': 108.930041}, 'address': '西安市碑林区环城南路西段辅路', 'province': '陕西省', 'city': '西安市', 'area': '碑林区', 'street_id': 'b556646ccfb2e08d17948e4a', 'detail': 1, 'uid': 'b556646ccfb2e08d17948e4a', 'detail_info': {'tag': '道路;路口', 'type': 'life', 'detail_url': 'http://api.map.baidu.com/place/detail?uid=b556646ccfb2e08d17948e4a&output=html&source=placeapi_v2', 'image_num': '1', 'children': []}}"
"{'name': '太白北路/环城西路南段(路口)', 'location': {'lat': 34.256494, 'lng': 108.930041}, 'address': '西安市碑林区环城南路西段辅路', 'province': '陕西省', 'city': '西安市', 'area': '碑林区', 'street_id': 'b556646ccfb2e08d17948e4a', 'detail': 1, 'uid': 'b556646ccfb2e08d17948e4a', 'detail_info': {'tag': '道路;路口', 'type': 'life', 'detail_url': 'http://api.map.baidu.com/place/detail?uid=b556646ccfb2e08d17948e4a&output=html&source=placeapi_v2', 'image_num': '1', 'children': []}}"
西市佳园-地下停车场,108.90051181908551,34.24963752737345,f1522b9b3fcc86c7fa0cadf0,"{'name': '西市佳园-地下停车场', 'location': {'lat': 34.253698, 'lng': 108.91171}, 'address': '陕西省西安市莲湖区西市北路20', 'province': '陕西省', 'city': '西安市', 'area': '莲湖区', 'street_id': 'f1522b9b3fcc86c7fa0cadf0', 'detail': 1, 'uid': 'f1522b9b3fcc86c7fa0cadf0', 'detail_info': {'tag': '交通设施;停车场', 'type': 'life', 'detail_url': 'http://api.map.baidu.com/place/detail?uid=f1522b9b3fcc86c7fa0cadf0&output=html&source=placeapi_v2', 'image_num': '1', 'children': []}}"
"{'name': '西市佳园-地下停车场', 'location': {'lat': 34.253698, 'lng': 108.91171}, 'address': '陕西省西安市莲湖区西市北路20', 'province': '陕西省', 'city': '西安市', 'area': '莲湖区', 'street_id': 'f1522b9b3fcc86c7fa0cadf0', 'detail': 1, 'uid': 'f1522b9b3fcc86c7fa0cadf0', 'detail_info': {'tag': '交通设施;停车场', 'type': 'life', 'detail_url': 'http://api.map.baidu.com/place/detail?uid=f1522b9b3fcc86c7fa0cadf0&output=html&source=placeapi_v2', 'image_num': '1', 'children': []}}"
停车场(皮个布东),108.90133932281907,34.252147984759425,b36e2ea39ca9f6037c29bd5d,"{'name': '停车场(皮个布东)', 'location': {'lat': 34.256213, 'lng': 108.912535}, 'address': '陕西省西安市莲湖区锦园路105号', 'province': '陕西省', 'city': '西安市', 'area': '莲湖区', 'street_id': 'b36e2ea39ca9f6037c29bd5d', 'detail': 1, 'uid': 'b36e2ea39ca9f6037c29bd5d', 'detail_info': {'tag': '交通设施;停车场', 'type': 'life', 'detail_url': 'http://api.map.baidu.com/place/detail?uid=b36e2ea39ca9f6037c29bd5d&output=html&source=placeapi_v2', 'image_num': '1', 'children': []}}"
"{'name': '停车场(皮个布东)', 'location': {'lat': 34.256213, 'lng': 108.912535}, 'address': '陕西省西安市莲湖区锦园路105号', 'province': '陕西省', 'city': '西安市', 'area': '莲湖区', 'street_id': 'b36e2ea39ca9f6037c29bd5d', 'detail': 1, 'uid': 'b36e2ea39ca9f6037c29bd5d', 'detail_info': {'tag': '交通设施;停车场', 'type': 'life', 'detail_url': 'http://api.map.baidu.com/place/detail?uid=b36e2ea39ca9f6037c29bd5d&output=html&source=placeapi_v2', 'image_num': '1', 'children': []}}"
含光路中段/含光路北段(路口),108.92737953642421,34.24275341313006,3126f295df7c390bc41e5174,"{'name': '含光路中段/含光路北段(路口)', 'location': {'lat': 34.247182, 'lng': 108.938513}, 'address': '西安市碑林区友谊西路', 'province': '陕西省', 'city': '西安市', 'area': '碑林区', 'street_id': '3126f295df7c390bc41e5174', 'detail': 1, 'uid': '3126f295df7c390bc41e5174', 'detail_info': {'tag': '道路;路口', 'type': 'life', 'detail_url': 'http://api.map.baidu.com/place/detail?uid=3126f295df7c390bc41e5174&output=html&source=placeapi_v2', 'image_num': '1', 'children': []}}"
"{'name': '含光路中段/含光路北段(路口)', 'location': {'lat': 34.247182, 'lng': 108.938513}, 'address': '西安市碑林区友谊西路', 'province': '陕西省', 'city': '西安市', 'area': '碑林区', 'street_id': '3126f295df7c390bc41e5174', 'detail': 1, 'uid': '3126f295df7c390bc41e5174', 'detail_info': {'tag': '道路;路口', 'type': 'life', 'detail_url': 'http://api.map.baidu.com/place/detail?uid=3126f295df7c390bc41e5174&output=html&source=placeapi_v2', 'image_num': '1', 'children': []}}"
二环南路西段/太白南路(路口),108.91816639197867,34.23536407107417,35e270d3dec83172cac3db3f,"{'name': '二环南路西段/太白南路(路口)', 'location': {'lat': 34.239626, 'lng': 108.929332}, 'address': '西安市碑林区二环南路西段', 'province': '陕西省', 'city': '西安市', 'area': '碑林区', 'street_id': '35e270d3dec83172cac3db3f', 'detail': 1, 'uid': '35e270d3dec83172cac3db3f', 'detail_info': {'tag': '道路;路口', 'type': 'life', 'detail_url': 'http://api.map.baidu.com/place/detail?uid=35e270d3dec83172cac3db3f&output=html&source=placeapi_v2', 'image_num': '1', 'children': []}}"
"{'name': '二环南路西段/太白南路(路口)', 'location': {'lat': 34.239626, 'lng': 108.929332}, 'address': '西安市碑林区二环南路西段', 'province': '陕西省', 'city': '西安市', 'area': '碑林区', 'street_id': '35e270d3dec83172cac3db3f', 'detail': 1, 'uid': '35e270d3dec83172cac3db3f', 'detail_info': {'tag': '道路;路口', 'type': 'life', 'detail_url': 'http://api.map.baidu.com/place/detail?uid=35e270d3dec83172cac3db3f&output=html&source=placeapi_v2', 'image_num': '1', 'children': []}}"
西北工业大学友谊校区停车场(健翔楼东南),108.90906900551192,34.24853371645555,b136e008fe076141b44f5407,"{'name': '西北工业大学友谊校区停车场(健翔楼东南)', 'location': {'lat': 34.252666, 'lng': 108.920255}, 'address': '劳动南路115号附近', 'province': '陕西省', 'city': '西安市', 'area': '碑林区', 'street_id': 'b136e008fe076141b44f5407', 'detail': 1, 'uid': 'b136e008fe076141b44f5407', 'detail_info': {'tag': '交通设施;停车场', 'type': 'life', 'detail_url': 'http://api.map.baidu.com/place/detail?uid=b136e008fe076141b44f5407&output=html&source=placeapi_v2', 'image_num': '1', 'children': []}}"
"{'name': '西北工业大学友谊校区停车场(健翔楼东南)', 'location': {'lat': 34.252666, 'lng': 108.920255}, 'address': '劳动南路115号附近', 'province': '陕西省', 'city': '西安市', 'area': '碑林区', 'street_id': 'b136e008fe076141b44f5407', 'detail': 1, 'uid': 'b136e008fe076141b44f5407', 'detail_info': {'tag': '交通设施;停车场', 'type': 'life', 'detail_url': 'http://api.map.baidu.com/place/detail?uid=b136e008fe076141b44f5407&output=html&source=placeapi_v2', 'image_num': '1', 'children': []}}"
金晨音乐会所KTV-停车场,108.90905545539087,34.258961859936626,0acdab8a54f6140197031937,"{'name': '金晨音乐会所KTV-停车场', 'location': {'lat': 34.263095, 'lng': 108.920233}, 'address': '陕西省西安市莲湖区西稍门西关正街上城公寓东(旭景名园北)', 'province': '陕西省', 'city': '西安市', 'area': '莲湖区', 'street_id': '0acdab8a54f6140197031937', 'detail': 1, 'uid': '0acdab8a54f6140197031937', 'detail_info': {'tag': '交通设施;停车场', 'navi_location': {'lng': 108.92102278888, 'lat': 34.262708328839}, 'type': 'life', 'detail_url': 'http://api.map.baidu.com/place/detail?uid=0acdab8a54f6140197031937&output=html&source=placeapi_v2', 'image_num': '1', 'children': []}}"
"{'name': '金晨音乐会所KTV-停车场', 'location': {'lat': 34.263095, 'lng': 108.920233}, 'address': '陕西省西安市莲湖区西稍门西关正街上城公寓东(旭景名园北)', 'province': '陕西省', 'city': '西安市', 'area': '莲湖区', 'street_id': '0acdab8a54f6140197031937', 'detail': 1, 'uid': '0acdab8a54f6140197031937', 'detail_info': {'tag': '交通设施;停车场', 'navi_location': {'lng': 108.92102278888, 'lat': 34.262708328839}, 'type': 'life', 'detail_url': 'http://api.map.baidu.com/place/detail?uid=0acdab8a54f6140197031937&output=html&source=placeapi_v2', 'image_num': '1', 'children': []}}"
含光路中段辅路/风华路(路口),108.92750559682764,34.23327162884428,a0941503a9f080fe9d95deb0,"{'name': '含光路中段辅路/风华路(路口)', 'location': {'lat': 34.2377, 'lng': 108.938641}, 'address': '西安市碑林区含光路中段', 'province': '陕西省', 'city': '西安市', 'area': '碑林区', 'street_id': 'a0941503a9f080fe9d95deb0', 'detail': 1, 'uid': 'a0941503a9f080fe9d95deb0', 'detail_info': {'tag': '道路;路口', 'type': 'life', 'detail_url': 'http://api.map.baidu.com/place/detail?uid=a0941503a9f080fe9d95deb0&output=html&source=placeapi_v2', 'image_num': '1', 'children': []}}"
"{'name': '含光路中段辅路/风华路(路口)', 'location': {'lat': 34.2377, 'lng': 108.938641}, 'address': '西安市碑林区含光路中段', 'province': '陕西省', 'city': '西安市', 'area': '碑林区', 'street_id': 'a0941503a9f080fe9d95deb0', 'detail': 1, 'uid': 'a0941503a9f080fe9d95deb0', 'detail_info': {'tag': '道路;路口', 'type': 'life', 'detail_url': 'http://api.map.baidu.com/place/detail?uid=a0941503a9f080fe9d95deb0&output=html&source=placeapi_v2', 'image_num': '1', 'children': []}}"
慕道班,108.9288750073361,34.25786130409364,a1eccd47a2480526fb2213b8,"{'name': '慕道班', 'location': {'lat': 34.262319, 'lng': 108.939993}, 'address': '西安市莲湖区', 'province': '陕西省', 'city': '西安市', 'area': '莲湖区', 'street_id': 'a1eccd47a2480526fb2213b8', 'detail': 1, 'uid': 'a1eccd47a2480526fb2213b8', 'detail_info': {'tag': '交通设施;桥', 'type': 'life', 'detail_url': 'http://api.map.baidu.com/place/detail?uid=a1eccd47a2480526fb2213b8&output=html&source=placeapi_v2', 'image_num': '1', 'children': []}}"
"{'name': '慕道班', 'location': {'lat': 34.262319, 'lng': 108.939993}, 'address': '西安市莲湖区', 'province': '陕西省', 'city': '西安市', 'area': '莲湖区', 'street_id': 'a1eccd47a2480526fb2213b8', 'detail': 1, 'uid': 'a1eccd47a2480526fb2213b8', 'detail_info': {'tag': '交通设施;桥', 'type': 'life', 'detail_url': 'http://api.map.baidu.com/place/detail?uid=a1eccd47a2480526fb2213b8&output=html&source=placeapi_v2', 'image_num': '1', 'children': []}}"
庙后街/早慈巷(路口),108.92576366350939,34.26477775625353,abf305aa17423d784154d779,"{'name': '庙后街/早慈巷(路口)', 'location': {'lat': 34.269179, 'lng': 108.936885}, 'address': '西安市莲湖区早慈巷', 'province': '陕西省', 'city': '西安市', 'area': '莲湖区', 'detail': 1, 'uid': 'abf305aa17423d784154d779', 'detail_info': {'tag': '道路;路口', 'type': 'life', 'detail_url': 'http://api.map.baidu.com/place/detail?uid=abf305aa17423d784154d779&output=html&source=placeapi_v2', 'image_num': '1', 'children': []}}"
"{'name': '庙后街/早慈巷(路口)', 'location': {'lat': 34.269179, 'lng': 108.936885}, 'address': '西安市莲湖区早慈巷', 'province': '陕西省', 'city': '西安市', 'area': '莲湖区', 'detail': 1, 'uid': 'abf305aa17423d784154d779', 'detail_info': {'tag': '道路;路口', 'type': 'life', 'detail_url': 'http://api.map.baidu.com/place/detail?uid=abf305aa17423d784154d779&output=html&source=placeapi_v2', 'image_num': '1', 'children': []}}"
劳动南路/西市北路(路口),108.90556883073845,34.24968025066014,611affbc452a1390a4c75681,"{'name': '劳动南路/西市北路(路口)', 'location': {'lat': 34.253776, 'lng': 108.916761}, 'address': '西安市莲湖区劳动南路', 'province': '陕西省', 'city': '西安市', 'area': '莲湖区', 'street_id': '611affbc452a1390a4c75681', 'detail': 1, 'uid': '611affbc452a1390a4c75681', 'detail_info': {'tag': '道路;路口', 'type': 'life', 'detail_url': 'http://api.map.baidu.com/place/detail?uid=611affbc452a1390a4c75681&output=html&source=placeapi_v2', 'image_num': '1', 'children': []}}"
"{'name': '劳动南路/西市北路(路口)', 'location': {'lat': 34.253776, 'lng': 108.916761}, 'address': '西安市莲湖区劳动南路', 'province': '陕西省', 'city': '西安市', 'area': '莲湖区', 'street_id': '611affbc452a1390a4c75681', 'detail': 1, 'uid': '611affbc452a1390a4c75681', 'detail_info': {'tag': '道路;路口', 'type': 'life', 'detail_url': 'http://api.map.baidu.com/place/detail?uid=611affbc452a1390a4c75681&output=html&source=placeapi_v2', 'image_num': '1', 'children': []}}"
二环南路西段辅路/兴化巷(路口),108.92312557961073,34.233060781716105,2f1bfbcd29ccc2db7dc876ad,"{'name': '二环南路西段辅路/兴化巷(路口)', 'location': {'lat': 34.237409, 'lng': 108.934275}, 'address': '西安市碑林区兴化巷', 'province': '陕西省', 'city': '西安市', 'area': '碑林区', 'street_id': '2f1bfbcd29ccc2db7dc876ad', 'detail': 1, 'uid': '2f1bfbcd29ccc2db7dc876ad', 'detail_info': {'tag': '道路;路口', 'type': 'life', 'detail_url': 'http://api.map.baidu.com/place/detail?uid=2f1bfbcd29ccc2db7dc876ad&output=html&source=placeapi_v2', 'image_num': '1', 'children': []}}"
"{'name': '二环南路西段辅路/兴化巷(路口)', 'location': {'lat': 34.237409, 'lng': 108.934275}, 'address': '西安市碑林区兴化巷', 'province': '陕西省', 'city': '西安市', 'area': '碑林区', 'street_id': '2f1bfbcd29ccc2db7dc876ad', 'detail': 1, 'uid': '2f1bfbcd29ccc2db7dc876ad', 'detail_info': {'tag': '道路;路口', 'type': 'life', 'detail_url': 'http://api.map.baidu.com/place/detail?uid=2f1bfbcd29ccc2db7dc876ad&output=html&source=placeapi_v2', 'image_num': '1', 'children': []}}"
西北工业大学停车场,108.91449597798481,34.24454272042248,a0fefdb49a039164213bf288,"{'name': '西北工业大学停车场', 'location': {'lat': 34.248748, 'lng': 108.92567}, 'address': '友谊西路127号西北工业大学友谊校区', 'province': '陕西省', 'city': '西安市', 'area': '碑林区', 'detail': 1, 'uid': 'a0fefdb49a039164213bf288', 'detail_info': {'tag': '交通设施;停车场', 'type': 'life', 'detail_url': 'http://api.map.baidu.com/place/detail?uid=a0fefdb49a039164213bf288&output=html&source=placeapi_v2', 'image_num': '1', 'children': []}}"
"{'name': '西北工业大学停车场', 'location': {'lat': 34.248748, 'lng': 108.92567}, 'address': '友谊西路127号西北工业大学友谊校区', 'province': '陕西省', 'city': '西安市', 'area': '碑林区', 'detail': 1, 'uid': 'a0fefdb49a039164213bf288', 'detail_info': {'tag': '交通设施;停车场', 'type': 'life', 'detail_url': 'http://api.map.baidu.com/place/detail?uid=a0fefdb49a039164213bf288&output=html&source=placeapi_v2', 'image_num': '1', 'children': []}}"
环城南路西段辅路/环城西路南段(路口),108.91888593237196,34.25221664970382,ea6dd588b7d31f6489fc0683,"{'name': '环城南路西段辅路/环城西路南段(路口)', 'location': {'lat': 34.256494, 'lng': 108.930041}, 'address': '西安市碑林区', 'province': '陕西省', 'city': '西安市', 'area': '碑林区', 'street_id': 'ea6dd588b7d31f6489fc0683', 'detail': 1, 'uid': 'ea6dd588b7d31f6489fc0683', 'detail_info': {'tag': '道路;路口', 'type': 'life', 'detail_url': 'http://api.map.baidu.com/place/detail?uid=ea6dd588b7d31f6489fc0683&output=html&source=placeapi_v2', 'image_num': '1', 'children': []}}"
"{'name': '环城南路西段辅路/环城西路南段(路口)', 'location': {'lat': 34.256494, 'lng': 108.930041}, 'address': '西安市碑林区', 'province': '陕西省', 'city': '西安市', 'area': '碑林区', 'street_id': 'ea6dd588b7d31f6489fc0683', 'detail': 1, 'uid': 'ea6dd588b7d31f6489fc0683', 'detail_info': {'tag': '道路;路口', 'type': 'life', 'detail_url': 'http://api.map.baidu.com/place/detail?uid=ea6dd588b7d31f6489fc0683&output=html&source=placeapi_v2', 'image_num': '1', 'children': []}}"
停车场(三航路),108.91244996779318,34.24215506655372,c756db5e1db3a1ee0bccddf2,"{'name': '停车场(三航路)', 'location': {'lat': 34.24633, 'lng': 108.923631}, 'address': '陕西省西安市碑林区友谊西路246号', 'province': '陕西省', 'city': '西安市', 'area': '碑林区', 'street_id': 'c756db5e1db3a1ee0bccddf2', 'detail': 1, 'uid': 'c756db5e1db3a1ee0bccddf2', 'detail_info': {'tag': '交通设施;停车场', 'type': 'life', 'detail_url': 'http://api.map.baidu.com/place/detail?uid=c756db5e1db3a1ee0bccddf2&output=html&source=placeapi_v2', 'image_num': '1', 'children': []}}"
"{'name': '停车场(三航路)', 'location': {'lat': 34.24633, 'lng': 108.923631}, 'address': '陕西省西安市碑林区友谊西路246号', 'province': '陕西省', 'city': '西安市', 'area': '碑林区', 'street_id': 'c756db5e1db3a1ee0bccddf2', 'detail': 1, 'uid': 'c756db5e1db3a1ee0bccddf2', 'detail_info': {'tag': '交通设施;停车场', 'type': 'life', 'detail_url': 'http://api.map.baidu.com/place/detail?uid=c756db5e1db3a1ee0bccddf2&output=html&source=placeapi_v2', 'image_num': '1', 'children': []}}"
地下车库,108.90383130332562,34.23724732870489,f7c1963257991fd0c71e51e8,"{'name': '地下车库', 'location': {'lat': 34.241326, 'lng': 108.915032}, 'address': '陕西省西安市雁塔区高新路17号南70米', 'province': '陕西省', 'city': '西安市', 'area': '雁塔区', 'street_id': 'f7c1963257991fd0c71e51e8', 'detail': 1, 'uid': 'f7c1963257991fd0c71e51e8', 'detail_info': {'tag': '交通设施;停车场', 'type': 'life', 'detail_url': 'http://api.map.baidu.com/place/detail?uid=f7c1963257991fd0c71e51e8&output=html&source=placeapi_v2', 'image_num': '1', 'children': []}}"
"{'name': '地下车库', 'location': {'lat': 34.241326, 'lng': 108.915032}, 'address': '陕西省西安市雁塔区高新路17号南70米', 'province': '陕西省', 'city': '西安市', 'area': '雁塔区', 'street_id': 'f7c1963257991fd0c71e51e8', 'detail': 1, 'uid': 'f7c1963257991fd0c71e51e8', 'detail_info': {'tag': '交通设施;停车场', 'type': 'life', 'detail_url': 'http://api.map.baidu.com/place/detail?uid=f7c1963257991fd0c71e51e8&output=html&source=placeapi_v2', 'image_num': '1', 'children': []}}"
翠草碧叶,108.90340680678796,34.23753243089975,dee5909acdd838fc2fb96de0,"{'name': '翠草碧叶', 'location': {'lat': 34.241608, 'lng': 108.914608}, 'address': '电子城街道高新路糜家桥小区西门', 'province': '陕西省', 'city': '西安市', 'area': '雁塔区', 'street_id': 'dee5909acdd838fc2fb96de0', 'detail': 1, 'uid': 'dee5909acdd838fc2fb96de0', 'detail_info': {'tag': '交通设施;桥', 'type': 'life', 'detail_url': 'http://api.map.baidu.com/place/detail?uid=dee5909acdd838fc2fb96de0&output=html&source=placeapi_v2', 'image_num': '1', 'children': []}}"
"{'name': '翠草碧叶', 'location': {'lat': 34.241608, 'lng': 108.914608}, 'address': '电子城街道高新路糜家桥小区西门', 'province': '陕西省', 'city': '西安市', 'area': '雁塔区', 'street_id': 'dee5909acdd838fc2fb96de0', 'detail': 1, 'uid': 'dee5909acdd838fc2fb96de0', 'detail_info': {'tag': '交通设施;桥', 'type': 'life', 'detail_url': 'http://api.map.baidu.com/place/detail?uid=dee5909acdd838fc2fb96de0&output=html&source=placeapi_v2', 'image_num': '1', 'children': []}}"
太空花园-停车场,108.89195927819422,34.259086286649236,1a8daec6afb29870d42ce254,"{'name': '太空花园-停车场', 'location': {'lat': 34.263141, 'lng': 108.903147}, 'address': '丰镐东路260号', 'province': '陕西省', 'city': '西安市', 'area': '莲湖区', 'detail': 1, 'uid': '1a8daec6afb29870d42ce254', 'detail_info': {'tag': '交通设施;停车场', 'type': 'life', 'detail_url': 'http://api.map.baidu.com/place/detail?uid=1a8daec6afb29870d42ce254&output=html&source=placeapi_v2', 'image_num': '1', 'children': []}}"
"{'name': '太空花园-停车场', 'location': {'lat': 34.263141, 'lng': 108.903147}, 'address': '丰镐东路260号', 'province': '陕西省', 'city': '西安市', 'area': '莲湖区', 'detail': 1, 'uid': '1a8daec6afb29870d42ce254', 'detail_info': {'tag': '交通设施;停车场', 'type': 'life', 'detail_url': 'http://api.map.baidu.com/place/detail?uid=1a8daec6afb29870d42ce254&output=html&source=placeapi_v2', 'image_num': '1', 'children': []}}"
西安航空学院-自行车租赁点,108.88712496370422,34.265511532677706,9bb31a5d9879bc7428b97cd4,"{'name': '西安航空学院-自行车租赁点', 'location': {'lat': 34.269593, 'lng': 108.898298}, 'address': '陕西省西安市莲湖区团结中路与西二环十字向东100米路南', 'province': '陕西省', 'city': '西安市', 'area': '莲湖区', 'street_id': '9bb31a5d9879bc7428b97cd4', 'detail': 1, 'uid': '9bb31a5d9879bc7428b97cd4', 'detail_info': {'tag': '交通设施;其他', 'navi_location': {'lng': 108.89829920868, 'lat': 34.269788374935}, 'type': 'life', 'detail_url': 'http://api.map.baidu.com/place/detail?uid=9bb31a5d9879bc7428b97cd4&output=html&source=placeapi_v2', 'image_num': '1', 'comment_num': '1', 'children': []}}"
"{'name': '西安航空学院-自行车租赁点', 'location': {'lat': 34.269593, 'lng': 108.898298}, 'address': '陕西省西安市莲湖区团结中路与西二环十字向东100米路南', 'province': '陕西省', 'city': '西安市', 'area': '莲湖区', 'street_id': '9bb31a5d9879bc7428b97cd4', 'detail': 1, 'uid': '9bb31a5d9879bc7428b97cd4', 'detail_info': {'tag': '交通设施;其他', 'navi_location': {'lng': 108.89829920868, 'lat': 34.269788374935}, 'type': 'life', 'detail_url': 'http://api.map.baidu.com/place/detail?uid=9bb31a5d9879bc7428b97cd4&output=html&source=placeapi_v2', 'image_num': '1', 'comment_num': '1', 'children': []}}"
陕西全益物业管理有限公司停车场,108.92007478794086,34.252147143974305,4861f712c5b4c5e532870aeb,"{'name': '陕西全益物业管理有限公司停车场', 'location': {'lat': 34.256445, 'lng': 108.931226}, 'address': '陕西省西安市碑林区环城南路西段216号-3', 'province': '陕西省', 'city': '西安市', 'area': '碑林区', 'street_id': '4861f712c5b4c5e532870aeb', 'detail': 1, 'uid': '4861f712c5b4c5e532870aeb', 'detail_info': {'tag': '交通设施;停车场', 'type': 'life', 'detail_url': 'http://api.map.baidu.com/place/detail?uid=4861f712c5b4c5e532870aeb&output=html&source=placeapi_v2', 'image_num': '1', 'children': []}}"
"{'name': '陕西全益物业管理有限公司停车场', 'location': {'lat': 34.256445, 'lng': 108.931226}, 'address': '陕西省西安市碑林区环城南路西段216号-3', 'province': '陕西省', 'city': '西安市', 'area': '碑林区', 'street_id': '4861f712c5b4c5e532870aeb', 'detail': 1, 'uid': '4861f712c5b4c5e532870aeb', 'detail_info': {'tag': '交通设施;停车场', 'type': 'life', 'detail_url': 'http://api.map.baidu.com/place/detail?uid=4861f712c5b4c5e532870aeb&output=html&source=placeapi_v2', 'image_num': '1', 'children': []}}"
风华路西段北侧停车场,108.9284695093613,34.23332299304482,0d51c25321da20fa461a3218,"{'name': '风华路西段北侧停车场', 'location': {'lat': 34.237769, 'lng': 108.939602}, 'address': '陕西省西安市碑林区张家村街道风华路九锦台南门', 'province': '陕西省', 'city': '西安市', 'area': '碑林区', 'street_id': '0d51c25321da20fa461a3218', 'detail': 1, 'uid': '0d51c25321da20fa461a3218', 'detail_info': {'tag': '交通设施;停车场', 'type': 'life', 'detail_url': 'http://api.map.baidu.com/place/detail?uid=0d51c25321da20fa461a3218&output=html&source=placeapi_v2', 'image_num': '1', 'children': []}}"
"{'name': '风华路西段北侧停车场', 'location': {'lat': 34.237769, 'lng': 108.939602}, 'address': '陕西省西安市碑林区张家村街道风华路九锦台南门', 'province': '陕西省', 'city': '西安市', 'area': '碑林区', 'street_id': '0d51c25321da20fa461a3218', 'detail': 1, 'uid': '0d51c25321da20fa461a3218', 'detail_info': {'tag': '交通设施;停车场', 'type': 'life', 'detail_url': 'http://api.map.baidu.com/place/detail?uid=0d51c25321da20fa461a3218&output=html&source=placeapi_v2', 'image_num': '1', 'children': []}}"
碑林区友谊西路凯瑞至秦通停车场,108.9143765971936,34.24244592821583,17e399149858346dbbbd6395,"{'name': '碑林区友谊西路凯瑞至秦通停车场', 'location': {'lat': 34.246649, 'lng': 108.925552}, 'address': '陕西省西安市碑林区友谊西路352号', 'province': '陕西省', 'city': '西安市', 'area': '碑林区', 'street_id': '17e399149858346dbbbd6395', 'detail': 1, 'uid': '17e399149858346dbbbd6395', 'detail_info': {'tag': '交通设施;停车场', 'type': 'life', 'detail_url': 'http://api.map.baidu.com/place/detail?uid=17e399149858346dbbbd6395&output=html&source=placeapi_v2', 'image_num': '2', 'children': []}}"
"{'name': '碑林区友谊西路凯瑞至秦通停车场', 'location': {'lat': 34.246649, 'lng': 108.925552}, 'address': '陕西省西安市碑林区友谊西路352号', 'province': '陕西省', 'city': '西安市', 'area': '碑林区', 'street_id': '17e399149858346dbbbd6395', 'detail': 1, 'uid': '17e399149858346dbbbd6395', 'detail_info': {'tag': '交通设施;停车场', 'type': 'life', 'detail_url': 'http://api.map.baidu.com/place/detail?uid=17e399149858346dbbbd6395&output=html&source=placeapi_v2', 'image_num': '2', 'children': []}}"
大学南路停车场,108.9176787091145,34.24766652684757,c2936718d90767862811d13b,"{'name': '大学南路停车场', 'location': {'lat': 34.251923, 'lng': 108.928841}, 'address': '陕西省西安市碑林区魁星快捷酒店(西北大学西南)', 'province': '陕西省', 'city': '西安市', 'area': '碑林区', 'street_id': 'c2936718d90767862811d13b', 'detail': 1, 'uid': 'c2936718d90767862811d13b', 'detail_info': {'tag': '交通设施;停车场', 'type': 'life', 'detail_url': 'http://api.map.baidu.com/place/detail?uid=c2936718d90767862811d13b&output=html&source=placeapi_v2', 'image_num': '2', 'children': []}}"
"{'name': '大学南路停车场', 'location': {'lat': 34.251923, 'lng': 108.928841}, 'address': '陕西省西安市碑林区魁星快捷酒店(西北大学西南)', 'province': '陕西省', 'city': '西安市', 'area': '碑林区', 'street_id': 'c2936718d90767862811d13b', 'detail': 1, 'uid': 'c2936718d90767862811d13b', 'detail_info': {'tag': '交通设施;停车场', 'type': 'life', 'detail_url': 'http://api.map.baidu.com/place/detail?uid=c2936718d90767862811d13b&output=html&source=placeapi_v2', 'image_num': '2', 'children': []}}"
双仁府/西甜水井(路口),108.92536577652092,34.25402782179316,8ab0dfc4df071017d8eced33,"{'name': '双仁府/西甜水井(路口)', 'location': {'lat': 34.258421, 'lng': 108.936498}, 'address': '西安市莲湖区双仁府', 'province': '陕西省', 'city': '西安市', 'area': '莲湖区', 'street_id': '8ab0dfc4df071017d8eced33', 'detail': 1, 'uid': '8ab0dfc4df071017d8eced33', 'detail_info': {'tag': '道路;路口', 'type': 'life', 'detail_url': 'http://api.map.baidu.com/place/detail?uid=8ab0dfc4df071017d8eced33&output=html&source=placeapi_v2', 'image_num': '1', 'children': []}}"
"{'name': '双仁府/西甜水井(路口)', 'location': {'lat': 34.258421, 'lng': 108.936498}, 'address': '西安市莲湖区双仁府', 'province': '陕西省', 'city': '西安市', 'area': '莲湖区', 'street_id': '8ab0dfc4df071017d8eced33', 'detail': 1, 'uid': '8ab0dfc4df071017d8eced33', 'detail_info': {'tag': '道路;路口', 'type': 'life', 'detail_url': 'http://api.map.baidu.com/place/detail?uid=8ab0dfc4df071017d8eced33&output=html&source=placeapi_v2', 'image_num': '1', 'children': []}}"
西湖-地下停车场,108.90748515514174,34.24788456556589,c1653405f9080104ab175a3c,"{'name': '西湖-地下停车场', 'location': {'lat': 34.251999, 'lng': 108.918675}, 'address': '友谊西路127号西北工业大学校内西北工业大学医院附近', 'province': '陕西省', 'city': '西安市', 'area': '碑林区', 'street_id': 'c1653405f9080104ab175a3c', 'detail': 1, 'uid': 'c1653405f9080104ab175a3c', 'detail_info': {'tag': '交通设施;停车场', 'navi_location': {'lng': 108.91877710595, 'lat': 34.252006491021}, 'type': 'life', 'detail_url': 'http://api.map.baidu.com/place/detail?uid=c1653405f9080104ab175a3c&output=html&source=placeapi_v2', 'overall_rating': '0.0', 'image_num': '1', 'comment_num': '0', 'children': []}}"
"{'name': '西湖-地下停车场', 'location': {'lat': 34.251999, 'lng': 108.918675}, 'address': '友谊西路127号西北工业大学校内西北工业大学医院附近', 'province': '陕西省', 'city': '西安市', 'area': '碑林区', 'street_id': 'c1653405f9080104ab175a3c', 'detail': 1, 'uid': 'c1653405f9080104ab175a3c', 'detail_info': {'tag': '交通设施;停车场', 'navi_location': {'lng': 108.91877710595, 'lat': 34.252006491021}, 'type': 'life', 'detail_url': 'http://api.map.baidu.com/place/detail?uid=c1653405f9080104ab175a3c&output=html&source=placeapi_v2', 'overall_rating': '0.0', 'image_num': '1', 'comment_num': '0', 'children': []}}"
二环桥下1号停车场-c区,108.90085790817874,34.24256601199373,5c6025ae2b33605c43ab9a99,"{'name': '二环桥下1号停车场-c区', 'location': {'lat': 34.246627, 'lng': 108.91206}, 'address': '南二环桃园桥下', 'province': '陕西省', 'city': '西安市', 'area': '雁塔区', 'street_id': '5c6025ae2b33605c43ab9a99', 'detail': 1, 'uid': '5c6025ae2b33605c43ab9a99', 'detail_info': {'tag': '交通设施;停车场', 'navi_location': {'lng': 108.91215055234, 'lat': 34.246480012927}, 'type': 'life', 'detail_url': 'http://api.map.baidu.com/place/detail?uid=5c6025ae2b33605c43ab9a99&output=html&source=placeapi_v2', 'overall_rating': '0.0', 'image_num': '1', 'children': []}}"
"{'name': '二环桥下1号停车场-c区', 'location': {'lat': 34.246627, 'lng': 108.91206}, 'address': '南二环桃园桥下', 'province': '陕西省', 'city': '西安市', 'area': '雁塔区', 'street_id': '5c6025ae2b33605c43ab9a99', 'detail': 1, 'uid': '5c6025ae2b33605c43ab9a99', 'detail_info': {'tag': '交通设施;停车场', 'navi_location': {'lng': 108.91215055234, 'lat': 34.246480012927}, 'type': 'life', 'detail_url': 'http://api.map.baidu.com/place/detail?uid=5c6025ae2b33605c43ab9a99&output=html&source=placeapi_v2', 'overall_rating': '0.0', 'image_num': '1', 'children': []}}"
高科花园二三期-停车场,108.88795913079456,34.23275514641619,2a7a25ec426cfc1d6c3e1b0f,"{'name': '高科花园二三期-停车场', 'location': {'lat': 34.236825, 'lng': 108.899154}, 'address': '高新五路2号斜对面', 'province': '陕西省', 'city': '西安市', 'area': '雁塔区', 'street_id': '2a7a25ec426cfc1d6c3e1b0f', 'detail': 1, 'uid': '2a7a25ec426cfc1d6c3e1b0f', 'detail_info': {'tag': '交通设施;停车场', 'type': 'life', 'detail_url': 'http://api.map.baidu.com/place/detail?uid=2a7a25ec426cfc1d6c3e1b0f&output=html&source=placeapi_v2', 'image_num': '1', 'children': []}}"
"{'name': '高科花园二三期-停车场', 'location': {'lat': 34.236825, 'lng': 108.899154}, 'address': '高新五路2号斜对面', 'province': '陕西省', 'city': '西安市', 'area': '雁塔区', 'street_id': '2a7a25ec426cfc1d6c3e1b0f', 'detail': 1, 'uid': '2a7a25ec426cfc1d6c3e1b0f', 'detail_info': {'tag': '交通设施;停车场', 'type': 'life', 'detail_url': 'http://api.map.baidu.com/place/detail?uid=2a7a25ec426cfc1d6c3e1b0f&output=html&source=placeapi_v2', 'image_num': '1', 'children': []}}"
内部车库,108.90527639657718,34.230058802589554,da8bd2316428a0f345572618,"{'name': '内部车库', 'location': {'lat': 34.234147, 'lng': 108.916475}, 'address': '科技路150号附近', 'province': '陕西省', 'city': '西安市', 'area': '雁塔区', 'street_id': 'da8bd2316428a0f345572618', 'detail': 1, 'uid': 'da8bd2316428a0f345572618', 'detail_info': {'tag': '交通设施;停车场', 'type': 'life', 'detail_url': 'http://api.map.baidu.com/place/detail?uid=da8bd2316428a0f345572618&output=html&source=placeapi_v2', 'image_num': '1', 'children': []}}"
"{'name': '内部车库', 'location': {'lat': 34.234147, 'lng': 108.916475}, 'address': '科技路150号附近', 'province': '陕西省', 'city': '西安市', 'area': '雁塔区', 'street_id': 'da8bd2316428a0f345572618', 'detail': 1, 'uid': 'da8bd2316428a0f345572618', 'detail_info': {'tag': '交通设施;停车场', 'type': 'life', 'detail_url': 'http://api.map.baidu.com/place/detail?uid=da8bd2316428a0f345572618&output=html&source=placeapi_v2', 'image_num': '1', 'children': []}}"
二十所-地下停车场,108.90380991434586,34.233523659067316,1e9464670ebd39bb2a06ce65,"{'name': '二十所-地下停车场', 'location': {'lat': 34.237601, 'lng': 108.915011}, 'address': '陕西省西安市雁塔区白沙路二十所南福利区附近', 'province': '陕西省', 'city': '西安市', 'area': '雁塔区', 'street_id': '1e9464670ebd39bb2a06ce65', 'telephone': '(029)88786240', 'detail': 1, 'uid': '1e9464670ebd39bb2a06ce65', 'detail_info': {'tag': '交通设施;停车场', 'type': 'life', 'detail_url': 'http://api.map.baidu.com/place/detail?uid=1e9464670ebd39bb2a06ce65&output=html&source=placeapi_v2', 'image_num': '1', 'children': []}}"
"{'name': '二十所-地下停车场', 'location': {'lat': 34.237601, 'lng': 108.915011}, 'address': '陕西省西安市雁塔区白沙路二十所南福利区附近', 'province': '陕西省', 'city': '西安市', 'area': '雁塔区', 'street_id': '1e9464670ebd39bb2a06ce65', 'telephone': '(029)88786240', 'detail': 1, 'uid': '1e9464670ebd39bb2a06ce65', 'detail_info': {'tag': '交通设施;停车场', 'type': 'life', 'detail_url': 'http://api.map.baidu.com/place/detail?uid=1e9464670ebd39bb2a06ce65&output=html&source=placeapi_v2', 'image_num': '1', 'children': []}}"
石围小区-自行车租赁点,108.88549794851423,34.2530543102571,ebf8f6a984997f9811882477,"{'name': '石围小区-自行车租赁点', 'location': {'lat': 34.257148, 'lng': 108.896678}, 'address': '丰庆路与二环路十字向南50米路东石围小区南侧', 'province': '陕西省', 'city': '西安市', 'area': '莲湖区', 'street_id': 'ebf8f6a984997f9811882477', 'detail': 1, 'uid': 'ebf8f6a984997f9811882477', 'detail_info': {'tag': '交通设施;其他', 'type': 'life', 'detail_url': 'http://api.map.baidu.com/place/detail?uid=ebf8f6a984997f9811882477&output=html&source=placeapi_v2', 'image_num': '1', 'comment_num': '1', 'children': []}}"
"{'name': '石围小区-自行车租赁点', 'location': {'lat': 34.257148, 'lng': 108.896678}, 'address': '丰庆路与二环路十字向南50米路东石围小区南侧', 'province': '陕西省', 'city': '西安市', 'area': '莲湖区', 'street_id': 'ebf8f6a984997f9811882477', 'detail': 1, 'uid': 'ebf8f6a984997f9811882477', 'detail_info': {'tag': '交通设施;其他', 'type': 'life', 'detail_url': 'http://api.map.baidu.com/place/detail?uid=ebf8f6a984997f9811882477&output=html&source=placeapi_v2', 'image_num': '1', 'comment_num': '1', 'children': []}}"
环城南路/丰庆路(路口),108.92159905673427,34.25241423485832,e308284842389ebeb34c49f1,"{'name': '环城南路/丰庆路(路口)', 'location': {'lat': 34.256739, 'lng': 108.932745}, 'address': '陕西省西安市碑林区', 'province': '陕西省', 'city': '西安市', 'area': '碑林区', 'street_id': 'e308284842389ebeb34c49f1', 'detail': 1, 'uid': 'e308284842389ebeb34c49f1', 'detail_info': {'tag': '道路;路口', 'type': 'life', 'detail_url': 'http://api.map.baidu.com/place/detail?uid=e308284842389ebeb34c49f1&output=html&source=placeapi_v2', 'image_num': '1', 'children': []}}"
"{'name': '环城南路/丰庆路(路口)', 'location': {'lat': 34.256739, 'lng': 108.932745}, 'address': '陕西省西安市碑林区', 'province': '陕西省', 'city': '西安市', 'area': '碑林区', 'street_id': 'e308284842389ebeb34c49f1', 'detail': 1, 'uid': 'e308284842389ebeb34c49f1', 'detail_info': {'tag': '道路;路口', 'type': 'life', 'detail_url': 'http://api.map.baidu.com/place/detail?uid=e308284842389ebeb34c49f1&output=html&source=placeapi_v2', 'image_num': '1', 'children': []}}"
西开鑫园小区-自行车租赁点,108.88820792752206,34.2705856434895,98dd87f918dc5c2af2193716,"{'name': '西开鑫园小区-自行车租赁点', 'location': {'lat': 34.27466, 'lng': 108.899379}, 'address': '陕西省西安市莲湖区大庆路与西二环路十字向东100米路南', 'province': '陕西省', 'city': '西安市', 'area': '莲湖区', 'street_id': '98dd87f918dc5c2af2193716', 'detail': 1, 'uid': '98dd87f918dc5c2af2193716', 'detail_info': {'tag': '交通设施;其他', 'type': 'life', 'detail_url': 'http://api.map.baidu.com/place/detail?uid=98dd87f918dc5c2af2193716&output=html&source=placeapi_v2', 'image_num': '2', 'comment_num': '1', 'children': []}}"
"{'name': '西开鑫园小区-自行车租赁点', 'location': {'lat': 34.27466, 'lng': 108.899379}, 'address': '陕西省西安市莲湖区大庆路与西二环路十字向东100米路南', 'province': '陕西省', 'city': '西安市', 'area': '莲湖区', 'street_id': '98dd87f918dc5c2af2193716', 'detail': 1, 'uid': '98dd87f918dc5c2af2193716', 'detail_info': {'tag': '交通设施;其他', 'type': 'life', 'detail_url': 'http://api.map.baidu.com/place/detail?uid=98dd87f918dc5c2af2193716&output=html&source=placeapi_v2', 'image_num': '2', 'comment_num': '1', 'children': []}}"
紫玉华园-地下停车场,108.89873303710638,34.259323573126075,8b0d86a61b2e9ebc9868b4b5,"{'name': '紫玉华园-地下停车场', 'location': {'lat': 34.263378, 'lng': 108.909924}, 'address': '丰镐东路130号紫玉华园', 'province': '陕西省', 'city': '西安市', 'area': '莲湖区', 'detail': 1, 'uid': '8b0d86a61b2e9ebc9868b4b5', 'detail_info': {'tag': '交通设施;停车场', 'navi_location': {'lng': 108.91001420128, 'lat': 34.263610166345}, 'type': 'life', 'detail_url': 'http://api.map.baidu.com/place/detail?uid=8b0d86a61b2e9ebc9868b4b5&output=html&source=placeapi_v2', 'image_num': '1', 'children': []}}"
"{'name': '紫玉华园-地下停车场', 'location': {'lat': 34.263378, 'lng': 108.909924}, 'address': '丰镐东路130号紫玉华园', 'province': '陕西省', 'city': '西安市', 'area': '莲湖区', 'detail': 1, 'uid': '8b0d86a61b2e9ebc9868b4b5', 'detail_info': {'tag': '交通设施;停车场', 'navi_location': {'lng': 108.91001420128, 'lat': 34.263610166345}, 'type': 'life', 'detail_url': 'http://api.map.baidu.com/place/detail?uid=8b0d86a61b2e9ebc9868b4b5&output=html&source=placeapi_v2', 'image_num': '1', 'children': []}}"
草阳巷草阳路东段东西两侧停车场,108.90980623443086,34.255589083512966,7fe7a6f40e90a785f72310aa,"{'name': '草阳巷草阳路东段东西两侧停车场', 'location': {'lat': 34.259731, 'lng': 108.920985}, 'address': '陕西省西安市莲湖区草阳巷萃园小区旁(草阳小区东北)', 'province': '陕西省', 'city': '西安市', 'area': '莲湖区', 'street_id': '7fe7a6f40e90a785f72310aa', 'detail': 1, 'uid': '7fe7a6f40e90a785f72310aa', 'detail_info': {'tag': '交通设施;停车场', 'type': 'life', 'detail_url': 'http://api.map.baidu.com/place/detail?uid=7fe7a6f40e90a785f72310aa&output=html&source=placeapi_v2', 'image_num': '1', 'children': []}}"
"{'name': '草阳巷草阳路东段东西两侧停车场', 'location': {'lat': 34.259731, 'lng': 108.920985}, 'address': '陕西省西安市莲湖区草阳巷萃园小区旁(草阳小区东北)', 'province': '陕西省', 'city': '西安市', 'area': '莲湖区', 'street_id': '7fe7a6f40e90a785f72310aa', 'detail': 1, 'uid': '7fe7a6f40e90a785f72310aa', 'detail_info': {'tag': '交通设施;停车场', 'type': 'life', 'detail_url': 'http://api.map.baidu.com/place/detail?uid=7fe7a6f40e90a785f72310aa&output=html&source=placeapi_v2', 'image_num': '1', 'children': []}}"
枫叶北路与高新二路交叉口,108.89449271678336,34.233927979448836,84a6977bce93fbbc41d63e3c,"{'name': '枫叶北路与高新二路交叉口', 'location': {'lat': 34.237973, 'lng': 108.905697}, 'address': '西安市雁塔区高新二路', 'province': '陕西省', 'city': '西安市', 'area': '雁塔区', 'street_id': '84a6977bce93fbbc41d63e3c', 'detail': 1, 'uid': '84a6977bce93fbbc41d63e3c', 'detail_info': {'tag': '道路;路口', 'type': 'life', 'detail_url': 'http://api.map.baidu.com/place/detail?uid=84a6977bce93fbbc41d63e3c&output=html&source=placeapi_v2', 'image_num': '1', 'children': []}}"
"{'name': '枫叶北路与高新二路交叉口', 'location': {'lat': 34.237973, 'lng': 108.905697}, 'address': '西安市雁塔区高新二路', 'province': '陕西省', 'city': '西安市', 'area': '雁塔区', 'street_id': '84a6977bce93fbbc41d63e3c', 'detail': 1, 'uid': '84a6977bce93fbbc41d63e3c', 'detail_info': {'tag': '道路;路口', 'type': 'life', 'detail_url': 'http://api.map.baidu.com/place/detail?uid=84a6977bce93fbbc41d63e3c&output=html&source=placeapi_v2', 'image_num': '1', 'children': []}}"
碑林区政府B自行车租赁点,108.92838027522579,34.23196309734619,4decdc5d4efe98a52a201abd,"{'name': '碑林区政府B自行车租赁点', 'location': {'lat': 34.236407, 'lng': 108.939513}, 'address': '区政府大门西侧', 'province': '陕西省', 'city': '西安市', 'area': '碑林区', 'street_id': '4decdc5d4efe98a52a201abd', 'detail': 1, 'uid': '4decdc5d4efe98a52a201abd', 'detail_info': {'tag': '交通设施;其他', 'type': 'life', 'detail_url': 'http://api.map.baidu.com/place/detail?uid=4decdc5d4efe98a52a201abd&output=html&source=placeapi_v2', 'image_num': '1', 'children': []}}"
"{'name': '碑林区政府B自行车租赁点', 'location': {'lat': 34.236407, 'lng': 108.939513}, 'address': '区政府大门西侧', 'province': '陕西省', 'city': '西安市', 'area': '碑林区', 'street_id': '4decdc5d4efe98a52a201abd', 'detail': 1, 'uid': '4decdc5d4efe98a52a201abd', 'detail_info': {'tag': '交通设施;其他', 'type': 'life', 'detail_url': 'http://api.map.baidu.com/place/detail?uid=4decdc5d4efe98a52a201abd&output=html&source=placeapi_v2', 'image_num': '1', 'children': []}}"
新鲜快捷酒店-停车场,108.88692627880877,34.269929522914,13b978d31ba8b426ac0457aa,"{'name': '新鲜快捷酒店-停车场', 'location': {'lat': 34.274013, 'lng': 108.898095}, 'address': '西二环路305号', 'province': '陕西省', 'city': '西安市', 'area': '莲湖区', 'street_id': '13b978d31ba8b426ac0457aa', 'detail': 1, 'uid': '13b978d31ba8b426ac0457aa', 'detail_info': {'tag': '交通设施;停车场', 'navi_location': {'lng': 108.89791473033, 'lat': 34.274037101797}, 'type': 'life', 'detail_url': 'http://api.map.baidu.com/place/detail?uid=13b978d31ba8b426ac0457aa&output=html&source=placeapi_v2', 'image_num': '19', 'comment_num': '7', 'children': []}}"
"{'name': '新鲜快捷酒店-停车场', 'location': {'lat': 34.274013, 'lng': 108.898095},