华清远见(西安分中心),108.8995336066507,34.23807901468797,0adc5b322ff91e212cb17ef9,"{'name': '华清远见(西安分中心)', 'location': {'lat': 34.242133, 'lng': 108.910738}, 'address': '西安市高新区光华路和高新一路交汇口高新一路12号天公大厦五层(和颐酒店对面)', 'province': '陕西省', 'city': '西安市', 'area': '雁塔区', 'street_id': '0adc5b322ff91e212cb17ef9', 'detail': 1, 'uid': '0adc5b322ff91e212cb17ef9', 'detail_info': {'tag': '教育培训;培训机构', 'navi_location': {'lng': 108.91102712877, 'lat': 34.242375822798}, 'type': 'education', 'detail_url': 'http://api.map.baidu.com/place/detail?uid=0adc5b322ff91e212cb17ef9&output=html&source=placeapi_v2', 'price': '0.0', 'children': []}}"
"{'name': '华清远见(西安分中心)', 'location': {'lat': 34.242133, 'lng': 108.910738}, 'address': '西安市高新区光华路和高新一路交汇口高新一路12号天公大厦五层(和颐酒店对面)', 'province': '陕西省', 'city': '西安市', 'area': '雁塔区', 'street_id': '0adc5b322ff91e212cb17ef9', 'detail': 1, 'uid': '0adc5b322ff91e212cb17ef9', 'detail_info': {'tag': '教育培训;培训机构', 'navi_location': {'lng': 108.91102712877, 'lat': 34.242375822798}, 'type': 'education', 'detail_url': 'http://api.map.baidu.com/place/detail?uid=0adc5b322ff91e212cb17ef9&output=html&source=placeapi_v2', 'price': '0.0', 'children': []}}"
陕西圣经学校,108.87350794420877,34.23609775910207,56f2f69666b8c8800aa8d46a,"{'name': '陕西圣经学校', 'location': {'lat': 34.240346, 'lng': 108.884653}, 'address': '高新六路5号', 'province': '陕西省', 'city': '西安市', 'area': '雁塔区', 'street_id': '56f2f69666b8c8800aa8d46a', 'telephone': '(029)88514778', 'detail': 1, 'uid': '56f2f69666b8c8800aa8d46a', 'detail_info': {'tag': '教育培训;培训机构', 'navi_location': {'lng': 108.88390609427, 'lat': 34.240421257444}, 'type': 'education', 'detail_url': 'http://api.map.baidu.com/place/detail?uid=56f2f69666b8c8800aa8d46a&output=html&source=placeapi_v2', 'overall_rating': '0.0', 'comment_num': '1', 'children': []}}"
"{'name': '陕西圣经学校', 'location': {'lat': 34.240346, 'lng': 108.884653}, 'address': '高新六路5号', 'province': '陕西省', 'city': '西安市', 'area': '雁塔区', 'street_id': '56f2f69666b8c8800aa8d46a', 'telephone': '(029)88514778', 'detail': 1, 'uid': '56f2f69666b8c8800aa8d46a', 'detail_info': {'tag': '教育培训;培训机构', 'navi_location': {'lng': 108.88390609427, 'lat': 34.240421257444}, 'type': 'education', 'detail_url': 'http://api.map.baidu.com/place/detail?uid=56f2f69666b8c8800aa8d46a&output=html&source=placeapi_v2', 'overall_rating': '0.0', 'comment_num': '1', 'children': []}}"
中交第二公路工程局有限公司职工培训中心,108.91790906086564,34.2214282547262,75036835dcd502af5e0d0272,"{'name': '中交第二公路工程局有限公司职工培训中心', 'location': {'lat': 34.22568, 'lng': 108.929072}, 'address': '丁白路96', 'province': '陕西省', 'city': '西安市', 'area': '雁塔区', 'street_id': '75036835dcd502af5e0d0272', 'detail': 1, 'uid': '75036835dcd502af5e0d0272', 'detail_info': {'tag': '教育培训;培训机构', 'type': 'education', 'detail_url': 'http://api.map.baidu.com/place/detail?uid=75036835dcd502af5e0d0272&output=html&source=placeapi_v2', 'overall_rating': '5.0', 'comment_num': '1', 'children': []}}"
"{'name': '中交第二公路工程局有限公司职工培训中心', 'location': {'lat': 34.22568, 'lng': 108.929072}, 'address': '丁白路96', 'province': '陕西省', 'city': '西安市', 'area': '雁塔区', 'street_id': '75036835dcd502af5e0d0272', 'detail': 1, 'uid': '75036835dcd502af5e0d0272', 'detail_info': {'tag': '教育培训;培训机构', 'type': 'education', 'detail_url': 'http://api.map.baidu.com/place/detail?uid=75036835dcd502af5e0d0272&output=html&source=placeapi_v2', 'overall_rating': '5.0', 'comment_num': '1', 'children': []}}"
西安国际学校,108.89978559155867,34.19654513967803,e93761f6ca653a71223bf208,"{'name': '西安国际学校', 'location': {'lat': 34.200578, 'lng': 108.910963}, 'address': '子午大道北段5号', 'province': '陕西省', 'city': '西安市', 'area': '雁塔区', 'street_id': 'e93761f6ca653a71223bf208', 'detail': 1, 'uid': 'e93761f6ca653a71223bf208', 'detail_info': {'tag': '教育培训;培训机构', 'navi_location': {'lng': 108.91113211014, 'lat': 34.201037057785}, 'type': 'education', 'detail_url': 'http://api.map.baidu.com/place/detail?uid=e93761f6ca653a71223bf208&output=html&source=placeapi_v2', 'overall_rating': '5.0', 'comment_num': '3', 'children': []}}"
"{'name': '西安国际学校', 'location': {'lat': 34.200578, 'lng': 108.910963}, 'address': '子午大道北段5号', 'province': '陕西省', 'city': '西安市', 'area': '雁塔区', 'street_id': 'e93761f6ca653a71223bf208', 'detail': 1, 'uid': 'e93761f6ca653a71223bf208', 'detail_info': {'tag': '教育培训;培训机构', 'navi_location': {'lng': 108.91113211014, 'lat': 34.201037057785}, 'type': 'education', 'detail_url': 'http://api.map.baidu.com/place/detail?uid=e93761f6ca653a71223bf208&output=html&source=placeapi_v2', 'overall_rating': '5.0', 'comment_num': '3', 'children': []}}"
西安英伦外国语培训学校,108.93842978734781,34.270464243915605,f60a15eddd1daeefbb17e7cf,"{'name': '西安英伦外国语培训学校', 'location': {'lat': 34.275085, 'lng': 108.949515}, 'address': '西安市大莲花池街65号', 'province': '陕西省', 'city': '西安市', 'area': '莲湖区', 'street_id': 'f60a15eddd1daeefbb17e7cf', 'telephone': '(029)87336030,(029)87336031,18691025601', 'detail': 1, 'uid': 'f60a15eddd1daeefbb17e7cf', 'detail_info': {'tag': '教育培训;培训机构', 'navi_location': {'lng': 108.94940274016, 'lat': 34.275031744461}, 'type': 'education', 'detail_url': 'http://api.map.baidu.com/place/detail?uid=f60a15eddd1daeefbb17e7cf&output=html&source=placeapi_v2', 'overall_rating': '5.0', 'comment_num': '2', 'children': []}}"
"{'name': '西安英伦外国语培训学校', 'location': {'lat': 34.275085, 'lng': 108.949515}, 'address': '西安市大莲花池街65号', 'province': '陕西省', 'city': '西安市', 'area': '莲湖区', 'street_id': 'f60a15eddd1daeefbb17e7cf', 'telephone': '(029)87336030,(029)87336031,18691025601', 'detail': 1, 'uid': 'f60a15eddd1daeefbb17e7cf', 'detail_info': {'tag': '教育培训;培训机构', 'navi_location': {'lng': 108.94940274016, 'lat': 34.275031744461}, 'type': 'education', 'detail_url': 'http://api.map.baidu.com/place/detail?uid=f60a15eddd1daeefbb17e7cf&output=html&source=placeapi_v2', 'overall_rating': '5.0', 'comment_num': '2', 'children': []}}"
西安市交通安全教育职业学校南区驾校,108.9256182368493,34.20815538933573,bb1d38e4b14df74d0c0a706a,"{'name': '西安市交通安全教育职业学校南区驾校', 'location': {'lat': 34.212536, 'lng': 108.936745}, 'address': '东仪路19号', 'province': '陕西省', 'city': '西安市', 'area': '雁塔区', 'street_id': 'bb1d38e4b14df74d0c0a706a', 'telephone': '(029)88211654', 'detail': 1, 'uid': 'bb1d38e4b14df74d0c0a706a', 'detail_info': {'tag': '教育培训;培训机构', 'type': 'education', 'detail_url': 'http://api.map.baidu.com/place/detail?uid=bb1d38e4b14df74d0c0a706a&output=html&source=placeapi_v2', 'overall_rating': '5.0', 'comment_num': '1', 'children': []}}"
"{'name': '西安市交通安全教育职业学校南区驾校', 'location': {'lat': 34.212536, 'lng': 108.936745}, 'address': '东仪路19号', 'province': '陕西省', 'city': '西安市', 'area': '雁塔区', 'street_id': 'bb1d38e4b14df74d0c0a706a', 'telephone': '(029)88211654', 'detail': 1, 'uid': 'bb1d38e4b14df74d0c0a706a', 'detail_info': {'tag': '教育培训;培训机构', 'type': 'education', 'detail_url': 'http://api.map.baidu.com/place/detail?uid=bb1d38e4b14df74d0c0a706a&output=html&source=placeapi_v2', 'overall_rating': '5.0', 'comment_num': '1', 'children': []}}"
黑马艺术基地美术培训学校,108.92747358471091,34.217539518135354,aae95c28f210d916afee7a8f,"{'name': '黑马艺术基地美术培训学校', 'location': {'lat': 34.22196, 'lng': 108.938603}, 'address': '含光南路罗家寨98号南1楼', 'province': '陕西省', 'city': '西安市', 'area': '雁塔区', 'street_id': '831cdeff10cff8b7e5e96594', 'detail': 1, 'uid': 'aae95c28f210d916afee7a8f', 'detail_info': {'tag': '教育培训;培训机构', 'navi_location': {'lng': 108.93849245503, 'lat': 34.221958445436}, 'type': 'education', 'detail_url': 'http://api.map.baidu.com/place/detail?uid=aae95c28f210d916afee7a8f&output=html&source=placeapi_v2', 'price': '100.0', 'overall_rating': '5.0', 'comment_num': '1', 'children': []}}"
"{'name': '黑马艺术基地美术培训学校', 'location': {'lat': 34.22196, 'lng': 108.938603}, 'address': '含光南路罗家寨98号南1楼', 'province': '陕西省', 'city': '西安市', 'area': '雁塔区', 'street_id': '831cdeff10cff8b7e5e96594', 'detail': 1, 'uid': 'aae95c28f210d916afee7a8f', 'detail_info': {'tag': '教育培训;培训机构', 'navi_location': {'lng': 108.93849245503, 'lat': 34.221958445436}, 'type': 'education', 'detail_url': 'http://api.map.baidu.com/place/detail?uid=aae95c28f210d916afee7a8f&output=html&source=placeapi_v2', 'price': '100.0', 'overall_rating': '5.0', 'comment_num': '1', 'children': []}}"
EF英孚教育英语培训中心,108.899474050398,34.23369458655763,7cd29a6aae646948b020a8d0,"{'name': 'EF英孚教育英语培训中心', 'location': {'lat': 34.237747, 'lng': 108.910679}, 'address': '高新区科技路33号高新国际商务中心22楼2205-2206单元', 'province': '陕西省', 'city': '西安市', 'area': '雁塔区', 'street_id': '7cd29a6aae646948b020a8d0', 'telephone': '4001188433', 'detail': 1, 'uid': '7cd29a6aae646948b020a8d0', 'detail_info': {'tag': '教育培训;培训机构', 'navi_location': {'lng': 108.91059046246, 'lat': 34.237481330008}, 'type': 'education', 'detail_url': 'http://api.map.baidu.com/place/detail?uid=7cd29a6aae646948b020a8d0&output=html&source=placeapi_v2', 'price': '0.0', 'overall_rating': '2.3', 'comment_num': '2', 'children': []}}"
"{'name': 'EF英孚教育英语培训中心', 'location': {'lat': 34.237747, 'lng': 108.910679}, 'address': '高新区科技路33号高新国际商务中心22楼2205-2206单元', 'province': '陕西省', 'city': '西安市', 'area': '雁塔区', 'street_id': '7cd29a6aae646948b020a8d0', 'telephone': '4001188433', 'detail': 1, 'uid': '7cd29a6aae646948b020a8d0', 'detail_info': {'tag': '教育培训;培训机构', 'navi_location': {'lng': 108.91059046246, 'lat': 34.237481330008}, 'type': 'education', 'detail_url': 'http://api.map.baidu.com/place/detail?uid=7cd29a6aae646948b020a8d0&output=html&source=placeapi_v2', 'price': '0.0', 'overall_rating': '2.3', 'comment_num': '2', 'children': []}}"
西安中国画院,108.92659289178297,34.23094419598192,1020060fdd1f50a61894c654,"{'name': '西安中国画院', 'location': {'lat': 34.235355, 'lng': 108.937731}, 'address': '陕西省西安市雁塔区含光南路296号', 'province': '陕西省', 'city': '西安市', 'area': '雁塔区', 'street_id': '1020060fdd1f50a61894c654', 'telephone': '(029)88221057', 'detail': 1, 'uid': '1020060fdd1f50a61894c654', 'detail_info': {'tag': '教育培训;培训机构', 'navi_location': {'lng': 108.93835118571, 'lat': 34.235566497668}, 'type': 'education', 'detail_url': 'http://api.map.baidu.com/place/detail?uid=1020060fdd1f50a61894c654&output=html&source=placeapi_v2', 'children': []}}"
"{'name': '西安中国画院', 'location': {'lat': 34.235355, 'lng': 108.937731}, 'address': '陕西省西安市雁塔区含光南路296号', 'province': '陕西省', 'city': '西安市', 'area': '雁塔区', 'street_id': '1020060fdd1f50a61894c654', 'telephone': '(029)88221057', 'detail': 1, 'uid': '1020060fdd1f50a61894c654', 'detail_info': {'tag': '教育培训;培训机构', 'navi_location': {'lng': 108.93835118571, 'lat': 34.235566497668}, 'type': 'education', 'detail_url': 'http://api.map.baidu.com/place/detail?uid=1020060fdd1f50a61894c654&output=html&source=placeapi_v2', 'children': []}}"
陕西省关中职业技能培训学校,108.81742069345586,34.22543775504361,89fd4ea3d693a047e5e96542,"{'name': '陕西省关中职业技能培训学校', 'location': {'lat': 34.230099, 'lng': 108.828537}, 'address': '鱼斗路附近', 'province': '陕西省', 'city': '西安市', 'area': '雁塔区', 'street_id': '89fd4ea3d693a047e5e96542', 'detail': 1, 'uid': '89fd4ea3d693a047e5e96542', 'detail_info': {'tag': '教育培训;培训机构', 'navi_location': {'lng': 108.8284228653, 'lat': 34.229932122712}, 'type': 'education', 'detail_url': 'http://api.map.baidu.com/place/detail?uid=89fd4ea3d693a047e5e96542&output=html&source=placeapi_v2', 'overall_rating': '5.0', 'comment_num': '1', 'children': []}}"
"{'name': '陕西省关中职业技能培训学校', 'location': {'lat': 34.230099, 'lng': 108.828537}, 'address': '鱼斗路附近', 'province': '陕西省', 'city': '西安市', 'area': '雁塔区', 'street_id': '89fd4ea3d693a047e5e96542', 'detail': 1, 'uid': '89fd4ea3d693a047e5e96542', 'detail_info': {'tag': '教育培训;培训机构', 'navi_location': {'lng': 108.8284228653, 'lat': 34.229932122712}, 'type': 'education', 'detail_url': 'http://api.map.baidu.com/place/detail?uid=89fd4ea3d693a047e5e96542&output=html&source=placeapi_v2', 'overall_rating': '5.0', 'comment_num': '1', 'children': []}}"
延长石油安全培训中心,108.90057243200714,34.23905124454209,eb250f3df1351371240bd055,"{'name': '延长石油安全培训中心', 'location': {'lat': 34.24311, 'lng': 108.911776}, 'address': '光泰路1号', 'province': '陕西省', 'city': '西安市', 'area': '雁塔区', 'street_id': 'eb250f3df1351371240bd055', 'detail': 1, 'uid': 'eb250f3df1351371240bd055', 'detail_info': {'tag': '教育培训;培训机构', 'type': 'education', 'detail_url': 'http://api.map.baidu.com/place/detail?uid=eb250f3df1351371240bd055&output=html&source=placeapi_v2', 'overall_rating': '5.0', 'comment_num': '2', 'children': []}}"
"{'name': '延长石油安全培训中心', 'location': {'lat': 34.24311, 'lng': 108.911776}, 'address': '光泰路1号', 'province': '陕西省', 'city': '西安市', 'area': '雁塔区', 'street_id': 'eb250f3df1351371240bd055', 'detail': 1, 'uid': 'eb250f3df1351371240bd055', 'detail_info': {'tag': '教育培训;培训机构', 'type': 'education', 'detail_url': 'http://api.map.baidu.com/place/detail?uid=eb250f3df1351371240bd055&output=html&source=placeapi_v2', 'overall_rating': '5.0', 'comment_num': '2', 'children': []}}"
西安远东仁民高考补习学校,108.86092721183259,34.234436600838336,3f7fedfe23486fdd5fbe86ac,"{'name': '西安远东仁民高考补习学校', 'location': {'lat': 34.23891, 'lng': 108.872016}, 'address': '陕西省西安市雁塔区鱼化寨鱼斗路36号(西安外事学院南校区西侧)', 'province': '陕西省', 'city': '西安市', 'area': '雁塔区', 'street_id': '3f7fedfe23486fdd5fbe86ac', 'detail': 1, 'uid': '3f7fedfe23486fdd5fbe86ac', 'detail_info': {'tag': '教育培训;培训机构', 'navi_location': {'lng': 108.87201388486, 'lat': 34.239577859752}, 'type': 'education', 'detail_url': 'http://api.map.baidu.com/place/detail?uid=3f7fedfe23486fdd5fbe86ac&output=html&source=placeapi_v2', 'overall_rating': '5.0', 'comment_num': '1', 'children': []}}"
"{'name': '西安远东仁民高考补习学校', 'location': {'lat': 34.23891, 'lng': 108.872016}, 'address': '陕西省西安市雁塔区鱼化寨鱼斗路36号(西安外事学院南校区西侧)', 'province': '陕西省', 'city': '西安市', 'area': '雁塔区', 'street_id': '3f7fedfe23486fdd5fbe86ac', 'detail': 1, 'uid': '3f7fedfe23486fdd5fbe86ac', 'detail_info': {'tag': '教育培训;培训机构', 'navi_location': {'lng': 108.87201388486, 'lat': 34.239577859752}, 'type': 'education', 'detail_url': 'http://api.map.baidu.com/place/detail?uid=3f7fedfe23486fdd5fbe86ac&output=html&source=placeapi_v2', 'overall_rating': '5.0', 'comment_num': '1', 'children': []}}"
西安交通大学-启德书院,108.93325719227191,34.21649453917747,c476efe102ad685d902ca394,"{'name': '西安交通大学-启德书院', 'location': {'lat': 34.221018, 'lng': 108.94437}, 'address': '朱雀大街205号', 'province': '陕西省', 'city': '西安市', 'area': '雁塔区', 'street_id': 'c476efe102ad685d902ca394', 'telephone': '(029)82655078', 'detail': 1, 'uid': 'c476efe102ad685d902ca394', 'detail_info': {'tag': '教育培训;培训机构', 'type': 'education', 'detail_url': 'http://api.map.baidu.com/place/detail?uid=c476efe102ad685d902ca394&output=html&source=placeapi_v2', 'overall_rating': '5.0', 'children': []}}"
"{'name': '西安交通大学-启德书院', 'location': {'lat': 34.221018, 'lng': 108.94437}, 'address': '朱雀大街205号', 'province': '陕西省', 'city': '西安市', 'area': '雁塔区', 'street_id': 'c476efe102ad685d902ca394', 'telephone': '(029)82655078', 'detail': 1, 'uid': 'c476efe102ad685d902ca394', 'detail_info': {'tag': '教育培训;培训机构', 'type': 'education', 'detail_url': 'http://api.map.baidu.com/place/detail?uid=c476efe102ad685d902ca394&output=html&source=placeapi_v2', 'overall_rating': '5.0', 'children': []}}"
西安丹青易考培训中心,108.92747351747636,34.217629467570966,7d5f3a0a4d1d43482cb90802,"{'name': '西安丹青易考培训中心', 'location': {'lat': 34.22205, 'lng': 108.938603}, 'address': '含光南路98号罗家寨北1楼', 'province': '陕西省', 'city': '西安市', 'area': '雁塔区', 'street_id': '7d5f3a0a4d1d43482cb90802', 'telephone': '(029)88395771', 'detail': 1, 'uid': '7d5f3a0a4d1d43482cb90802', 'detail_info': {'tag': '教育培训;培训机构', 'type': 'education', 'detail_url': 'http://api.map.baidu.com/place/detail?uid=7d5f3a0a4d1d43482cb90802&output=html&source=placeapi_v2', 'overall_rating': '5.0', 'comment_num': '1', 'children': []}}"
"{'name': '西安丹青易考培训中心', 'location': {'lat': 34.22205, 'lng': 108.938603}, 'address': '含光南路98号罗家寨北1楼', 'province': '陕西省', 'city': '西安市', 'area': '雁塔区', 'street_id': '7d5f3a0a4d1d43482cb90802', 'telephone': '(029)88395771', 'detail': 1, 'uid': '7d5f3a0a4d1d43482cb90802', 'detail_info': {'tag': '教育培训;培训机构', 'type': 'education', 'detail_url': 'http://api.map.baidu.com/place/detail?uid=7d5f3a0a4d1d43482cb90802&output=html&source=placeapi_v2', 'overall_rating': '5.0', 'comment_num': '1', 'children': []}}"
新东方考研学习中心,108.93218981800254,34.23199568531418,520d9e893d6c517694ec8487,"{'name': '新东方考研学习中心', 'location': {'lat': 34.236508, 'lng': 108.943312}, 'address': '南二环路西段27号', 'province': '陕西省', 'city': '西安市', 'area': '碑林区', 'street_id': '520d9e893d6c517694ec8487', 'detail': 1, 'uid': '520d9e893d6c517694ec8487', 'detail_info': {'tag': '教育培训;培训机构', 'type': 'education', 'detail_url': 'http://api.map.baidu.com/place/detail?uid=520d9e893d6c517694ec8487&output=html&source=placeapi_v2', 'overall_rating': '5.0', 'children': []}}"
"{'name': '新东方考研学习中心', 'location': {'lat': 34.236508, 'lng': 108.943312}, 'address': '南二环路西段27号', 'province': '陕西省', 'city': '西安市', 'area': '碑林区', 'street_id': '520d9e893d6c517694ec8487', 'detail': 1, 'uid': '520d9e893d6c517694ec8487', 'detail_info': {'tag': '教育培训;培训机构', 'type': 'education', 'detail_url': 'http://api.map.baidu.com/place/detail?uid=520d9e893d6c517694ec8487&output=html&source=placeapi_v2', 'overall_rating': '5.0', 'children': []}}"
陕西先通网络技术学校,108.91640419203281,34.225711829594715,52b88f6ef4b6ae58102935de,"{'name': '陕西先通网络技术学校', 'location': {'lat': 34.229941, 'lng': 108.927574}, 'address': '吉祥路179号雁塔世纪商务大厦A座8层', 'province': '陕西省', 'city': '西安市', 'area': '雁塔区', 'street_id': '52b88f6ef4b6ae58102935de', 'detail': 1, 'uid': '52b88f6ef4b6ae58102935de', 'detail_info': {'tag': '教育培训;培训机构', 'type': 'education', 'detail_url': 'http://api.map.baidu.com/place/detail?uid=52b88f6ef4b6ae58102935de&output=html&source=placeapi_v2', 'price': '0.0', 'children': []}}"
"{'name': '陕西先通网络技术学校', 'location': {'lat': 34.229941, 'lng': 108.927574}, 'address': '吉祥路179号雁塔世纪商务大厦A座8层', 'province': '陕西省', 'city': '西安市', 'area': '雁塔区', 'street_id': '52b88f6ef4b6ae58102935de', 'detail': 1, 'uid': '52b88f6ef4b6ae58102935de', 'detail_info': {'tag': '教育培训;培训机构', 'type': 'education', 'detail_url': 'http://api.map.baidu.com/place/detail?uid=52b88f6ef4b6ae58102935de&output=html&source=placeapi_v2', 'price': '0.0', 'children': []}}"
西安社会科学培训学校,108.93175334995126,34.2194531275551,c3382ea01a6ff645c51b75ec,"{'name': '西安社会科学培训学校', 'location': {'lat': 34.223952, 'lng': 108.942872}, 'address': '西安市雁塔区雁塔西路158号', 'province': '陕西省', 'city': '西安市', 'area': '雁塔区', 'street_id': 'c3382ea01a6ff645c51b75ec', 'detail': 1, 'uid': 'c3382ea01a6ff645c51b75ec', 'detail_info': {'tag': '教育培训;培训机构', 'type': 'education', 'detail_url': 'http://api.map.baidu.com/place/detail?uid=c3382ea01a6ff645c51b75ec&output=html&source=placeapi_v2', 'overall_rating': '5.0', 'comment_num': '1', 'children': []}}"
"{'name': '西安社会科学培训学校', 'location': {'lat': 34.223952, 'lng': 108.942872}, 'address': '西安市雁塔区雁塔西路158号', 'province': '陕西省', 'city': '西安市', 'area': '雁塔区', 'street_id': 'c3382ea01a6ff645c51b75ec', 'detail': 1, 'uid': 'c3382ea01a6ff645c51b75ec', 'detail_info': {'tag': '教育培训;培训机构', 'type': 'education', 'detail_url': 'http://api.map.baidu.com/place/detail?uid=c3382ea01a6ff645c51b75ec&output=html&source=placeapi_v2', 'overall_rating': '5.0', 'comment_num': '1', 'children': []}}"
瑞思学科英语(西安),108.88245853434915,34.246980327391405,f005332c5bbcbd8096ca0797,"{'name': '瑞思学科英语(西安)', 'location': {'lat': 34.251104, 'lng': 108.893634}, 'address': '唐延路北段与大寨路十字华府新桃园2号楼2―3层', 'province': '陕西省', 'city': '西安市', 'area': '雁塔区', 'street_id': 'f005332c5bbcbd8096ca0797', 'telephone': '(029)88856777', 'detail': 1, 'uid': 'f005332c5bbcbd8096ca0797', 'detail_info': {'tag': '教育培训;培训机构', 'type': 'education', 'detail_url': 'http://api.map.baidu.com/place/detail?uid=f005332c5bbcbd8096ca0797&output=html&source=placeapi_v2', 'price': '0.0', 'overall_rating': '5.0', 'children': []}}"
"{'name': '瑞思学科英语(西安)', 'location': {'lat': 34.251104, 'lng': 108.893634}, 'address': '唐延路北段与大寨路十字华府新桃园2号楼2―3层', 'province': '陕西省', 'city': '西安市', 'area': '雁塔区', 'street_id': 'f005332c5bbcbd8096ca0797', 'telephone': '(029)88856777', 'detail': 1, 'uid': 'f005332c5bbcbd8096ca0797', 'detail_info': {'tag': '教育培训;培训机构', 'type': 'education', 'detail_url': 'http://api.map.baidu.com/place/detail?uid=f005332c5bbcbd8096ca0797&output=html&source=placeapi_v2', 'price': '0.0', 'overall_rating': '5.0', 'children': []}}"
西安市工业交通干部学校,108.85302820821329,34.238895276277184,d4034eb3f6232bf7c1364493,"{'name': '西安市工业交通干部学校', 'location': {'lat': 34.243503, 'lng': 108.864087}, 'address': '富鱼路166号', 'province': '陕西省', 'city': '西安市', 'area': '雁塔区', 'street_id': 'd4034eb3f6232bf7c1364493', 'detail': 1, 'uid': 'd4034eb3f6232bf7c1364493', 'detail_info': {'tag': '教育培训;培训机构', 'navi_location': {'lng': 108.86373613254, 'lat': 34.243810313446}, 'type': 'education', 'detail_url': 'http://api.map.baidu.com/place/detail?uid=d4034eb3f6232bf7c1364493&output=html&source=placeapi_v2', 'overall_rating': '5.0', 'comment_num': '1', 'children': []}}"
"{'name': '西安市工业交通干部学校', 'location': {'lat': 34.243503, 'lng': 108.864087}, 'address': '富鱼路166号', 'province': '陕西省', 'city': '西安市', 'area': '雁塔区', 'street_id': 'd4034eb3f6232bf7c1364493', 'detail': 1, 'uid': 'd4034eb3f6232bf7c1364493', 'detail_info': {'tag': '教育培训;培训机构', 'navi_location': {'lng': 108.86373613254, 'lat': 34.243810313446}, 'type': 'education', 'detail_url': 'http://api.map.baidu.com/place/detail?uid=d4034eb3f6232bf7c1364493&output=html&source=placeapi_v2', 'overall_rating': '5.0', 'comment_num': '1', 'children': []}}"
ge中国创新中心,108.86832553004326,34.193382188996466,756a99420d54b01ad23ce3c8,"{'name': 'ge中国创新中心', 'location': {'lat': 34.197698, 'lng': 108.879417}, 'address': '西安市雁塔区锦业1路29号', 'province': '陕西省', 'city': '西安市', 'area': '雁塔区', 'street_id': '1b80f3d9de656b2d2cb96dc4', 'detail': 1, 'uid': '756a99420d54b01ad23ce3c8', 'detail_info': {'tag': '教育培训;培训机构', 'navi_location': {'lng': 108.87941743501, 'lat': 34.19753791111}, 'type': 'education', 'detail_url': 'http://api.map.baidu.com/place/detail?uid=756a99420d54b01ad23ce3c8&output=html&source=placeapi_v2', 'overall_rating': '0.0', 'comment_num': '1', 'children': []}}"
"{'name': 'ge中国创新中心', 'location': {'lat': 34.197698, 'lng': 108.879417}, 'address': '西安市雁塔区锦业1路29号', 'province': '陕西省', 'city': '西安市', 'area': '雁塔区', 'street_id': '1b80f3d9de656b2d2cb96dc4', 'detail': 1, 'uid': '756a99420d54b01ad23ce3c8', 'detail_info': {'tag': '教育培训;培训机构', 'navi_location': {'lng': 108.87941743501, 'lat': 34.19753791111}, 'type': 'education', 'detail_url': 'http://api.map.baidu.com/place/detail?uid=756a99420d54b01ad23ce3c8&output=html&source=placeapi_v2', 'overall_rating': '0.0', 'comment_num': '1', 'children': []}}"
山木培训(土门分校),108.87989057620432,34.260701277119985,78bd50f796ef615b31870a3b,"{'name': '山木培训(土门分校)', 'location': {'lat': 34.264858, 'lng': 108.891046}, 'address': '丰镐西路100号', 'province': '陕西省', 'city': '西安市', 'area': '莲湖区', 'street_id': '78bd50f796ef615b31870a3b', 'telephone': '(029)84250592', 'detail': 1, 'uid': '78bd50f796ef615b31870a3b', 'detail_info': {'tag': '教育培训;培训机构', 'navi_location': {'lng': 108.89125550804, 'lat': 34.265102464507}, 'type': 'education', 'detail_url': 'http://api.map.baidu.com/place/detail?uid=78bd50f796ef615b31870a3b&output=html&source=placeapi_v2', 'overall_rating': '4.3', 'comment_num': '11', 'children': []}}"
"{'name': '山木培训(土门分校)', 'location': {'lat': 34.264858, 'lng': 108.891046}, 'address': '丰镐西路100号', 'province': '陕西省', 'city': '西安市', 'area': '莲湖区', 'street_id': '78bd50f796ef615b31870a3b', 'telephone': '(029)84250592', 'detail': 1, 'uid': '78bd50f796ef615b31870a3b', 'detail_info': {'tag': '教育培训;培训机构', 'navi_location': {'lng': 108.89125550804, 'lat': 34.265102464507}, 'type': 'education', 'detail_url': 'http://api.map.baidu.com/place/detail?uid=78bd50f796ef615b31870a3b&output=html&source=placeapi_v2', 'overall_rating': '4.3', 'comment_num': '11', 'children': []}}"
清华大学附属中学同方多媒体示范学校,108.92091755723868,34.20659045563619,971277c50c9c513d2bd7ab57,"{'name': '清华大学附属中学同方多媒体示范学校', 'location': {'lat': 34.210885, 'lng': 108.932058}, 'address': '东仪路162', 'province': '陕西省', 'city': '西安市', 'area': '雁塔区', 'street_id': '971277c50c9c513d2bd7ab57', 'detail': 1, 'uid': '971277c50c9c513d2bd7ab57', 'detail_info': {'tag': '教育培训;其他', 'navi_location': {'lng': 108.93238620176, 'lat': 34.210920089345}, 'type': 'education', 'detail_url': 'http://api.map.baidu.com/place/detail?uid=971277c50c9c513d2bd7ab57&output=html&source=placeapi_v2', 'overall_rating': '5.0', 'children': []}}"
"{'name': '清华大学附属中学同方多媒体示范学校', 'location': {'lat': 34.210885, 'lng': 108.932058}, 'address': '东仪路162', 'province': '陕西省', 'city': '西安市', 'area': '雁塔区', 'street_id': '971277c50c9c513d2bd7ab57', 'detail': 1, 'uid': '971277c50c9c513d2bd7ab57', 'detail_info': {'tag': '教育培训;其他', 'navi_location': {'lng': 108.93238620176, 'lat': 34.210920089345}, 'type': 'education', 'detail_url': 'http://api.map.baidu.com/place/detail?uid=971277c50c9c513d2bd7ab57&output=html&source=placeapi_v2', 'overall_rating': '5.0', 'children': []}}"
瑞森英语,108.86558668572752,34.17704345718638,05a961fff4bb65ef230262a6,"{'name': '瑞森英语', 'location': {'lat': 34.181401, 'lng': 108.876654}, 'address': '陕西省西安市长安区高新区紫薇田园都市F区商业步行街', 'province': '陕西省', 'city': '西安市', 'area': '长安区', 'street_id': '05a961fff4bb65ef230262a6', 'detail': 1, 'uid': '05a961fff4bb65ef230262a6', 'detail_info': {'tag': '教育培训;培训机构', 'type': 'education', 'detail_url': 'http://api.map.baidu.com/place/detail?uid=05a961fff4bb65ef230262a6&output=html&source=placeapi_v2', 'overall_rating': '5.0', 'comment_num': '2', 'children': []}}"
"{'name': '瑞森英语', 'location': {'lat': 34.181401, 'lng': 108.876654}, 'address': '陕西省西安市长安区高新区紫薇田园都市F区商业步行街', 'province': '陕西省', 'city': '西安市', 'area': '长安区', 'street_id': '05a961fff4bb65ef230262a6', 'detail': 1, 'uid': '05a961fff4bb65ef230262a6', 'detail_info': {'tag': '教育培训;培训机构', 'type': 'education', 'detail_url': 'http://api.map.baidu.com/place/detail?uid=05a961fff4bb65ef230262a6&output=html&source=placeapi_v2', 'overall_rating': '5.0', 'comment_num': '2', 'children': []}}"
庆华驾校,108.85702070836763,34.17692068086439,5ebc93df683823a45abbbc8e,"{'name': '庆华驾校', 'location': {'lat': 34.181432, 'lng': 108.868052}, 'address': '陕西省西安市长安区邓店北锦业四路长安园公寓小区东区', 'province': '陕西省', 'city': '西安市', 'area': '长安区', 'street_id': '5ebc93df683823a45abbbc8e', 'telephone': '(029)68805427,15229331261', 'detail': 1, 'uid': '5ebc93df683823a45abbbc8e', 'detail_info': {'tag': '教育培训;培训机构', 'type': 'education', 'detail_url': 'http://api.map.baidu.com/place/detail?uid=5ebc93df683823a45abbbc8e&output=html&source=placeapi_v2', 'overall_rating': '5.0', 'comment_num': '2', 'children': []}}"
"{'name': '庆华驾校', 'location': {'lat': 34.181432, 'lng': 108.868052}, 'address': '陕西省西安市长安区邓店北锦业四路长安园公寓小区东区', 'province': '陕西省', 'city': '西安市', 'area': '长安区', 'street_id': '5ebc93df683823a45abbbc8e', 'telephone': '(029)68805427,15229331261', 'detail': 1, 'uid': '5ebc93df683823a45abbbc8e', 'detail_info': {'tag': '教育培训;培训机构', 'type': 'education', 'detail_url': 'http://api.map.baidu.com/place/detail?uid=5ebc93df683823a45abbbc8e&output=html&source=placeapi_v2', 'overall_rating': '5.0', 'comment_num': '2', 'children': []}}"
陕西省体育运动学校,108.9348381394796,34.23597696395076,fd13a3f2de43aefbb1077d36,"{'name': '陕西省体育运动学校', 'location': {'lat': 34.240536, 'lng': 108.945954}, 'address': '朱雀大街中段9号', 'province': '陕西省', 'city': '西安市', 'area': '碑林区', 'street_id': 'fd13a3f2de43aefbb1077d36', 'telephone': '(029)85252354,(029)85258455', 'detail': 1, 'uid': 'fd13a3f2de43aefbb1077d36', 'detail_info': {'tag': '教育培训;培训机构', 'navi_location': {'lng': 108.94574169426, 'lat': 34.240388372322}, 'type': 'education', 'detail_url': 'http://api.map.baidu.com/place/detail?uid=fd13a3f2de43aefbb1077d36&output=html&source=placeapi_v2', 'overall_rating': '5.0', 'comment_num': '4', 'children': []}}"
"{'name': '陕西省体育运动学校', 'location': {'lat': 34.240536, 'lng': 108.945954}, 'address': '朱雀大街中段9号', 'province': '陕西省', 'city': '西安市', 'area': '碑林区', 'street_id': 'fd13a3f2de43aefbb1077d36', 'telephone': '(029)85252354,(029)85258455', 'detail': 1, 'uid': 'fd13a3f2de43aefbb1077d36', 'detail_info': {'tag': '教育培训;培训机构', 'navi_location': {'lng': 108.94574169426, 'lat': 34.240388372322}, 'type': 'education', 'detail_url': 'http://api.map.baidu.com/place/detail?uid=fd13a3f2de43aefbb1077d36&output=html&source=placeapi_v2', 'overall_rating': '5.0', 'comment_num': '4', 'children': []}}"
金色雨林(西安分中心),108.8867524144714,34.23807660858707,829236d9b898058b14b54b59,"{'name': '金色雨林(西安分中心)', 'location': {'lat': 34.242157, 'lng': 108.897944}, 'address': '高新区旺座国际城C座底商3楼', 'province': '陕西省', 'city': '西安市', 'area': '雁塔区', 'street_id': '829236d9b898058b14b54b59', 'telephone': '(029)84504636', 'detail': 1, 'uid': '829236d9b898058b14b54b59', 'detail_info': {'tag': '教育培训;培训机构', 'type': 'education', 'detail_url': 'http://api.map.baidu.com/place/detail?uid=829236d9b898058b14b54b59&output=html&source=placeapi_v2', 'price': '0.0', 'children': []}}"
"{'name': '金色雨林(西安分中心)', 'location': {'lat': 34.242157, 'lng': 108.897944}, 'address': '高新区旺座国际城C座底商3楼', 'province': '陕西省', 'city': '西安市', 'area': '雁塔区', 'street_id': '829236d9b898058b14b54b59', 'telephone': '(029)84504636', 'detail': 1, 'uid': '829236d9b898058b14b54b59', 'detail_info': {'tag': '教育培训;培训机构', 'type': 'education', 'detail_url': 'http://api.map.baidu.com/place/detail?uid=829236d9b898058b14b54b59&output=html&source=placeapi_v2', 'price': '0.0', 'children': []}}"
澳洲袋鼠国际早教,108.93166168284269,34.229969755210384,8e99528793421c9621022022,"{'name': '澳洲袋鼠国际早教', 'location': {'lat': 34.234472, 'lng': 108.942785}, 'address': '西安市雁塔区二环南路西段64号凯德广场新地城F5', 'province': '陕西省', 'city': '西安市', 'area': '雁塔区', 'street_id': '8e99528793421c9621022022', 'detail': 1, 'uid': '8e99528793421c9621022022', 'detail_info': {'tag': '教育培训;培训机构', 'indoor_floor': 'F5', 'type': 'education', 'detail_url': 'http://api.map.baidu.com/place/detail?uid=8e99528793421c9621022022&output=html&source=placeapi_v2', 'children': []}}"
"{'name': '澳洲袋鼠国际早教', 'location': {'lat': 34.234472, 'lng': 108.942785}, 'address': '西安市雁塔区二环南路西段64号凯德广场新地城F5', 'province': '陕西省', 'city': '西安市', 'area': '雁塔区', 'street_id': '8e99528793421c9621022022', 'detail': 1, 'uid': '8e99528793421c9621022022', 'detail_info': {'tag': '教育培训;培训机构', 'indoor_floor': 'F5', 'type': 'education', 'detail_url': 'http://api.map.baidu.com/place/detail?uid=8e99528793421c9621022022&output=html&source=placeapi_v2', 'children': []}}"
西安杨健文化教育培训学校(丰镐西路),108.88376707538957,34.261231836458265,108b1cea07209aad3586f41b,"{'name': '西安杨健文化教育培训学校(丰镐西路)', 'location': {'lat': 34.265343, 'lng': 108.894935}, 'address': '丰镐西路7号土门十字西北角庆安宾馆院内', 'province': '陕西省', 'city': '西安市', 'area': '莲湖区', 'street_id': '108b1cea07209aad3586f41b', 'detail': 1, 'uid': '108b1cea07209aad3586f41b', 'detail_info': {'tag': '教育培训;培训机构', 'navi_location': {'lng': 108.89493384363, 'lat': 34.265127478973}, 'type': 'education', 'detail_url': 'http://api.map.baidu.com/place/detail?uid=108b1cea07209aad3586f41b&output=html&source=placeapi_v2', 'overall_rating': '5.0', 'comment_num': '3', 'children': []}}"
"{'name': '西安杨健文化教育培训学校(丰镐西路)', 'location': {'lat': 34.265343, 'lng': 108.894935}, 'address': '丰镐西路7号土门十字西北角庆安宾馆院内', 'province': '陕西省', 'city': '西安市', 'area': '莲湖区', 'street_id': '108b1cea07209aad3586f41b', 'detail': 1, 'uid': '108b1cea07209aad3586f41b', 'detail_info': {'tag': '教育培训;培训机构', 'navi_location': {'lng': 108.89493384363, 'lat': 34.265127478973}, 'type': 'education', 'detail_url': 'http://api.map.baidu.com/place/detail?uid=108b1cea07209aad3586f41b&output=html&source=placeapi_v2', 'overall_rating': '5.0', 'comment_num': '3', 'children': []}}"
英诺津典教育中心,108.90522387723803,34.24604087432016,a7820d52ff1e62b6fb22131e,"{'name': '英诺津典教育中心', 'location': {'lat': 34.250133, 'lng': 108.916419}, 'address': '劳动南路88号第一幢11601号', 'province': '陕西省', 'city': '西安市', 'area': '莲湖区', 'street_id': 'a7820d52ff1e62b6fb22131e', 'detail': 1, 'uid': 'a7820d52ff1e62b6fb22131e', 'detail_info': {'tag': '教育培训;培训机构', 'type': 'education', 'detail_url': 'http://api.map.baidu.com/place/detail?uid=a7820d52ff1e62b6fb22131e&output=html&source=placeapi_v2', 'price': '0.0', 'comment_num': '2', 'children': []}}"
"{'name': '英诺津典教育中心', 'location': {'lat': 34.250133, 'lng': 108.916419}, 'address': '劳动南路88号第一幢11601号', 'province': '陕西省', 'city': '西安市', 'area': '莲湖区', 'street_id': 'a7820d52ff1e62b6fb22131e', 'detail': 1, 'uid': 'a7820d52ff1e62b6fb22131e', 'detail_info': {'tag': '教育培训;培训机构', 'type': 'education', 'detail_url': 'http://api.map.baidu.com/place/detail?uid=a7820d52ff1e62b6fb22131e&output=html&source=placeapi_v2', 'price': '0.0', 'comment_num': '2', 'children': []}}"
西安碑林黑博士培训学校(高新分校),108.90214606805321,34.23551856267565,02e8db59ec516095e812e4ae,"{'name': '西安碑林黑博士培训学校(高新分校)', 'location': {'lat': 34.239585, 'lng': 108.913349}, 'address': '高新路33号新汇大厦B座6层', 'province': '陕西省', 'city': '西安市', 'area': '雁塔区', 'street_id': '02e8db59ec516095e812e4ae', 'detail': 1, 'uid': '02e8db59ec516095e812e4ae', 'detail_info': {'tag': '教育培训;培训机构', 'type': 'education', 'detail_url': 'http://api.map.baidu.com/place/detail?uid=02e8db59ec516095e812e4ae&output=html&source=placeapi_v2', 'overall_rating': '5.0', 'children': []}}"
"{'name': '西安碑林黑博士培训学校(高新分校)', 'location': {'lat': 34.239585, 'lng': 108.913349}, 'address': '高新路33号新汇大厦B座6层', 'province': '陕西省', 'city': '西安市', 'area': '雁塔区', 'street_id': '02e8db59ec516095e812e4ae', 'detail': 1, 'uid': '02e8db59ec516095e812e4ae', 'detail_info': {'tag': '教育培训;培训机构', 'type': 'education', 'detail_url': 'http://api.map.baidu.com/place/detail?uid=02e8db59ec516095e812e4ae&output=html&source=placeapi_v2', 'overall_rating': '5.0', 'children': []}}"
仁和会计培训(高新校区),108.8871175162127,34.237943460422514,49c8f638b9ade9a652e5c584,"{'name': '仁和会计培训(高新校区)', 'location': {'lat': 34.242021, 'lng': 108.89831}, 'address': '唐延路1号旺座国际城D座15层', 'province': '陕西省', 'city': '西安市', 'area': '雁塔区', 'street_id': '49c8f638b9ade9a652e5c584', 'detail': 1, 'uid': '49c8f638b9ade9a652e5c584', 'detail_info': {'tag': '教育培训;培训机构', 'type': 'education', 'detail_url': 'http://api.map.baidu.com/place/detail?uid=49c8f638b9ade9a652e5c584&output=html&source=placeapi_v2', 'price': '0.0', 'children': []}}"
"{'name': '仁和会计培训(高新校区)', 'location': {'lat': 34.242021, 'lng': 108.89831}, 'address': '唐延路1号旺座国际城D座15层', 'province': '陕西省', 'city': '西安市', 'area': '雁塔区', 'street_id': '49c8f638b9ade9a652e5c584', 'detail': 1, 'uid': '49c8f638b9ade9a652e5c584', 'detail_info': {'tag': '教育培训;培训机构', 'type': 'education', 'detail_url': 'http://api.map.baidu.com/place/detail?uid=49c8f638b9ade9a652e5c584&output=html&source=placeapi_v2', 'price': '0.0', 'children': []}}"
佳音英语,108.90503148775389,34.25655433035133,a12baa407296482be956fa83,"{'name': '佳音英语', 'location': {'lat': 34.260646, 'lng': 108.916219}, 'address': '陕西省西安市莲湖区劳动南路240号紫金大厦5层', 'province': '陕西省', 'city': '西安市', 'area': '莲湖区', 'street_id': 'a12baa407296482be956fa83', 'telephone': '(029)82272222', 'detail': 1, 'uid': 'a12baa407296482be956fa83', 'detail_info': {'tag': '教育培训;培训机构', 'type': 'education', 'detail_url': 'http://api.map.baidu.com/place/detail?uid=a12baa407296482be956fa83&output=html&source=placeapi_v2', 'overall_rating': '5.0', 'comment_num': '2', 'children': []}}"
"{'name': '佳音英语', 'location': {'lat': 34.260646, 'lng': 108.916219}, 'address': '陕西省西安市莲湖区劳动南路240号紫金大厦5层', 'province': '陕西省', 'city': '西安市', 'area': '莲湖区', 'street_id': 'a12baa407296482be956fa83', 'telephone': '(029)82272222', 'detail': 1, 'uid': 'a12baa407296482be956fa83', 'detail_info': {'tag': '教育培训;培训机构', 'type': 'education', 'detail_url': 'http://api.map.baidu.com/place/detail?uid=a12baa407296482be956fa83&output=html&source=placeapi_v2', 'overall_rating': '5.0', 'comment_num': '2', 'children': []}}"
博安驾校(丈八北路),108.8674910911165,34.24240459562931,750ec1652c67602b4c3a5942,"{'name': '博安驾校(丈八北路)', 'location': {'lat': 34.24676, 'lng': 108.878607}, 'address': '丈八北路66号', 'province': '陕西省', 'city': '西安市', 'area': '雁塔区', 'street_id': '750ec1652c67602b4c3a5942', 'telephone': '(029)84258412', 'detail': 1, 'uid': '750ec1652c67602b4c3a5942', 'detail_info': {'tag': '教育培训;培训机构', 'navi_location': {'lng': 108.87876311197, 'lat': 34.246747967668}, 'type': 'education', 'detail_url': 'http://api.map.baidu.com/place/detail?uid=750ec1652c67602b4c3a5942&output=html&source=placeapi_v2', 'overall_rating': '4.0', 'comment_num': '3', 'children': []}}"
"{'name': '博安驾校(丈八北路)', 'location': {'lat': 34.24676, 'lng': 108.878607}, 'address': '丈八北路66号', 'province': '陕西省', 'city': '西安市', 'area': '雁塔区', 'street_id': '750ec1652c67602b4c3a5942', 'telephone': '(029)84258412', 'detail': 1, 'uid': '750ec1652c67602b4c3a5942', 'detail_info': {'tag': '教育培训;培训机构', 'navi_location': {'lng': 108.87876311197, 'lat': 34.246747967668}, 'type': 'education', 'detail_url': 'http://api.map.baidu.com/place/detail?uid=750ec1652c67602b4c3a5942&output=html&source=placeapi_v2', 'overall_rating': '4.0', 'comment_num': '3', 'children': []}}"
中交第二公路工程局有限公司技工学校,108.91766316382639,34.221618254237896,4cf8d24e7091ffe49cf7796a,"{'name': '中交第二公路工程局有限公司技工学校', 'location': {'lat': 34.225866, 'lng': 108.928827}, 'address': '丁白路96号', 'province': '陕西省', 'city': '西安市', 'area': '雁塔区', 'street_id': '4cf8d24e7091ffe49cf7796a', 'telephone': '(029)88210144', 'detail': 1, 'uid': '4cf8d24e7091ffe49cf7796a', 'detail_info': {'tag': '教育培训;培训机构', 'navi_location': {'lng': 108.92883697154, 'lat': 34.226020731936}, 'type': 'education', 'detail_url': 'http://api.map.baidu.com/place/detail?uid=4cf8d24e7091ffe49cf7796a&output=html&source=placeapi_v2', 'overall_rating': '5.0', 'comment_num': '1', 'children': []}}"
"{'name': '中交第二公路工程局有限公司技工学校', 'location': {'lat': 34.225866, 'lng': 108.928827}, 'address': '丁白路96号', 'province': '陕西省', 'city': '西安市', 'area': '雁塔区', 'street_id': '4cf8d24e7091ffe49cf7796a', 'telephone': '(029)88210144', 'detail': 1, 'uid': '4cf8d24e7091ffe49cf7796a', 'detail_info': {'tag': '教育培训;培训机构', 'navi_location': {'lng': 108.92883697154, 'lat': 34.226020731936}, 'type': 'education', 'detail_url': 'http://api.map.baidu.com/place/detail?uid=4cf8d24e7091ffe49cf7796a&output=html&source=placeapi_v2', 'overall_rating': '5.0', 'comment_num': '1', 'children': []}}"
汉普森英语(钟楼学习中心),108.93937856094811,34.271187084881824,a3a2a19b3ddc57e815a1909f,"{'name': '汉普森英语(钟楼学习中心)', 'location': {'lat': 34.275822, 'lng': 108.950462}, 'address': '陕西省西安市莲湖区莲湖路36号', 'province': '陕西省', 'city': '西安市', 'area': '莲湖区', 'street_id': 'a3a2a19b3ddc57e815a1909f', 'detail': 1, 'uid': 'a3a2a19b3ddc57e815a1909f', 'detail_info': {'tag': '教育培训;培训机构', 'type': 'education', 'detail_url': 'http://api.map.baidu.com/place/detail?uid=a3a2a19b3ddc57e815a1909f&output=html&source=placeapi_v2', 'price': '0.0', 'overall_rating': '5.0', 'comment_num': '1', 'children': []}}"
"{'name': '汉普森英语(钟楼学习中心)', 'location': {'lat': 34.275822, 'lng': 108.950462}, 'address': '陕西省西安市莲湖区莲湖路36号', 'province': '陕西省', 'city': '西安市', 'area': '莲湖区', 'street_id': 'a3a2a19b3ddc57e815a1909f', 'detail': 1, 'uid': 'a3a2a19b3ddc57e815a1909f', 'detail_info': {'tag': '教育培训;培训机构', 'type': 'education', 'detail_url': 'http://api.map.baidu.com/place/detail?uid=a3a2a19b3ddc57e815a1909f&output=html&source=placeapi_v2', 'price': '0.0', 'overall_rating': '5.0', 'comment_num': '1', 'children': []}}"
西安软件服务外包学院,108.87869357928649,34.22655779954037,fd968156b2b106df09a8d426,"{'name': '西安软件服务外包学院', 'location': {'lat': 34.230723, 'lng': 108.889859}, 'address': '陕西省西安市雁塔区西安软件园秦风阁C座C101/E座101~103', 'province': '陕西省', 'city': '西安市', 'area': '雁塔区', 'street_id': 'fd968156b2b106df09a8d426', 'detail': 1, 'uid': 'fd968156b2b106df09a8d426', 'detail_info': {'tag': '教育培训;培训机构', 'navi_location': {'lng': 108.88972637108, 'lat': 34.230921479659}, 'type': 'education', 'detail_url': 'http://api.map.baidu.com/place/detail?uid=fd968156b2b106df09a8d426&output=html&source=placeapi_v2', 'overall_rating': '5.0', 'comment_num': '1', 'children': []}}"
"{'name': '西安软件服务外包学院', 'location': {'lat': 34.230723, 'lng': 108.889859}, 'address': '陕西省西安市雁塔区西安软件园秦风阁C座C101/E座101~103', 'province': '陕西省', 'city': '西安市', 'area': '雁塔区', 'street_id': 'fd968156b2b106df09a8d426', 'detail': 1, 'uid': 'fd968156b2b106df09a8d426', 'detail_info': {'tag': '教育培训;培训机构', 'navi_location': {'lng': 108.88972637108, 'lat': 34.230921479659}, 'type': 'education', 'detail_url': 'http://api.map.baidu.com/place/detail?uid=fd968156b2b106df09a8d426&output=html&source=placeapi_v2', 'overall_rating': '5.0', 'comment_num': '1', 'children': []}}"
西安龙泽教育培训中心,108.93800136145434,34.273304382414594,0acc1941f2ac3c1140e192d1,"{'name': '西安龙泽教育培训中心', 'location': {'lat': 34.277919, 'lng': 108.949085}, 'address': '青年路立新街18号立新大厦3层', 'province': '陕西省', 'city': '西安市', 'area': '莲湖区', 'street_id': '0acc1941f2ac3c1140e192d1', 'detail': 1, 'uid': '0acc1941f2ac3c1140e192d1', 'detail_info': {'tag': '教育培训;培训机构', 'type': 'education', 'detail_url': 'http://api.map.baidu.com/place/detail?uid=0acc1941f2ac3c1140e192d1&output=html&source=placeapi_v2', 'overall_rating': '5.0', 'comment_num': '3', 'children': []}}"
"{'name': '西安龙泽教育培训中心', 'location': {'lat': 34.277919, 'lng': 108.949085}, 'address': '青年路立新街18号立新大厦3层', 'province': '陕西省', 'city': '西安市', 'area': '莲湖区', 'street_id': '0acc1941f2ac3c1140e192d1', 'detail': 1, 'uid': '0acc1941f2ac3c1140e192d1', 'detail_info': {'tag': '教育培训;培训机构', 'type': 'education', 'detail_url': 'http://api.map.baidu.com/place/detail?uid=0acc1941f2ac3c1140e192d1&output=html&source=placeapi_v2', 'overall_rating': '5.0', 'comment_num': '3', 'children': []}}"
恒通驾校,108.78635103054057,34.23258550290347,6824fa01f1c668056fc02c5b,"{'name': '恒通驾校', 'location': {'lat': 34.236837, 'lng': 108.797661}, 'address': '南丰村附近', 'province': '陕西省', 'city': '西安市', 'area': '长安区', 'street_id': '6824fa01f1c668056fc02c5b', 'detail': 1, 'uid': '6824fa01f1c668056fc02c5b', 'detail_info': {'tag': '教育培训;培训机构', 'type': 'education', 'detail_url': 'http://api.map.baidu.com/place/detail?uid=6824fa01f1c668056fc02c5b&output=html&source=placeapi_v2', 'overall_rating': '5.0', 'comment_num': '0', 'children': []}}"
"{'name': '恒通驾校', 'location': {'lat': 34.236837, 'lng': 108.797661}, 'address': '南丰村附近', 'province': '陕西省', 'city': '西安市', 'area': '长安区', 'street_id': '6824fa01f1c668056fc02c5b', 'detail': 1, 'uid': '6824fa01f1c668056fc02c5b', 'detail_info': {'tag': '教育培训;培训机构', 'type': 'education', 'detail_url': 'http://api.map.baidu.com/place/detail?uid=6824fa01f1c668056fc02c5b&output=html&source=placeapi_v2', 'overall_rating': '5.0', 'comment_num': '0', 'children': []}}"
西安东佳英语培训中心,108.93559722937016,34.224617787208665,05dd7d5f0caa6b02ad080f02,"{'name': '西安东佳英语培训中心', 'location': {'lat': 34.229185, 'lng': 108.94671}, 'address': '雁塔区小寨西路26号银泰城9楼', 'province': '陕西省', 'city': '西安市', 'area': '雁塔区', 'street_id': '05dd7d5f0caa6b02ad080f02', 'telephone': '(029)62670000,13519106673', 'detail': 1, 'uid': '05dd7d5f0caa6b02ad080f02', 'detail_info': {'tag': '教育培训;培训机构', 'type': 'education', 'detail_url': 'http://api.map.baidu.com/place/detail?uid=05dd7d5f0caa6b02ad080f02&output=html&source=placeapi_v2', 'price': '0.0', 'overall_rating': '3.0', 'comment_num': '3', 'children': []}}"
"{'name': '西安东佳英语培训中心', 'location': {'lat': 34.229185, 'lng': 108.94671}, 'address': '雁塔区小寨西路26号银泰城9楼', 'province': '陕西省', 'city': '西安市', 'area': '雁塔区', 'street_id': '05dd7d5f0caa6b02ad080f02', 'telephone': '(029)62670000,13519106673', 'detail': 1, 'uid': '05dd7d5f0caa6b02ad080f02', 'detail_info': {'tag': '教育培训;培训机构', 'type': 'education', 'detail_url': 'http://api.map.baidu.com/place/detail?uid=05dd7d5f0caa6b02ad080f02&output=html&source=placeapi_v2', 'price': '0.0', 'overall_rating': '3.0', 'comment_num': '3', 'children': []}}"
西安佳音英语学校,108.89793571276464,34.23502392634566,78e331dc35206638593ac8fe,"{'name': '西安佳音英语学校', 'location': {'lat': 34.239072, 'lng': 108.909141}, 'address': '光德路2号中国联通西高新营业厅4层', 'province': '陕西省', 'city': '西安市', 'area': '雁塔区', 'street_id': '78e331dc35206638593ac8fe', 'detail': 1, 'uid': '78e331dc35206638593ac8fe', 'detail_info': {'tag': '教育培训;培训机构', 'type': 'education', 'detail_url': 'http://api.map.baidu.com/place/detail?uid=78e331dc35206638593ac8fe&output=html&source=placeapi_v2', 'overall_rating': '5.0', 'children': []}}"
"{'name': '西安佳音英语学校', 'location': {'lat': 34.239072, 'lng': 108.909141}, 'address': '光德路2号中国联通西高新营业厅4层', 'province': '陕西省', 'city': '西安市', 'area': '雁塔区', 'street_id': '78e331dc35206638593ac8fe', 'detail': 1, 'uid': '78e331dc35206638593ac8fe', 'detail_info': {'tag': '教育培训;培训机构', 'type': 'education', 'detail_url': 'http://api.map.baidu.com/place/detail?uid=78e331dc35206638593ac8fe&output=html&source=placeapi_v2', 'overall_rating': '5.0', 'children': []}}"
东亚西文英语明德分校,108.93405380926512,34.20995393934923,4cf8d24ecf7bb0999cf7790f,"{'name': '东亚西文英语明德分校', 'location': {'lat': 34.214487, 'lng': 108.945159}, 'address': '朱雀大街天伦明珠大厦2层', 'province': '陕西省', 'city': '西安市', 'area': '雁塔区', 'street_id': '4cf8d24ecf7bb0999cf7790f', 'detail': 1, 'uid': '4cf8d24ecf7bb0999cf7790f', 'detail_info': {'tag': '教育培训;培训机构', 'type': 'education', 'detail_url': 'http://api.map.baidu.com/place/detail?uid=4cf8d24ecf7bb0999cf7790f&output=html&source=placeapi_v2', 'price': '0.0', 'overall_rating': '5.0', 'comment_num': '1', 'children': []}}"
"{'name': '东亚西文英语明德分校', 'location': {'lat': 34.214487, 'lng': 108.945159}, 'address': '朱雀大街天伦明珠大厦2层', 'province': '陕西省', 'city': '西安市', 'area': '雁塔区', 'street_id': '4cf8d24ecf7bb0999cf7790f', 'detail': 1, 'uid': '4cf8d24ecf7bb0999cf7790f', 'detail_info': {'tag': '教育培训;培训机构', 'type': 'education', 'detail_url': 'http://api.map.baidu.com/place/detail?uid=4cf8d24ecf7bb0999cf7790f&output=html&source=placeapi_v2', 'price': '0.0', 'overall_rating': '5.0', 'comment_num': '1', 'children': []}}"
韦博国际英语(钟楼中心),108.93823570465027,34.26047204492296,2dd1855276e6eaffca291512,"{'name': '韦博国际英语(钟楼中心)', 'location': {'lat': 34.265089, 'lng': 108.94933}, 'address': '西安市碑林区西大街48号银泰百货F7', 'province': '陕西省', 'city': '西安市', 'area': '碑林区', 'street_id': '180217b9a9fdaa88f50e77c4', 'telephone': '4009209796', 'detail': 1, 'uid': '2dd1855276e6eaffca291512', 'detail_info': {'tag': '教育培训;培训机构', 'indoor_floor': 'F7', 'type': 'education', 'detail_url': 'http://api.map.baidu.com/place/detail?uid=2dd1855276e6eaffca291512&output=html&source=placeapi_v2', 'comment_num': '1', 'children': []}}"
"{'name': '韦博国际英语(钟楼中心)', 'location': {'lat': 34.265089, 'lng': 108.94933}, 'address': '西安市碑林区西大街48号银泰百货F7', 'province': '陕西省', 'city': '西安市', 'area': '碑林区', 'street_id': '180217b9a9fdaa88f50e77c4', 'telephone': '4009209796', 'detail': 1, 'uid': '2dd1855276e6eaffca291512', 'detail_info': {'tag': '教育培训;培训机构', 'indoor_floor': 'F7', 'type': 'education', 'detail_url': 'http://api.map.baidu.com/place/detail?uid=2dd1855276e6eaffca291512&output=html&source=placeapi_v2', 'comment_num': '1', 'children': []}}"
海伦多兰少儿英语,108.9348365580166,34.26142228558441,98480894c32223fe9868b4e8,"{'name': '海伦多兰少儿英语', 'location': {'lat': 34.265985, 'lng': 108.945936}, 'address': '莲湖区西大街百盛时代盛典8F', 'province': '陕西省', 'city': '西安市', 'area': '莲湖区', 'street_id': 'a28a134beeb72e51d13ce398', 'detail': 1, 'uid': '98480894c32223fe9868b4e8', 'detail_info': {'tag': '教育培训;培训机构', 'navi_location': {'lng': 108.9454722044, 'lat': 34.266189652879}, 'type': 'education', 'detail_url': 'http://api.map.baidu.com/place/detail?uid=98480894c32223fe9868b4e8&output=html&source=placeapi_v2', 'price': '0.0', 'overall_rating': '4.3', 'comment_num': '1', 'children': []}}"
"{'name': '海伦多兰少儿英语', 'location': {'lat': 34.265985, 'lng': 108.945936}, 'address': '莲湖区西大街百盛时代盛典8F', 'province': '陕西省', 'city': '西安市', 'area': '莲湖区', 'street_id': 'a28a134beeb72e51d13ce398', 'detail': 1, 'uid': '98480894c32223fe9868b4e8', 'detail_info': {'tag': '教育培训;培训机构', 'navi_location': {'lng': 108.9454722044, 'lat': 34.266189652879}, 'type': 'education', 'detail_url': 'http://api.map.baidu.com/place/detail?uid=98480894c32223fe9868b4e8&output=html&source=placeapi_v2', 'price': '0.0', 'overall_rating': '4.3', 'comment_num': '1', 'children': []}}"
高新前景外国语学校,108.91473988622103,34.208654760244336,1f59e5fc5f7c828af4b9164d,"{'name': '高新前景外国语学校', 'location': {'lat': 34.212848, 'lng': 108.925902}, 'address': '电子正街88号凯悦华庭D座3层', 'province': '陕西省', 'city': '西安市', 'area': '雁塔区', 'street_id': '1f59e5fc5f7c828af4b9164d', 'telephone': '(029)88440151', 'detail': 1, 'uid': '1f59e5fc5f7c828af4b9164d', 'detail_info': {'tag': '教育培训;培训机构', 'navi_location': {'lng': 108.92613911306, 'lat': 34.212851613125}, 'type': 'education', 'detail_url': 'http://api.map.baidu.com/place/detail?uid=1f59e5fc5f7c828af4b9164d&output=html&source=placeapi_v2', 'overall_rating': '5.0', 'comment_num': '1', 'children': []}}"
"{'name': '高新前景外国语学校', 'location': {'lat': 34.212848, 'lng': 108.925902}, 'address': '电子正街88号凯悦华庭D座3层', 'province': '陕西省', 'city': '西安市', 'area': '雁塔区', 'street_id': '1f59e5fc5f7c828af4b9164d', 'telephone': '(029)88440151', 'detail': 1, 'uid': '1f59e5fc5f7c828af4b9164d', 'detail_info': {'tag': '教育培训;培训机构', 'navi_location': {'lng': 108.92613911306, 'lat': 34.212851613125}, 'type': 'education', 'detail_url': 'http://api.map.baidu.com/place/detail?uid=1f59e5fc5f7c828af4b9164d&output=html&source=placeapi_v2', 'overall_rating': '5.0', 'comment_num': '1', 'children': []}}"
高新前景外国语学校(丰镐东路),108.89129617605136,34.26127376323366,f1f5cac5d1df8a9836b06c3b,"{'name': '高新前景外国语学校(丰镐东路)', 'location': {'lat': 34.265331, 'lng': 108.902481}, 'address': '丰镐东路233号3层', 'province': '陕西省', 'city': '西安市', 'area': '莲湖区', 'street_id': 'f1f5cac5d1df8a9836b06c3b', 'telephone': '(029)68901810', 'detail': 1, 'uid': 'f1f5cac5d1df8a9836b06c3b', 'detail_info': {'tag': '教育培训;培训机构', 'type': 'education', 'detail_url': 'http://api.map.baidu.com/place/detail?uid=f1f5cac5d1df8a9836b06c3b&output=html&source=placeapi_v2', 'overall_rating': '5.0', 'comment_num': '1', 'children': []}}"
"{'name': '高新前景外国语学校(丰镐东路)', 'location': {'lat': 34.265331, 'lng': 108.902481}, 'address': '丰镐东路233号3层', 'province': '陕西省', 'city': '西安市', 'area': '莲湖区', 'street_id': 'f1f5cac5d1df8a9836b06c3b', 'telephone': '(029)68901810', 'detail': 1, 'uid': 'f1f5cac5d1df8a9836b06c3b', 'detail_info': {'tag': '教育培训;培训机构', 'type': 'education', 'detail_url': 'http://api.map.baidu.com/place/detail?uid=f1f5cac5d1df8a9836b06c3b&output=html&source=placeapi_v2', 'overall_rating': '5.0', 'comment_num': '1', 'children': []}}"
学大教育(明德校区),108.92275929772978,34.2003117352945,8caafdf14caf122b13293526,"{'name': '学大教育(明德校区)', 'location': {'lat': 34.204635, 'lng': 108.933887}, 'address': '陕西省西安市雁塔区东仪路22号', 'province': '陕西省', 'city': '西安市', 'area': '雁塔区', 'street_id': '8caafdf14caf122b13293526', 'telephone': '(029)62298858', 'detail': 1, 'uid': '8caafdf14caf122b13293526', 'detail_info': {'tag': '教育培训;培训机构', 'type': 'education', 'detail_url': 'http://api.map.baidu.com/place/detail?uid=8caafdf14caf122b13293526&output=html&source=placeapi_v2', 'comment_num': '3', 'children': []}}"
"{'name': '学大教育(明德校区)', 'location': {'lat': 34.204635, 'lng': 108.933887}, 'address': '陕西省西安市雁塔区东仪路22号', 'province': '陕西省', 'city': '西安市', 'area': '雁塔区', 'street_id': '8caafdf14caf122b13293526', 'telephone': '(029)62298858', 'detail': 1, 'uid': '8caafdf14caf122b13293526', 'detail_info': {'tag': '教育培训;培训机构', 'type': 'education', 'detail_url': 'http://api.map.baidu.com/place/detail?uid=8caafdf14caf122b13293526&output=html&source=placeapi_v2', 'comment_num': '3', 'children': []}}"
艺竹钢琴学校,108.8719077516469,34.19967570578933,6660378b41bda5e26ca3cc55,"{'name': '艺竹钢琴学校', 'location': {'lat': 34.203932, 'lng': 108.883022}, 'address': '高新区锦业路丈八三路北口绿地世纪城b区托卡街b-20203号', 'province': '陕西省', 'city': '西安市', 'area': '雁塔区', 'street_id': '6660378b41bda5e26ca3cc55', 'telephone': '13201637881', 'detail': 1, 'uid': '6660378b41bda5e26ca3cc55', 'detail_info': {'tag': '教育培训;培训机构', 'type': 'education', 'detail_url': 'http://api.map.baidu.com/place/detail?uid=6660378b41bda5e26ca3cc55&output=html&source=placeapi_v2', 'overall_rating': '4.7', 'comment_num': '2', 'children': []}}"
"{'name': '艺竹钢琴学校', 'location': {'lat': 34.203932, 'lng': 108.883022}, 'address': '高新区锦业路丈八三路北口绿地世纪城b区托卡街b-20203号', 'province': '陕西省', 'city': '西安市', 'area': '雁塔区', 'street_id': '6660378b41bda5e26ca3cc55', 'telephone': '13201637881', 'detail': 1, 'uid': '6660378b41bda5e26ca3cc55', 'detail_info': {'tag': '教育培训;培训机构', 'type': 'education', 'detail_url': 'http://api.map.baidu.com/place/detail?uid=6660378b41bda5e26ca3cc55&output=html&source=placeapi_v2', 'overall_rating': '4.7', 'comment_num': '2', 'children': []}}"
西安上林苑花艺培训学校,108.92501661797216,34.2629735711095,28859993d5765ff145e27494,"{'name': '西安上林苑花艺培训学校', 'location': {'lat': 34.267361, 'lng': 108.936142}, 'address': '西安市莲湖区西举院巷1号儿童公园科技园艺馆4楼', 'province': '陕西省', 'city': '西安市', 'area': '莲湖区', 'street_id': '28859993d5765ff145e27494', 'detail': 1, 'uid': '28859993d5765ff145e27494', 'detail_info': {'tag': '教育培训;培训机构', 'type': 'education', 'detail_url': 'http://api.map.baidu.com/place/detail?uid=28859993d5765ff145e27494&output=html&source=placeapi_v2', 'price': '0.0', 'children': []}}"
"{'name': '西安上林苑花艺培训学校', 'location': {'lat': 34.267361, 'lng': 108.936142}, 'address': '西安市莲湖区西举院巷1号儿童公园科技园艺馆4楼', 'province': '陕西省', 'city': '西安市', 'area': '莲湖区', 'street_id': '28859993d5765ff145e27494', 'detail': 1, 'uid': '28859993d5765ff145e27494', 'detail_info': {'tag': '教育培训;培训机构', 'type': 'education', 'detail_url': 'http://api.map.baidu.com/place/detail?uid=28859993d5765ff145e27494&output=html&source=placeapi_v2', 'price': '0.0', 'children': []}}"
庆华驾校,108.93264125090819,34.20344756211038,18b3c4f14df49e1043e192f3,"{'name': '庆华驾校', 'location': {'lat': 34.207952, 'lng': 108.943743}, 'address': '朱雀大街与天坛西路十字向西100米路南', 'province': '陕西省', 'city': '西安市', 'area': '雁塔区', 'street_id': '18b3c4f14df49e1043e192f3', 'telephone': '(029)85451599,13359247699', 'detail': 1, 'uid': '18b3c4f14df49e1043e192f3', 'detail_info': {'tag': '教育培训;培训机构', 'type': 'education', 'detail_url': 'http://api.map.baidu.com/place/detail?uid=18b3c4f14df49e1043e192f3&output=html&source=placeapi_v2', 'overall_rating': '5.0', 'comment_num': '1', 'children': []}}"
"{'name': '庆华驾校', 'location': {'lat': 34.207952, 'lng': 108.943743}, 'address': '朱雀大街与天坛西路十字向西100米路南', 'province': '陕西省', 'city': '西安市', 'area': '雁塔区', 'street_id': '18b3c4f14df49e1043e192f3', 'telephone': '(029)85451599,13359247699', 'detail': 1, 'uid': '18b3c4f14df49e1043e192f3', 'detail_info': {'tag': '教育培训;培训机构', 'type': 'education', 'detail_url': 'http://api.map.baidu.com/place/detail?uid=18b3c4f14df49e1043e192f3&output=html&source=placeapi_v2', 'overall_rating': '5.0', 'comment_num': '1', 'children': []}}"
蒜泥乐博机器人教育,108.92670684884337,34.19947720689071,5028f38f43281b3d88fc06cf,"{'name': '蒜泥乐博机器人教育', 'location': {'lat': 34.203872, 'lng': 108.937821}, 'address': '丈八东路6A-10107号附近', 'province': '陕西省', 'city': '西安市', 'area': '雁塔区', 'street_id': '5028f38f43281b3d88fc06cf', 'detail': 1, 'uid': '5028f38f43281b3d88fc06cf', 'detail_info': {'tag': '教育培训;培训机构', 'type': 'education', 'detail_url': 'http://api.map.baidu.com/place/detail?uid=5028f38f43281b3d88fc06cf&output=html&source=placeapi_v2', 'overall_rating': '5.0', 'comment_num': '1', 'children': []}}"
"{'name': '蒜泥乐博机器人教育', 'location': {'lat': 34.203872, 'lng': 108.937821}, 'address': '丈八东路6A-10107号附近', 'province': '陕西省', 'city': '西安市', 'area': '雁塔区', 'street_id': '5028f38f43281b3d88fc06cf', 'detail': 1, 'uid': '5028f38f43281b3d88fc06cf', 'detail_info': {'tag': '教育培训;培训机构', 'type': 'education', 'detail_url': 'http://api.map.baidu.com/place/detail?uid=5028f38f43281b3d88fc06cf&output=html&source=placeapi_v2', 'overall_rating': '5.0', 'comment_num': '1', 'children': []}}"
和声音乐艺术学校,108.91520851230064,34.201807084810845,4aeab8ffbb3ed5560aa8d4b5,"{'name': '和声音乐艺术学校', 'location': {'lat': 34.206003, 'lng': 108.926362}, 'address': '电子正街雁塔商务A座7层', 'province': '陕西省', 'city': '西安市', 'area': '雁塔区', 'street_id': '4aeab8ffbb3ed5560aa8d4b5', 'detail': 1, 'uid': '4aeab8ffbb3ed5560aa8d4b5', 'detail_info': {'tag': '教育培训;培训机构', 'type': 'education', 'detail_url': 'http://api.map.baidu.com/place/detail?uid=4aeab8ffbb3ed5560aa8d4b5&output=html&source=placeapi_v2', 'comment_num': '2', 'children': []}}"
"{'name': '和声音乐艺术学校', 'location': {'lat': 34.206003, 'lng': 108.926362}, 'address': '电子正街雁塔商务A座7层', 'province': '陕西省', 'city': '西安市', 'area': '雁塔区', 'street_id': '4aeab8ffbb3ed5560aa8d4b5', 'detail': 1, 'uid': '4aeab8ffbb3ed5560aa8d4b5', 'detail_info': {'tag': '教育培训;培训机构', 'type': 'education', 'detail_url': 'http://api.map.baidu.com/place/detail?uid=4aeab8ffbb3ed5560aa8d4b5&output=html&source=placeapi_v2', 'comment_num': '2', 'children': []}}"
雅娜音乐教育中心(高新路),108.90285103886724,34.23702150920779,b0d056f27436e07dcac3db02,"{'name': '雅娜音乐教育中心(高新路)', 'location': {'lat': 34.241093, 'lng': 108.914053}, 'address': '西安市高新区糜家桥小区高新商务三层', 'province': '陕西省', 'city': '西安市', 'area': '雁塔区', 'street_id': 'b0d056f27436e07dcac3db02', 'detail': 1, 'uid': 'b0d056f27436e07dcac3db02', 'detail_info': {'tag': '教育培训;培训机构', 'type': 'education', 'detail_url': 'http://api.map.baidu.com/place/detail?uid=b0d056f27436e07dcac3db02&output=html&source=placeapi_v2', 'price': '0.0', 'overall_rating': '5.0', 'comment_num': '2', 'children': []}}"
"{'name': '雅娜音乐教育中心(高新路)', 'location': {'lat': 34.241093, 'lng': 108.914053}, 'address': '西安市高新区糜家桥小区高新商务三层', 'province': '陕西省', 'city': '西安市', 'area': '雁塔区', 'street_id': 'b0d056f27436e07dcac3db02', 'detail': 1, 'uid': 'b0d056f27436e07dcac3db02', 'detail_info': {'tag': '教育培训;培训机构', 'type': 'education', 'detail_url': 'http://api.map.baidu.com/place/detail?uid=b0d056f27436e07dcac3db02&output=html&source=placeapi_v2', 'price': '0.0', 'overall_rating': '5.0', 'comment_num': '2', 'children': []}}"
陕西省飞逸舞蹈艺术培训中心,108.93071015135878,34.26547262860213,0770c88c32d68b223f9a5e7b,"{'name': '陕西省飞逸舞蹈艺术培训中心', 'location': {'lat': 34.269964, 'lng': 108.941816}, 'address': '陕西省西安市莲湖区西仓南巷70号4楼', 'province': '陕西省', 'city': '西安市', 'area': '莲湖区', 'street_id': '0770c88c32d68b223f9a5e7b', 'detail': 1, 'uid': '0770c88c32d68b223f9a5e7b', 'detail_info': {'tag': '教育培训;培训机构', 'navi_location': {'lng': 108.9416323975, 'lat': 34.269848527206}, 'type': 'education', 'detail_url': 'http://api.map.baidu.com/place/detail?uid=0770c88c32d68b223f9a5e7b&output=html&source=placeapi_v2', 'children': []}}"
"{'name': '陕西省飞逸舞蹈艺术培训中心', 'location': {'lat': 34.269964, 'lng': 108.941816}, 'address': '陕西省西安市莲湖区西仓南巷70号4楼', 'province': '陕西省', 'city': '西安市', 'area': '莲湖区', 'street_id': '0770c88c32d68b223f9a5e7b', 'detail': 1, 'uid': '0770c88c32d68b223f9a5e7b', 'detail_info': {'tag': '教育培训;培训机构', 'navi_location': {'lng': 108.9416323975, 'lat': 34.269848527206}, 'type': 'education', 'detail_url': 'http://api.map.baidu.com/place/detail?uid=0770c88c32d68b223f9a5e7b&output=html&source=placeapi_v2', 'children': []}}"
中国电信西安市分公司培训中心,108.92747198139743,34.2581019027465,dfc496b6f2380fd18936ee09,"{'name': '中国电信西安市分公司培训中心', 'location': {'lat': 34.262534, 'lng': 108.938594}, 'address': '五星街1号', 'province': '陕西省', 'city': '西安市', 'area': '莲湖区', 'street_id': 'dfc496b6f2380fd18936ee09', 'detail': 1, 'uid': 'dfc496b6f2380fd18936ee09', 'detail_info': {'tag': '教育培训;培训机构', 'type': 'education', 'detail_url': 'http://api.map.baidu.com/place/detail?uid=dfc496b6f2380fd18936ee09&output=html&source=placeapi_v2', 'overall_rating': '5.0', 'children': []}}"
"{'name': '中国电信西安市分公司培训中心', 'location': {'lat': 34.262534, 'lng': 108.938594}, 'address': '五星街1号', 'province': '陕西省', 'city': '西安市', 'area': '莲湖区', 'street_id': 'dfc496b6f2380fd18936ee09', 'detail': 1, 'uid': 'dfc496b6f2380fd18936ee09', 'detail_info': {'tag': '教育培训;培训机构', 'type': 'education', 'detail_url': 'http://api.map.baidu.com/place/detail?uid=dfc496b6f2380fd18936ee09&output=html&source=placeapi_v2', 'overall_rating': '5.0', 'children': []}}"
华津驾校(北长安街),108.94068148070502,34.175941910997246,926bc949c78fc510a21de95c,"{'name': '华津驾校(北长安街)', 'location': {'lat': 34.180558, 'lng': 108.951747}, 'address': '陕西省西安市长安区北长安街380号', 'province': '陕西省', 'city': '西安市', 'area': '长安区', 'street_id': '926bc949c78fc510a21de95c', 'telephone': '13379088457', 'detail': 1, 'uid': '926bc949c78fc510a21de95c', 'detail_info': {'tag': '教育培训;培训机构', 'navi_location': {'lng': 108.95147593585, 'lat': 34.180555696769}, 'type': 'education', 'detail_url': 'http://api.map.baidu.com/place/detail?uid=926bc949c78fc510a21de95c&output=html&source=placeapi_v2', 'price': '0.0', 'overall_rating': '5.0', 'comment_num': '4', 'children': []}}"
"{'name': '华津驾校(北长安街)', 'location': {'lat': 34.180558, 'lng': 108.951747}, 'address': '陕西省西安市长安区北长安街380号', 'province': '陕西省', 'city': '西安市', 'area': '长安区', 'street_id': '926bc949c78fc510a21de95c', 'telephone': '13379088457', 'detail': 1, 'uid': '926bc949c78fc510a21de95c', 'detail_info': {'tag': '教育培训;培训机构', 'navi_location': {'lng': 108.95147593585, 'lat': 34.180555696769}, 'type': 'education', 'detail_url': 'http://api.map.baidu.com/place/detail?uid=926bc949c78fc510a21de95c&output=html&source=placeapi_v2', 'price': '0.0', 'overall_rating': '5.0', 'comment_num': '4', 'children': []}}"
弈学园少儿围棋中心(含光门校区),108.92819419911915,34.252269166886215,5ce2637d52a3ea51ae31e53b,"{'name': '弈学园少儿围棋中心(含光门校区)', 'location': {'lat': 34.256714, 'lng': 108.939319}, 'address': '含光门外含光大厦6层', 'province': '陕西省', 'city': '西安市', 'area': '碑林区', 'street_id': '5ce2637d52a3ea51ae31e53b', 'detail': 1, 'uid': '5ce2637d52a3ea51ae31e53b', 'detail_info': {'tag': '教育培训;培训机构', 'navi_location': {'lng': 108.93941115746, 'lat': 34.256868560314}, 'type': 'education', 'detail_url': 'http://api.map.baidu.com/place/detail?uid=5ce2637d52a3ea51ae31e53b&output=html&source=placeapi_v2', 'overall_rating': '5.0', 'comment_num': '0', 'children': []}}"
"{'name': '弈学园少儿围棋中心(含光门校区)', 'location': {'lat': 34.256714, 'lng': 108.939319}, 'address': '含光门外含光大厦6层', 'province': '陕西省', 'city': '西安市', 'area': '碑林区', 'street_id': '5ce2637d52a3ea51ae31e53b', 'detail': 1, 'uid': '5ce2637d52a3ea51ae31e53b', 'detail_info': {'tag': '教育培训;培训机构', 'navi_location': {'lng': 108.93941115746, 'lat': 34.256868560314}, 'type': 'education', 'detail_url': 'http://api.map.baidu.com/place/detail?uid=5ce2637d52a3ea51ae31e53b&output=html&source=placeapi_v2', 'overall_rating': '5.0', 'comment_num': '0', 'children': []}}"
西安市驾驶员报名大厅,108.87350882312617,34.19578719560758,22848d8aea0bb4ef0c0e6bfb,"{'name': '西安市驾驶员报名大厅', 'location': {'lat': 34.200014, 'lng': 108.884626}, 'address': '锦业路绿地中央广场七克拉晶座一层', 'province': '陕西省', 'city': '西安市', 'area': '雁塔区', 'street_id': '22848d8aea0bb4ef0c0e6bfb', 'detail': 1, 'uid': '22848d8aea0bb4ef0c0e6bfb', 'detail_info': {'tag': '教育培训;培训机构', 'navi_location': {'lng': 108.88487745538, 'lat': 34.199795022463}, 'type': 'education', 'detail_url': 'http://api.map.baidu.com/place/detail?uid=22848d8aea0bb4ef0c0e6bfb&output=html&source=placeapi_v2', 'overall_rating': '5.0', 'comment_num': '1', 'children': []}}"
"{'name': '西安市驾驶员报名大厅', 'location': {'lat': 34.200014, 'lng': 108.884626}, 'address': '锦业路绿地中央广场七克拉晶座一层', 'province': '陕西省', 'city': '西安市', 'area': '雁塔区', 'street_id': '22848d8aea0bb4ef0c0e6bfb', 'detail': 1, 'uid': '22848d8aea0bb4ef0c0e6bfb', 'detail_info': {'tag': '教育培训;培训机构', 'navi_location': {'lng': 108.88487745538, 'lat': 34.199795022463}, 'type': 'education', 'detail_url': 'http://api.map.baidu.com/place/detail?uid=22848d8aea0bb4ef0c0e6bfb&output=html&source=placeapi_v2', 'overall_rating': '5.0', 'comment_num': '1', 'children': []}}"
秦武堂武术散打培训,108.91848638832433,34.2589388945879,4023e7bb5b13dcf09cec2b31,"{'name': '秦武堂武术散打培训', 'location': {'lat': 34.26321, 'lng': 108.929637}, 'address': '环城西路南段,万盛宾馆8楼', 'province': '陕西省', 'city': '西安市', 'area': '莲湖区', 'street_id': '4023e7bb5b13dcf09cec2b31', 'detail': 1, 'uid': '4023e7bb5b13dcf09cec2b31', 'detail_info': {'tag': '教育培训;培训机构', 'type': 'education', 'detail_url': 'http://api.map.baidu.com/place/detail?uid=4023e7bb5b13dcf09cec2b31&output=html&source=placeapi_v2', 'children': []}}"
"{'name': '秦武堂武术散打培训', 'location': {'lat': 34.26321, 'lng': 108.929637}, 'address': '环城西路南段,万盛宾馆8楼', 'province': '陕西省', 'city': '西安市', 'area': '莲湖区', 'street_id': '4023e7bb5b13dcf09cec2b31', 'detail': 1, 'uid': '4023e7bb5b13dcf09cec2b31', 'detail_info': {'tag': '教育培训;培训机构', 'type': 'education', 'detail_url': 'http://api.map.baidu.com/place/detail?uid=4023e7bb5b13dcf09cec2b31&output=html&source=placeapi_v2', 'children': []}}"
鹏翔驾校(白沙路店),108.90851030353123,34.232406051754445,5ffba6a478f440af51e5c5ca,"{'name': '鹏翔驾校(白沙路店)', 'location': {'lat': 34.236528, 'lng': 108.919703}, 'address': '白沙路樊家腊汁肉夹馍北侧', 'province': '陕西省', 'city': '西安市', 'area': '雁塔区', 'street_id': '5ffba6a478f440af51e5c5ca', 'telephone': '(029)88212736', 'detail': 1, 'uid': '5ffba6a478f440af51e5c5ca', 'detail_info': {'tag': '教育培训;培训机构', 'type': 'education', 'detail_url': 'http://api.map.baidu.com/place/detail?uid=5ffba6a478f440af51e5c5ca&output=html&source=placeapi_v2', 'overall_rating': '5.0', 'comment_num': '2', 'children': []}}"
"{'name': '鹏翔驾校(白沙路店)', 'location': {'lat': 34.236528, 'lng': 108.919703}, 'address': '白沙路樊家腊汁肉夹馍北侧', 'province': '陕西省', 'city': '西安市', 'area': '雁塔区', 'street_id': '5ffba6a478f440af51e5c5ca', 'telephone': '(029)88212736', 'detail': 1, 'uid': '5ffba6a478f440af51e5c5ca', 'detail_info': {'tag': '教育培训;培训机构', 'type': 'education', 'detail_url': 'http://api.map.baidu.com/place/detail?uid=5ffba6a478f440af51e5c5ca&output=html&source=placeapi_v2', 'overall_rating': '5.0', 'comment_num': '2', 'children': []}}"
鹏翔驾校(土门报名联络点),108.87174263537469,34.26639914196344,0fafba89491efdf745e2742b,"{'name': '鹏翔驾校(土门报名联络点)', 'location': {'lat': 34.270682, 'lng': 108.882859}, 'address': '陕西省西安市莲湖区土门汉城东路社区(团结西路南)', 'province': '陕西省', 'city': '西安市', 'area': '莲湖区', 'street_id': '0fafba89491efdf745e2742b', 'telephone': '13572189746', 'detail': 1, 'uid': '0fafba89491efdf745e2742b', 'detail_info': {'tag': '教育培训;培训机构', 'type': 'education', 'detail_url': 'http://api.map.baidu.com/place/detail?uid=0fafba89491efdf745e2742b&output=html&source=placeapi_v2', 'overall_rating': '5.0', 'comment_num': '2', 'children': []}}"
"{'name': '鹏翔驾校(土门报名联络点)', 'location': {'lat': 34.270682, 'lng': 108.882859}, 'address': '陕西省西安市莲湖区土门汉城东路社区(团结西路南)', 'province': '陕西省', 'city': '西安市', 'area': '莲湖区', 'street_id': '0fafba89491efdf745e2742b', 'telephone': '13572189746', 'detail': 1, 'uid': '0fafba89491efdf745e2742b', 'detail_info': {'tag': '教育培训;培训机构', 'type': 'education', 'detail_url': 'http://api.map.baidu.com/place/detail?uid=0fafba89491efdf745e2742b&output=html&source=placeapi_v2', 'overall_rating': '5.0', 'comment_num': '2', 'children': []}}"
天道留学,108.89978119163408,34.233652385868325,e72bb4b91d7154243913fd3d,"{'name': '天道留学', 'location': {'lat': 34.237706, 'lng': 108.910986}, 'address': '科技路33号高新国际商务中心18层', 'province': '陕西省', 'city': '西安市', 'area': '雁塔区', 'street_id': 'e72bb4b91d7154243913fd3d', 'detail': 1, 'uid': 'e72bb4b91d7154243913fd3d', 'detail_info': {'tag': '教育培训;培训机构', 'type': 'education', 'detail_url': 'http://api.map.baidu.com/place/detail?uid=e72bb4b91d7154243913fd3d&output=html&source=placeapi_v2', 'overall_rating': '5.0', 'children': []}}"
"{'name': '天道留学', 'location': {'lat': 34.237706, 'lng': 108.910986}, 'address': '科技路33号高新国际商务中心18层', 'province': '陕西省', 'city': '西安市', 'area': '雁塔区', 'street_id': 'e72bb4b91d7154243913fd3d', 'detail': 1, 'uid': 'e72bb4b91d7154243913fd3d', 'detail_info': {'tag': '教育培训;培训机构', 'type': 'education', 'detail_url': 'http://api.map.baidu.com/place/detail?uid=e72bb4b91d7154243913fd3d&output=html&source=placeapi_v2', 'overall_rating': '5.0', 'children': []}}"
北京红舞鞋形体舞蹈教育,108.89779767087289,34.22727419013383,a20222f7cd12c19c70210bdc,"{'name': '北京红舞鞋形体舞蹈教育', 'location': {'lat': 34.231319, 'lng': 108.909002}, 'address': '雁塔区科技一路枫叶广场二期20102室', 'province': '陕西省', 'city': '西安市', 'area': '雁塔区', 'street_id': 'a83159e08f7ecee6343a710d', 'telephone': '(029)88896522,18092638734', 'detail': 1, 'uid': 'a20222f7cd12c19c70210bdc', 'detail_info': {'tag': '教育培训;培训机构', 'type': 'education', 'detail_url': 'http://api.map.baidu.com/place/detail?uid=a20222f7cd12c19c70210bdc&output=html&source=placeapi_v2', 'comment_num': '2', 'children': []}}"
"{'name': '北京红舞鞋形体舞蹈教育', 'location': {'lat': 34.231319, 'lng': 108.909002}, 'address': '雁塔区科技一路枫叶广场二期20102室', 'province': '陕西省', 'city': '西安市', 'area': '雁塔区', 'street_id': 'a83159e08f7ecee6343a710d', 'telephone': '(029)88896522,18092638734', 'detail': 1, 'uid': 'a20222f7cd12c19c70210bdc', 'detail_info': {'tag': '教育培训;培训机构', 'type': 'education', 'detail_url': 'http://api.map.baidu.com/place/detail?uid=a20222f7cd12c19c70210bdc&output=html&source=placeapi_v2', 'comment_num': '2', 'children': []}}"
西北工业大学-干部教育培训中心,108.90727722867476,34.24352348911283,715575797f2fc65443e19286,"{'name': '西北工业大学-干部教育培训中心', 'location': {'lat': 34.247635, 'lng': 108.91847}, 'address': '陕西省西安市碑林区友谊西路127号西北工业大学内', 'province': '陕西省', 'city': '西安市', 'area': '碑林区', 'street_id': '715575797f2fc65443e19286', 'detail': 1, 'uid': '715575797f2fc65443e19286', 'detail_info': {'tag': '教育培训;培训机构', 'navi_location': {'lng': 108.91842791394, 'lat': 34.248019789868}, 'type': 'education', 'detail_url': 'http://api.map.baidu.com/place/detail?uid=715575797f2fc65443e19286&output=html&source=placeapi_v2', 'children': []}}"
"{'name': '西北工业大学-干部教育培训中心', 'location': {'lat': 34.247635, 'lng': 108.91847}, 'address': '陕西省西安市碑林区友谊西路127号西北工业大学内', 'province': '陕西省', 'city': '西安市', 'area': '碑林区', 'street_id': '715575797f2fc65443e19286', 'detail': 1, 'uid': '715575797f2fc65443e19286', 'detail_info': {'tag': '教育培训;培训机构', 'navi_location': {'lng': 108.91842791394, 'lat': 34.248019789868}, 'type': 'education', 'detail_url': 'http://api.map.baidu.com/place/detail?uid=715575797f2fc65443e19286&output=html&source=placeapi_v2', 'children': []}}"
睿欣教育(高新校区),108.90286104909713,34.23701444276466,324dd1fc9f47ec01e0110346,"{'name': '睿欣教育(高新校区)', 'location': {'lat': 34.241086, 'lng': 108.914063}, 'address': '西安市高新路25号高新商务大厦3楼', 'province': '陕西省', 'city': '西安市', 'area': '雁塔区', 'street_id': '324dd1fc9f47ec01e0110346', 'telephone': '(029)88787781', 'detail': 1, 'uid': '324dd1fc9f47ec01e0110346', 'detail_info': {'tag': '教育培训;培训机构', 'type': 'education', 'detail_url': 'http://api.map.baidu.com/place/detail?uid=324dd1fc9f47ec01e0110346&output=html&source=placeapi_v2', 'price': '0.0', 'comment_num': '1', 'children': []}}"
"{'name': '睿欣教育(高新校区)', 'location': {'lat': 34.241086, 'lng': 108.914063}, 'address': '西安市高新路25号高新商务大厦3楼', 'province': '陕西省', 'city': '西安市', 'area': '雁塔区', 'street_id': '324dd1fc9f47ec01e0110346', 'telephone': '(029)88787781', 'detail': 1, 'uid': '324dd1fc9f47ec01e0110346', 'detail_info': {'tag': '教育培训;培训机构', 'type': 'education', 'detail_url': 'http://api.map.baidu.com/place/detail?uid=324dd1fc9f47ec01e0110346&output=html&source=placeapi_v2', 'price': '0.0', 'comment_num': '1', 'children': []}}"
巴洛克音乐学校,108.9066379576728,34.22915232524177,b340a46e22d9f17695f08c95,"{'name': '巴洛克音乐学校', 'location': {'lat': 34.233253, 'lng': 108.917834}, 'address': '西安市高新区科技路10号通达大厦6层', 'province': '陕西省', 'city': '西安市', 'area': '雁塔区', 'street_id': 'b340a46e22d9f17695f08c95', 'detail': 1, 'uid': 'b340a46e22d9f17695f08c95', 'detail_info': {'tag': '教育培训;培训机构', 'type': 'education', 'detail_url': 'http://api.map.baidu.com/place/detail?uid=b340a46e22d9f17695f08c95&output=html&source=placeapi_v2', 'comment_num': '1', 'children': []}}"
"{'name': '巴洛克音乐学校', 'location': {'lat': 34.233253, 'lng': 108.917834}, 'address': '西安市高新区科技路10号通达大厦6层', 'province': '陕西省', 'city': '西安市', 'area': '雁塔区', 'street_id': 'b340a46e22d9f17695f08c95', 'detail': 1, 'uid': 'b340a46e22d9f17695f08c95', 'detail_info': {'tag': '教育培训;培训机构', 'type': 'education', 'detail_url': 'http://api.map.baidu.com/place/detail?uid=b340a46e22d9f17695f08c95&output=html&source=placeapi_v2', 'comment_num': '1', 'children': []}}"
东亚西文情境英语西稍门校区,108.90507703315663,34.25709289039505,5778dafb7841d7cc77026940,"{'name': '东亚西文情境英语西稍门校区', 'location': {'lat': 34.261185, 'lng': 108.916264}, 'address': '劳动南路296号民航大厦院内南楼3层', 'province': '陕西省', 'city': '西安市', 'area': '莲湖区', 'street_id': '5778dafb7841d7cc77026940', 'detail': 1, 'uid': '5778dafb7841d7cc77026940', 'detail_info': {'tag': '教育培训;培训机构', 'type': 'education', 'detail_url': 'http://api.map.baidu.com/place/detail?uid=5778dafb7841d7cc77026940&output=html&source=placeapi_v2', 'price': '0.0', 'overall_rating': '5.0', 'children': []}}"
"{'name': '东亚西文情境英语西稍门校区', 'location': {'lat': 34.261185, 'lng': 108.916264}, 'address': '劳动南路296号民航大厦院内南楼3层', 'province': '陕西省', 'city': '西安市', 'area': '莲湖区', 'street_id': '5778dafb7841d7cc77026940', 'detail': 1, 'uid': '5778dafb7841d7cc77026940', 'detail_info': {'tag': '教育培训;培训机构', 'type': 'education', 'detail_url': 'http://api.map.baidu.com/place/detail?uid=5778dafb7841d7cc77026940&output=html&source=placeapi_v2', 'price': '0.0', 'overall_rating': '5.0', 'children': []}}"
西安小天鹅艺术团-高新艺术中心,108.89994434697716,34.23520219603187,248df10f7ca0b7378bdb7340,"{'name': '西安小天鹅艺术团-高新艺术中心', 'location': {'lat': 34.239257, 'lng': 108.911149}, 'address': '西安市雁塔区高科大厦副楼3层', 'province': '陕西省', 'city': '西安市', 'area': '雁塔区', 'street_id': '248df10f7ca0b7378bdb7340', 'detail': 1, 'uid': '248df10f7ca0b7378bdb7340', 'detail_info': {'tag': '教育培训;培训机构', 'navi_location': {'lng': 108.91101252502, 'lat': 34.239317778666}, 'type': 'education', 'detail_url': 'http://api.map.baidu.com/place/detail?uid=248df10f7ca0b7378bdb7340&output=html&source=placeapi_v2', 'overall_rating': '5.0', 'comment_num': '1', 'children': []}}"
"{'name': '西安小天鹅艺术团-高新艺术中心', 'location': {'lat': 34.239257, 'lng': 108.911149}, 'address': '西安市雁塔区高科大厦副楼3层', 'province': '陕西省', 'city': '西安市', 'area': '雁塔区', 'street_id': '248df10f7ca0b7378bdb7340', 'detail': 1, 'uid': '248df10f7ca0b7378bdb7340', 'detail_info': {'tag': '教育培训;培训机构', 'navi_location': {'lng': 108.91101252502, 'lat': 34.239317778666}, 'type': 'education', 'detail_url': 'http://api.map.baidu.com/place/detail?uid=248df10f7ca0b7378bdb7340&output=html&source=placeapi_v2', 'overall_rating': '5.0', 'comment_num': '1', 'children': []}}"
国家发展和改革委员会培训中心陕西教育培训基地,108.92608207144112,34.27237116555578,7f0c8a926d2cb67d81a12ef8,"{'name': '国家发展和改革委员会培训中心陕西教育培训基地', 'location': {'lat': 34.276779, 'lng': 108.937196}, 'address': '陕西省西安市莲湖区西北二路1号', 'province': '陕西省', 'city': '西安市', 'area': '莲湖区', 'street_id': '7f0c8a926d2cb67d81a12ef8', 'detail': 1, 'uid': '7f0c8a926d2cb67d81a12ef8', 'detail_info': {'tag': '教育培训;培训机构', 'navi_location': {'lng': 108.93703783431, 'lat': 34.276779247159}, 'type': 'education', 'detail_url': 'http://api.map.baidu.com/place/detail?uid=7f0c8a926d2cb67d81a12ef8&output=html&source=placeapi_v2', 'overall_rating': '5.0', 'comment_num': '2', 'children': []}}"
"{'name': '国家发展和改革委员会培训中心陕西教育培训基地', 'location': {'lat': 34.276779, 'lng': 108.937196}, 'address': '陕西省西安市莲湖区西北二路1号', 'province': '陕西省', 'city': '西安市', 'area': '莲湖区', 'street_id': '7f0c8a926d2cb67d81a12ef8', 'detail': 1, 'uid': '7f0c8a926d2cb67d81a12ef8', 'detail_info': {'tag': '教育培训;培训机构', 'navi_location': {'lng': 108.93703783431, 'lat': 34.276779247159}, 'type': 'education', 'detail_url': 'http://api.map.baidu.com/place/detail?uid=7f0c8a926d2cb67d81a12ef8&output=html&source=placeapi_v2', 'overall_rating': '5.0', 'comment_num': '2', 'children': []}}"
吉的堡少儿英语(高新路),108.9027088207669,34.236689569217376,1c7999a0308ebe614afc8db1,"{'name': '吉的堡少儿英语(高新路)', 'location': {'lat': 34.24076, 'lng': 108.913911}, 'address': '高新路25号希格玛大厦4层', 'province': '陕西省', 'city': '西安市', 'area': '雁塔区', 'street_id': '1c7999a0308ebe614afc8db1', 'detail': 1, 'uid': '1c7999a0308ebe614afc8db1', 'detail_info': {'tag': '教育培训;培训机构', 'type': 'education', 'detail_url': 'http://api.map.baidu.com/place/detail?uid=1c7999a0308ebe614afc8db1&output=html&source=placeapi_v2', 'overall_rating': '5.0', 'children': []}}"
"{'name': '吉的堡少儿英语(高新路)', 'location': {'lat': 34.24076, 'lng': 108.913911}, 'address': '高新路25号希格玛大厦4层', 'province': '陕西省', 'city': '西安市', 'area': '雁塔区', 'street_id': '1c7999a0308ebe614afc8db1', 'detail': 1, 'uid': '1c7999a0308ebe614afc8db1', 'detail_info': {'tag': '教育培训;培训机构', 'type': 'education', 'detail_url': 'http://api.map.baidu.com/place/detail?uid=1c7999a0308ebe614afc8db1&output=html&source=placeapi_v2', 'overall_rating': '5.0', 'children': []}}"
华津驾校,108.86919589613842,34.19600228556143,6acea8434c53458230169ba7,"{'name': '华津驾校', 'location': {'lat': 34.200304, 'lng': 108.880294}, 'address': '丈八西路绿地世纪城2号楼', 'province': '陕西省', 'city': '西安市', 'area': '雁塔区', 'street_id': '6acea8434c53458230169ba7', 'telephone': '(029)68995530,(029)68995539', 'detail': 1, 'uid': '6acea8434c53458230169ba7', 'detail_info': {'tag': '教育培训;培训机构', 'type': 'education', 'detail_url': 'http://api.map.baidu.com/place/detail?uid=6acea8434c53458230169ba7&output=html&source=placeapi_v2', 'overall_rating': '5.0', 'comment_num': '2', 'children': []}}"
"{'name': '华津驾校', 'location': {'lat': 34.200304, 'lng': 108.880294}, 'address': '丈八西路绿地世纪城2号楼', 'province': '陕西省', 'city': '西安市', 'area': '雁塔区', 'street_id': '6acea8434c53458230169ba7', 'telephone': '(029)68995530,(029)68995539', 'detail': 1, 'uid': '6acea8434c53458230169ba7', 'detail_info': {'tag': '教育培训;培训机构', 'type': 'education', 'detail_url': 'http://api.map.baidu.com/place/detail?uid=6acea8434c53458230169ba7&output=html&source=placeapi_v2', 'overall_rating': '5.0', 'comment_num': '2', 'children': []}}"
新东方(一中教学区),108.91365701352471,34.265088207007274,c568e5fa1c702d145bf6be14,"{'name': '新东方(一中教学区)', 'location': {'lat': 34.269283, 'lng': 108.924817}, 'address': '西安市莲湖区铁塔寺路52号临街商业楼3层', 'province': '陕西省', 'city': '西安市', 'area': '莲湖区', 'street_id': 'c568e5fa1c702d145bf6be14', 'detail': 1, 'uid': 'c568e5fa1c702d145bf6be14', 'detail_info': {'tag': '教育培训;培训机构', 'navi_location': {'lng': 108.92480578604, 'lat': 34.269373332132}, 'type': 'education', 'detail_url': 'http://api.map.baidu.com/place/detail?uid=c568e5fa1c702d145bf6be14&output=html&source=placeapi_v2', 'price': '0.0', 'comment_num': '1', 'children': []}}"
"{'name': '新东方(一中教学区)', 'location': {'lat': 34.269283, 'lng': 108.924817}, 'address': '西安市莲湖区铁塔寺路52号临街商业楼3层', 'province': '陕西省', 'city': '西安市', 'area': '莲湖区', 'street_id': 'c568e5fa1c702d145bf6be14', 'detail': 1, 'uid': 'c568e5fa1c702d145bf6be14', 'detail_info': {'tag': '教育培训;培训机构', 'navi_location': {'lng': 108.92480578604, 'lat': 34.269373332132}, 'type': 'education', 'detail_url': 'http://api.map.baidu.com/place/detail?uid=c568e5fa1c702d145bf6be14&output=html&source=placeapi_v2', 'price': '0.0', 'comment_num': '1', 'children': []}}"
金智云起点软件培训,108.87296215202788,34.233975324132395,a46e1ef7e3220f94d6b74eb4,"{'name': '金智云起点软件培训', 'location': {'lat': 34.238232, 'lng': 108.884105}, 'address': '高新区唐兴路6号唐兴数码国际大厦509室', 'province': '陕西省', 'city': '西安市', 'area': '雁塔区', 'street_id': 'a46e1ef7e3220f94d6b74eb4', 'detail': 1, 'uid': 'a46e1ef7e3220f94d6b74eb4', 'detail_info': {'tag': '教育培训;培训机构', 'type': 'education', 'detail_url': 'http://api.map.baidu.com/place/detail?uid=a46e1ef7e3220f94d6b74eb4&output=html&source=placeapi_v2', 'overall_rating': '5.0', 'children': []}}"
"{'name': '金智云起点软件培训', 'location': {'lat': 34.238232, 'lng': 108.884105}, 'address': '高新区唐兴路6号唐兴数码国际大厦509室', 'province': '陕西省', 'city': '西安市', 'area': '雁塔区', 'street_id': 'a46e1ef7e3220f94d6b74eb4', 'detail': 1, 'uid': 'a46e1ef7e3220f94d6b74eb4', 'detail_info': {'tag': '教育培训;培训机构', 'type': 'education', 'detail_url': 'http://api.map.baidu.com/place/detail?uid=a46e1ef7e3220f94d6b74eb4&output=html&source=placeapi_v2', 'overall_rating': '5.0', 'children': []}}"
创・艺・宝・贝,108.90501184491005,34.24655264672907,cdfaa283e0cf44efab175af4,"{'name': '创・艺・宝・贝', 'location': {'lat': 34.250643, 'lng': 108.916207}, 'address': '西安市莲湖区劳动南路118号西市城F3', 'province': '陕西省', 'city': '西安市', 'area': '莲湖区', 'street_id': 'cdfaa283e0cf44efab175af4', 'detail': 1, 'uid': 'cdfaa283e0cf44efab175af4', 'detail_info': {'tag': '教育培训;培训机构', 'navi_location': {'lng': 108.91586539057, 'lat': 34.250272706862}, 'indoor_floor': 'F3', 'type': 'education', 'detail_url': 'http://api.map.baidu.com/place/detail?uid=cdfaa283e0cf44efab175af4&output=html&source=placeapi_v2', 'children': []}}"
"{'name': '创・艺・宝・贝', 'location': {'lat': 34.250643, 'lng': 108.916207}, 'address': '西安市莲湖区劳动南路118号西市城F3', 'province': '陕西省', 'city': '西安市', 'area': '莲湖区', 'street_id': 'cdfaa283e0cf44efab175af4', 'detail': 1, 'uid': 'cdfaa283e0cf44efab175af4', 'detail_info': {'tag': '教育培训;培训机构', 'navi_location': {'lng': 108.91586539057, 'lat': 34.250272706862}, 'indoor_floor': 'F3', 'type': 'education', 'detail_url': 'http://api.map.baidu.com/place/detail?uid=cdfaa283e0cf44efab175af4&output=html&source=placeapi_v2', 'children': []}}"
陕西省安全血液和血制品远程教育培训中心,108.93481459213648,34.227646372741695,2b90c0ae73f626a1120daaf3,"{'name': '陕西省安全血液和血制品远程教育培训中心', 'location': {'lat': 34.232202, 'lng': 108.94593}, 'address': '朱雀大街407号', 'province': '陕西省', 'city': '西安市', 'area': '雁塔区', 'street_id': '2b90c0ae73f626a1120daaf3', 'detail': 1, 'uid': '2b90c0ae73f626a1120daaf3', 'detail_info': {'tag': '教育培训;培训机构', 'navi_location': {'lng': 108.9456921015, 'lat': 34.232199734352}, 'type': 'education', 'detail_url': 'http://api.map.baidu.com/place/detail?uid=2b90c0ae73f626a1120daaf3&output=html&source=placeapi_v2', 'overall_rating': '5.0', 'comment_num': '1', 'children': []}}"
"{'name': '陕西省安全血液和血制品远程教育培训中心', 'location': {'lat': 34.232202, 'lng': 108.94593}, 'address': '朱雀大街407号', 'province': '陕西省', 'city': '西安市', 'area': '雁塔区', 'street_id': '2b90c0ae73f626a1120daaf3', 'detail': 1, 'uid': '2b90c0ae73f626a1120daaf3', 'detail_info': {'tag': '教育培训;培训机构', 'navi_location': {'lng': 108.9456921015, 'lat': 34.232199734352}, 'type': 'education', 'detail_url': 'http://api.map.baidu.com/place/detail?uid=2b90c0ae73f626a1120daaf3&output=html&source=placeapi_v2', 'overall_rating': '5.0', 'comment_num': '1', 'children': []}}"
学大教育(西安西关校区),108.90878515531261,34.26040891006749,59c601445a17246cc6f025aa,"{'name': '学大教育(西安西关校区)', 'location': {'lat': 34.264539, 'lng': 108.919962}, 'address': '西关正街258号御笔华章四层', 'province': '陕西省', 'city': '西安市', 'area': '莲湖区', 'street_id': '59c601445a17246cc6f025aa', 'telephone': '4006254008', 'detail': 1, 'uid': '59c601445a17246cc6f025aa', 'detail_info': {'tag': '教育培训;培训机构', 'navi_location': {'lng': 108.91949103605, 'lat': 34.264985180785}, 'type': 'education', 'detail_url': 'http://api.map.baidu.com/place/detail?uid=59c601445a17246cc6f025aa&output=html&source=placeapi_v2', 'price': '0.0', 'children': []}}"
"{'name': '学大教育(西安西关校区)', 'location': {'lat': 34.264539, 'lng': 108.919962}, 'address': '西关正街258号御笔华章四层', 'province': '陕西省', 'city': '西安市', 'area': '莲湖区', 'street_id': '59c601445a17246cc6f025aa', 'telephone': '4006254008', 'detail': 1, 'uid': '59c601445a17246cc6f025aa', 'detail_info': {'tag': '教育培训;培训机构', 'navi_location': {'lng': 108.91949103605, 'lat': 34.264985180785}, 'type': 'education', 'detail_url': 'http://api.map.baidu.com/place/detail?uid=59c601445a17246cc6f025aa&output=html&source=placeapi_v2', 'price': '0.0', 'children': []}}"
华津驾校(丈八南村报名联络点),108.84926379513357,34.20033043806729,46253c80d99138c3eb12e4e2,"{'name': '华津驾校(丈八南村报名联络点)', 'location': {'lat': 34.204972, 'lng': 108.860291}, 'address': '丈八南村内', 'province': '陕西省', 'city': '西安市', 'area': '雁塔区', 'street_id': '46253c80d99138c3eb12e4e2', 'telephone': '(029)87304366', 'detail': 1, 'uid': '46253c80d99138c3eb12e4e2', 'detail_info': {'tag': '教育培训;培训机构', 'navi_location': {'lng': 108.86029112821, 'lat': 34.20473208334}, 'type': 'education', 'detail_url': 'http://api.map.baidu.com/place/detail?uid=46253c80d99138c3eb12e4e2&output=html&source=placeapi_v2', 'overall_rating': '5.0', 'comment_num': '1', 'children': []}}"
"{'name': '华津驾校(丈八南村报名联络点)', 'location': {'lat': 34.204972, 'lng': 108.860291}, 'address': '丈八南村内', 'province': '陕西省', 'city': '西安市', 'area': '雁塔区', 'street_id': '46253c80d99138c3eb12e4e2', 'telephone': '(029)87304366', 'detail': 1, 'uid': '46253c80d99138c3eb12e4e2', 'detail_info': {'tag': '教育培训;培训机构', 'navi_location': {'lng': 108.86029112821, 'lat': 34.20473208334}, 'type': 'education', 'detail_url': 'http://api.map.baidu.com/place/detail?uid=46253c80d99138c3eb12e4e2&output=html&source=placeapi_v2', 'overall_rating': '5.0', 'comment_num': '1', 'children': []}}"
山木培训(紫薇分校),108.91515604295346,34.20775793898005,ecf5d80a287117e9d13ce3e1,"{'name': '山木培训(紫薇分校)', 'location': {'lat': 34.211957, 'lng': 108.926316}, 'address': '电子正街128号凯悦华庭对面北山门站', 'province': '陕西省', 'city': '西安市', 'area': '雁塔区', 'street_id': 'ecf5d80a287117e9d13ce3e1', 'detail': 1, 'uid': 'ecf5d80a287117e9d13ce3e1', 'detail_info': {'tag': '教育培训;培训机构', 'type': 'education', 'detail_url': 'http://api.map.baidu.com/place/detail?uid=ecf5d80a287117e9d13ce3e1&output=html&source=placeapi_v2', 'overall_rating': '4.5', 'comment_num': '2', 'children': []}}"
"{'name': '山木培训(紫薇分校)', 'location': {'lat': 34.211957, 'lng': 108.926316}, 'address': '电子正街128号凯悦华庭对面北山门站', 'province': '陕西省', 'city': '西安市', 'area': '雁塔区', 'street_id': 'ecf5d80a287117e9d13ce3e1', 'detail': 1, 'uid': 'ecf5d80a287117e9d13ce3e1', 'detail_info': {'tag': '教育培训;培训机构', 'type': 'education', 'detail_url': 'http://api.map.baidu.com/place/detail?uid=ecf5d80a287117e9d13ce3e1&output=html&source=placeapi_v2', 'overall_rating': '4.5', 'comment_num': '2', 'children': []}}"
西安正华驾校,108.89757696720642,34.23710109394231,5fbcf2462afb006d7069d374,"{'name': '西安正华驾校', 'location': {'lat': 34.241149, 'lng': 108.908782}, 'address': '西安市高新区光华路13号兴业大厦1层', 'province': '陕西省', 'city': '西安市', 'area': '雁塔区', 'street_id': '5fbcf2462afb006d7069d374', 'detail': 1, 'uid': '5fbcf2462afb006d7069d374', 'detail_info': {'tag': '教育培训;培训机构', 'navi_location': {'lng': 108.90886723222, 'lat': 34.241382318085}, 'type': 'education', 'detail_url': 'http://api.map.baidu.com/place/detail?uid=5fbcf2462afb006d7069d374&output=html&source=placeapi_v2', 'overall_rating': '5.0', 'children': []}}"
"{'name': '西安正华驾校', 'location': {'lat': 34.241149, 'lng': 108.908782}, 'address': '西安市高新区光华路13号兴业大厦1层', 'province': '陕西省', 'city': '西安市', 'area': '雁塔区', 'street_id': '5fbcf2462afb006d7069d374', 'detail': 1, 'uid': '5fbcf2462afb006d7069d374', 'detail_info': {'tag': '教育培训;培训机构', 'navi_location': {'lng': 108.90886723222, 'lat': 34.241382318085}, 'type': 'education', 'detail_url': 'http://api.map.baidu.com/place/detail?uid=5fbcf2462afb006d7069d374&output=html&source=placeapi_v2', 'overall_rating': '5.0', 'children': []}}"
西安交通大学医学院第一附属医院-外科学基本技能训练中心,108.93540151281793,34.216889106042615,593a68326192b2533a13fdf5,"{'name': '西安交通大学医学院第一附属医院-外科学基本技能训练中心', 'location': {'lat': 34.221449, 'lng': 108.94651}, 'address': '雁塔西路76号西安交通大学雁塔校区', 'province': '陕西省', 'city': '西安市', 'area': '雁塔区', 'street_id': '593a68326192b2533a13fdf5', 'detail': 1, 'uid': '593a68326192b2533a13fdf5', 'detail_info': {'tag': '教育培训;培训机构', 'type': 'education', 'detail_url': 'http://api.map.baidu.com/place/detail?uid=593a68326192b2533a13fdf5&output=html&source=placeapi_v2', 'children': []}}"
"{'name': '西安交通大学医学院第一附属医院-外科学基本技能训练中心', 'location': {'lat': 34.221449, 'lng': 108.94651}, 'address': '雁塔西路76号西安交通大学雁塔校区', 'province': '陕西省', 'city': '西安市', 'area': '雁塔区', 'street_id': '593a68326192b2533a13fdf5', 'detail': 1, 'uid': '593a68326192b2533a13fdf5', 'detail_info': {'tag': '教育培训;培训机构', 'type': 'education', 'detail_url': 'http://api.map.baidu.com/place/detail?uid=593a68326192b2533a13fdf5&output=html&source=placeapi_v2', 'children': []}}"
启智数理化特训部,108.89745490291732,34.23038062056569,5e17d166f2988d29c92915e5,"{'name': '启智数理化特训部', 'location': {'lat': 34.234426, 'lng': 108.90866}, 'address': '高新路60号一品美道大厦A1911', 'province': '陕西省', 'city': '西安市', 'area': '雁塔区', 'street_id': '5e17d166f2988d29c92915e5', 'detail': 1, 'uid': '5e17d166f2988d29c92915e5', 'detail_info': {'tag': '教育培训;培训机构', 'type': 'education', 'detail_url': 'http://api.map.baidu.com/place/detail?uid=5e17d166f2988d29c92915e5&output=html&source=placeapi_v2', 'comment_num': '1', 'children': []}}"
"{'name': '启智数理化特训部', 'location': {'lat': 34.234426, 'lng': 108.90866}, 'address': '高新路60号一品美道大厦A1911', 'province': '陕西省', 'city': '西安市', 'area': '雁塔区', 'street_id': '5e17d166f2988d29c92915e5', 'detail': 1, 'uid': '5e17d166f2988d29c92915e5', 'detail_info': {'tag': '教育培训;培训机构', 'type': 'education', 'detail_url': 'http://api.map.baidu.com/place/detail?uid=5e17d166f2988d29c92915e5&output=html&source=placeapi_v2', 'comment_num': '1', 'children': []}}"
华津驾校(西荷花园报名联络点),108.9242487010383,34.23732503912043,f8e61f512db42319e215f956,"{'name': '华津驾校(西荷花园报名联络点)', 'location': {'lat': 34.241695, 'lng': 108.935394}, 'address': '碑林区含光社区19号', 'province': '陕西省', 'city': '西安市', 'area': '碑林区', 'street_id': 'f8e61f512db42319e215f956', 'telephone': '(029)88412039', 'detail': 1, 'uid': 'f8e61f512db42319e215f956', 'detail_info': {'tag': '教育培训;培训机构', 'type': 'education', 'detail_url': 'http://api.map.baidu.com/place/detail?uid=f8e61f512db42319e215f956&output=html&source=placeapi_v2', 'overall_rating': '5.0', 'comment_num': '2', 'children': []}}"
"{'name': '华津驾校(西荷花园报名联络点)', 'location': {'lat': 34.241695, 'lng': 108.935394}, 'address': '碑林区含光社区19号', 'province': '陕西省', 'city': '西安市', 'area': '碑林区', 'street_id': 'f8e61f512db42319e215f956', 'telephone': '(029)88412039', 'detail': 1, 'uid': 'f8e61f512db42319e215f956', 'detail_info': {'tag': '教育培训;培训机构', 'type': 'education', 'detail_url': 'http://api.map.baidu.com/place/detail?uid=f8e61f512db42319e215f956&output=html&source=placeapi_v2', 'overall_rating': '5.0', 'comment_num': '2', 'children': []}}"
奕德围棋学校,108.9370943204709,34.27116675232678,00f1c7fb382d4462c056ac0c,"{'name': '奕德围棋学校', 'location': {'lat': 34.275767, 'lng': 108.948181}, 'address': '陕西省西安市莲湖区莲湖公园北门东侧', 'province': '陕西省', 'city': '西安市', 'area': '莲湖区', 'street_id': '00f1c7fb382d4462c056ac0c', 'telephone': '(029)87325628', 'detail': 1, 'uid': '00f1c7fb382d4462c056ac0c', 'detail_info': {'tag': '教育培训;培训机构', 'navi_location': {'lng': 108.94818106083, 'lat': 34.275915324044}, 'type': 'education', 'detail_url': 'http://api.map.baidu.com/place/detail?uid=00f1c7fb382d4462c056ac0c&output=html&source=placeapi_v2', 'overall_rating': '5.0', 'comment_num': '3', 'children': []}}"
"{'name': '奕德围棋学校', 'location': {'lat': 34.275767, 'lng': 108.948181}, 'address': '陕西省西安市莲湖区莲湖公园北门东侧', 'province': '陕西省', 'city': '西安市', 'area': '莲湖区', 'street_id': '00f1c7fb382d4462c056ac0c', 'telephone': '(029)87325628', 'detail': 1, 'uid': '00f1c7fb382d4462c056ac0c', 'detail_info': {'tag': '教育培训;培训机构', 'navi_location': {'lng': 108.94818106083, 'lat': 34.275915324044}, 'type': 'education', 'detail_url': 'http://api.map.baidu.com/place/detail?uid=00f1c7fb382d4462c056ac0c&output=html&source=placeapi_v2', 'overall_rating': '5.0', 'comment_num': '3', 'children': []}}"
西安求实教育辅导中心,108.88715567657559,34.21844293405821,3b02d750d7ff7fa3dfee8b9a,"{'name': '西安求实教育辅导中心', 'location': {'lat': 34.222512, 'lng': 108.898343}, 'address': '唐延路37号CLASS国际公馆D座1406', 'province': '陕西省', 'city': '西安市', 'area': '雁塔区', 'street_id': '3b02d750d7ff7fa3dfee8b9a', 'detail': 1, 'uid': '3b02d750d7ff7fa3dfee8b9a', 'detail_info': {'tag': '教育培训;培训机构', 'type': 'education', 'detail_url': 'http://api.map.baidu.com/place/detail?uid=3b02d750d7ff7fa3dfee8b9a&output=html&source=placeapi_v2', 'overall_rating': '5.0', 'children': []}}"
"{'name': '西安求实教育辅导中心', 'location': {'lat': 34.222512, 'lng': 108.898343}, 'address': '唐延路37号CLASS国际公馆D座1406', 'province': '陕西省', 'city': '西安市', 'area': '雁塔区', 'street_id': '3b02d750d7ff7fa3dfee8b9a', 'detail': 1, 'uid': '3b02d750d7ff7fa3dfee8b9a', 'detail_info': {'tag': '教育培训;培训机构', 'type': 'education', 'detail_url': 'http://api.map.baidu.com/place/detail?uid=3b02d750d7ff7fa3dfee8b9a&output=html&source=placeapi_v2', 'overall_rating': '5.0', 'children': []}}"
波特教育吉祥路总校,108.92619530820292,34.224812115738814,5b25f4467d62a3ea1029356a,"{'name': '波特教育吉祥路总校', 'location': {'lat': 34.229213, 'lng': 108.937333}, 'address': '吉祥路21G5层', 'province': '陕西省', 'city': '西安市', 'area': '雁塔区', 'street_id': '6033f34441647f460c0e6b29', 'detail': 1, 'uid': '5b25f4467d62a3ea1029356a', 'detail_info': {'tag': '教育培训;培训机构', 'navi_location': {'lng': 108.93733280011, 'lat': 34.228992344791}, 'type': 'education', 'detail_url': 'http://api.map.baidu.com/place/detail?uid=5b25f4467d62a3ea1029356a&output=html&source=placeapi_v2', 'price': '0.0', 'overall_rating': '5.0', 'comment_num': '3', 'children': []}}"
"{'name': '波特教育吉祥路总校', 'location': {'lat': 34.229213, 'lng': 108.937333}, 'address': '吉祥路21G5层', 'province': '陕西省', 'city': '西安市', 'area': '雁塔区', 'street_id': '6033f34441647f460c0e6b29', 'detail': 1, 'uid': '5b25f4467d62a3ea1029356a', 'detail_info': {'tag': '教育培训;培训机构', 'navi_location': {'lng': 108.93733280011, 'lat': 34.228992344791}, 'type': 'education', 'detail_url': 'http://api.map.baidu.com/place/detail?uid=5b25f4467d62a3ea1029356a&output=html&source=placeapi_v2', 'price': '0.0', 'overall_rating': '5.0', 'comment_num': '3', 'children': []}}"
金子教育,108.90581148167102,34.22911931247597,923a90058fae097acae33caa,"{'name': '金子教育', 'location': {'lat': 34.233212, 'lng': 108.917009}, 'address': '西安市雁塔区科技路16号', 'province': '陕西省', 'city': '西安市', 'area': '雁塔区', 'street_id': '923a90058fae097acae33caa', 'detail': 1, 'uid': '923a90058fae097acae33caa', 'detail_info': {'tag': '教育培训;培训机构', 'type': 'education', 'detail_url': 'http://api.map.baidu.com/place/detail?uid=923a90058fae097acae33caa&output=html&source=placeapi_v2', 'overall_rating': '5.0', 'comment_num': '1', 'children': []}}"
"{'name': '金子教育', 'location': {'lat': 34.233212, 'lng': 108.917009}, 'address': '西安市雁塔区科技路16号', 'province': '陕西省', 'city': '西安市', 'area': '雁塔区', 'street_id': '923a90058fae097acae33caa', 'detail': 1, 'uid': '923a90058fae097acae33caa', 'detail_info': {'tag': '教育培训;培训机构', 'type': 'education', 'detail_url': 'http://api.map.baidu.com/place/detail?uid=923a90058fae097acae33caa&output=html&source=placeapi_v2', 'overall_rating': '5.0', 'comment_num': '1', 'children': []}}"
华为先通授权培训中心,108.91677447672198,34.225391988775385,6cce302a1c44ad3e2bd7ab83,"{'name': '华为先通授权培训中心', 'location': {'lat': 34.229627, 'lng': 108.927943}, 'address': '吉祥路179号', 'province': '陕西省', 'city': '西安市', 'area': '雁塔区', 'street_id': '6cce302a1c44ad3e2bd7ab83', 'detail': 1, 'uid': '6cce302a1c44ad3e2bd7ab83', 'detail_info': {'tag': '教育培训;培训机构', 'type': 'education', 'detail_url': 'http://api.map.baidu.com/place/detail?uid=6cce302a1c44ad3e2bd7ab83&output=html&source=placeapi_v2', 'overall_rating': '5.0', 'comment_num': '1', 'children': []}}"
"{'name': '华为先通授权培训中心', 'location': {'lat': 34.229627, 'lng': 108.927943}, 'address': '吉祥路179号', 'province': '陕西省', 'city': '西安市', 'area': '雁塔区', 'street_id': '6cce302a1c44ad3e2bd7ab83', 'detail': 1, 'uid': '6cce302a1c44ad3e2bd7ab83', 'detail_info': {'tag': '教育培训;培训机构', 'type': 'education', 'detail_url': 'http://api.map.baidu.com/place/detail?uid=6cce302a1c44ad3e2bd7ab83&output=html&source=placeapi_v2', 'overall_rating': '5.0', 'comment_num': '1', 'children': []}}"
红贝蕾少儿艺术中心,108.91425250850821,34.22971962615851,30874fb62db6ac5888db7301,"{'name': '红贝蕾少儿艺术中心', 'location': {'lat': 34.233917, 'lng': 108.92543}, 'address': '陕西省西安市雁塔区太白南路(云城大酒店)', 'province': '陕西省', 'city': '西安市', 'area': '雁塔区', 'street_id': '30874fb62db6ac5888db7301', 'detail': 1, 'uid': '30874fb62db6ac5888db7301', 'detail_info': {'tag': '教育培训;培训机构', 'navi_location': {'lng': 108.92575411459, 'lat': 34.234109631844}, 'type': 'education', 'detail_url': 'http://api.map.baidu.com/place/detail?uid=30874fb62db6ac5888db7301&output=html&source=placeapi_v2', 'children': []}}"
"{'name': '红贝蕾少儿艺术中心', 'location': {'lat': 34.233917, 'lng': 108.92543}, 'address': '陕西省西安市雁塔区太白南路(云城大酒店)', 'province': '陕西省', 'city': '西安市', 'area': '雁塔区', 'street_id': '30874fb62db6ac5888db7301', 'detail': 1, 'uid': '30874fb62db6ac5888db7301', 'detail_info': {'tag': '教育培训;培训机构', 'navi_location': {'lng': 108.92575411459, 'lat': 34.234109631844}, 'type': 'education', 'detail_url': 'http://api.map.baidu.com/place/detail?uid=30874fb62db6ac5888db7301&output=html&source=placeapi_v2', 'children': []}}"
西北大学(太白校区)-师资培训中心,108.92179730583221,34.24776723549245,9b1cee151e67a5e1c9291599,"{'name': '西北大学(太白校区)-师资培训中心', 'location': {'lat': 34.252095, 'lng': 108.932946}, 'address': '太白路西北大学', 'province': '陕西省', 'city': '西安市', 'area': '碑林区', 'street_id': '9b1cee151e67a5e1c9291599', 'detail': 1, 'uid': '9b1cee151e67a5e1c9291599', 'detail_info': {'tag': '教育培训;培训机构', 'navi_location': {'lng': 108.93015182401, 'lat': 34.254074161864}, 'type': 'education', 'detail_url': 'http://api.map.baidu.com/place/detail?uid=9b1cee151e67a5e1c9291599&output=html&source=placeapi_v2', 'overall_rating': '5.0', 'children': []}}"
"{'name': '西北大学(太白校区)-师资培训中心', 'location': {'lat': 34.252095, 'lng': 108.932946}, 'address': '太白路西北大学', 'province': '陕西省', 'city': '西安市', 'area': '碑林区', 'street_id': '9b1cee151e67a5e1c9291599', 'detail': 1, 'uid': '9b1cee151e67a5e1c9291599', 'detail_info': {'tag': '教育培训;培训机构', 'navi_location': {'lng': 108.93015182401, 'lat': 34.254074161864}, 'type': 'education', 'detail_url': 'http://api.map.baidu.com/place/detail?uid=9b1cee151e67a5e1c9291599&output=html&source=placeapi_v2', 'overall_rating': '5.0', 'children': []}}"
山木培训(外事学院分校),108.86083567357504,34.235242694526825,9d7f65ba5b1923493ce23135,"{'name': '山木培训(外事学院分校)', 'location': {'lat': 34.239718, 'lng': 108.871924}, 'address': '鱼斗路中段', 'province': '陕西省', 'city': '西安市', 'area': '雁塔区', 'street_id': '9d7f65ba5b1923493ce23135', 'telephone': '(029)88518418,(029)88518337', 'detail': 1, 'uid': '9d7f65ba5b1923493ce23135', 'detail_info': {'tag': '教育培训;培训机构', 'type': 'education', 'detail_url': 'http://api.map.baidu.com/place/detail?uid=9d7f65ba5b1923493ce23135&output=html&source=placeapi_v2', 'overall_rating': '5.0', 'comment_num': '2', 'children': []}}"
"{'name': '山木培训(外事学院分校)', 'location': {'lat': 34.239718, 'lng': 108.871924}, 'address': '鱼斗路中段', 'province': '陕西省', 'city': '西安市', 'area': '雁塔区', 'street_id': '9d7f65ba5b1923493ce23135', 'telephone': '(029)88518418,(029)88518337', 'detail': 1, 'uid': '9d7f65ba5b1923493ce23135', 'detail_info': {'tag': '教育培训;培训机构', 'type': 'education', 'detail_url': 'http://api.map.baidu.com/place/detail?uid=9d7f65ba5b1923493ce23135&output=html&source=placeapi_v2', 'overall_rating': '5.0', 'comment_num': '2', 'children': []}}"
关中驾校,108.84398759679358,34.20233270045668,daac0e7c40f50455b9df8fb1,"{'name': '关中驾校', 'location': {'lat': 34.207034, 'lng': 108.855009}, 'address': '铺尚新村花园内', 'province': '陕西省', 'city': '西安市', 'area': '雁塔区', 'street_id': 'daac0e7c40f50455b9df8fb1', 'telephone': '18802979149', 'detail': 1, 'uid': 'daac0e7c40f50455b9df8fb1', 'detail_info': {'tag': '教育培训;培训机构', 'type': 'education', 'detail_url': 'http://api.map.baidu.com/place/detail?uid=daac0e7c40f50455b9df8fb1&output=html&source=placeapi_v2', 'overall_rating': '5.0', 'comment_num': '1', 'children': []}}"
"{'name': '关中驾校', 'location': {'lat': 34.207034, 'lng': 108.855009}, 'address': '铺尚新村花园内', 'province': '陕西省', 'city': '西安市', 'area': '雁塔区', 'street_id': 'daac0e7c40f50455b9df8fb1', 'telephone': '18802979149', 'detail': 1, 'uid': 'daac0e7c40f50455b9df8fb1', 'detail_info': {'tag': '教育培训;培训机构', 'type': 'education', 'detail_url': 'http://api.map.baidu.com/place/detail?uid=daac0e7c40f50455b9df8fb1&output=html&source=placeapi_v2', 'overall_rating': '5.0', 'comment_num': '1', 'children': []}}"
西部驾校报名点(鱼镐路),108.84119344858087,34.23350994565229,81a07b6efc791867e0110302,"{'name': '西部驾校报名点(鱼镐路)', 'location': {'lat': 34.23825, 'lng': 108.852234}, 'address': '西安市雁塔区鱼镐路鱼化寨考场对面1层', 'province': '陕西省', 'city': '西安市', 'area': '雁塔区', 'street_id': '81a07b6efc791867e0110302', 'telephone': '(029)81339163', 'detail': 1, 'uid': '81a07b6efc791867e0110302', 'detail_info': {'tag': '教育培训;培训机构', 'navi_location': {'lng': 108.85234717094, 'lat': 34.238413942649}, 'type': 'education', 'detail_url': 'http://api.map.baidu.com/place/detail?uid=81a07b6efc791867e0110302&output=html&source=placeapi_v2', 'price': '0.0', 'overall_rating': '5.0', 'comment_num': '3', 'children': []}}"
"{'name': '西部驾校报名点(鱼镐路)', 'location': {'lat': 34.23825, 'lng': 108.852234}, 'address': '西安市雁塔区鱼镐路鱼化寨考场对面1层', 'province': '陕西省', 'city': '西安市', 'area': '雁塔区', 'street_id': '81a07b6efc791867e0110302', 'telephone': '(029)81339163', 'detail': 1, 'uid': '81a07b6efc791867e0110302', 'detail_info': {'tag': '教育培训;培训机构', 'navi_location': {'lng': 108.85234717094, 'lat': 34.238413942649},