[{"name": "\u534e\u6e05\u8fdc\u89c1(\u897f\u5b89\u5206\u4e2d\u5fc3)", "location": {"lat": 34.242133, "lng": 108.910738}, "address": "\u897f\u5b89\u5e02\u9ad8\u65b0\u533a\u5149\u534e\u8def\u548c\u9ad8\u65b0\u4e00\u8def\u4ea4\u6c47\u53e3\u9ad8\u65b0\u4e00\u8def12\u53f7\u5929\u516c\u5927\u53a6\u4e94\u5c42(\u548c\u9890\u9152\u5e97\u5bf9\u9762)", "province": "\u9655\u897f\u7701", "city": "\u897f\u5b89\u5e02", "area": "\u96c1\u5854\u533a", "street_id": "0adc5b322ff91e212cb17ef9", "detail": 1, "uid": "0adc5b322ff91e212cb17ef9", "detail_info": {"tag": "\u6559\u80b2\u57f9\u8bad;\u57f9\u8bad\u673a\u6784", "navi_location": {"lng": 108.91102712877, "lat": 34.242375822798}, "type": "education", "detail_url": "http://api.map.baidu.com/place/detail?uid=0adc5b322ff91e212cb17ef9&output=html&source=placeapi_v2", "price": "0.0", "children": []}}, {"name": "\u9655\u897f\u5723\u7ecf\u5b66\u6821", "location": {"lat": 34.240346, "lng": 108.884653}, "address": "\u9ad8\u65b0\u516d\u8def5\u53f7", "province": "\u9655\u897f\u7701", "city": "\u897f\u5b89\u5e02", "area": "\u96c1\u5854\u533a", "street_id": "56f2f69666b8c8800aa8d46a", "telephone": "(029)88514778", "detail": 1, "uid": "56f2f69666b8c8800aa8d46a", "detail_info": {"tag": "\u6559\u80b2\u57f9\u8bad;\u57f9\u8bad\u673a\u6784", "navi_location": {"lng": 108.88390609427, "lat": 34.240421257444}, "type": "education", "detail_url": "http://api.map.baidu.com/place/detail?uid=56f2f69666b8c8800aa8d46a&output=html&source=placeapi_v2", "overall_rating": "0.0", "comment_num": "1", "children": []}}, {"name": "\u4e2d\u4ea4\u7b2c\u4e8c\u516c\u8def\u5de5\u7a0b\u5c40\u6709\u9650\u516c\u53f8\u804c\u5de5\u57f9\u8bad\u4e2d\u5fc3", "location": {"lat": 34.22568, "lng": 108.929072}, "address": "\u4e01\u767d\u8def96", "province": "\u9655\u897f\u7701", "city": "\u897f\u5b89\u5e02", "area": "\u96c1\u5854\u533a", "street_id": "75036835dcd502af5e0d0272", "detail": 1, "uid": "75036835dcd502af5e0d0272", "detail_info": {"tag": "\u6559\u80b2\u57f9\u8bad;\u57f9\u8bad\u673a\u6784", "type": "education", "detail_url": "http://api.map.baidu.com/place/detail?uid=75036835dcd502af5e0d0272&output=html&source=placeapi_v2", "overall_rating": "5.0", "comment_num": "1", "children": []}}, {"name": "\u897f\u5b89\u56fd\u9645\u5b66\u6821", "location": {"lat": 34.200578, "lng": 108.910963}, "address": "\u5b50\u5348\u5927\u9053\u5317\u6bb55\u53f7", "province": "\u9655\u897f\u7701", "city": "\u897f\u5b89\u5e02", "area": "\u96c1\u5854\u533a", "street_id": "e93761f6ca653a71223bf208", "detail": 1, "uid": "e93761f6ca653a71223bf208", "detail_info": {"tag": "\u6559\u80b2\u57f9\u8bad;\u57f9\u8bad\u673a\u6784", "navi_location": {"lng": 108.91113211014, "lat": 34.201037057785}, "type": "education", "detail_url": "http://api.map.baidu.com/place/detail?uid=e93761f6ca653a71223bf208&output=html&source=placeapi_v2", "overall_rating": "5.0", "comment_num": "3", "children": []}}, {"name": "\u897f\u5b89\u82f1\u4f26\u5916\u56fd\u8bed\u57f9\u8bad\u5b66\u6821", "location": {"lat": 34.275085, "lng": 108.949515}, "address": "\u897f\u5b89\u5e02\u5927\u83b2\u82b1\u6c60\u885765\u53f7", "province": "\u9655\u897f\u7701", "city": "\u897f\u5b89\u5e02", "area": "\u83b2\u6e56\u533a", "street_id": "f60a15eddd1daeefbb17e7cf", "telephone": "(029)87336030,(029)87336031,18691025601", "detail": 1, "uid": "f60a15eddd1daeefbb17e7cf", "detail_info": {"tag": "\u6559\u80b2\u57f9\u8bad;\u57f9\u8bad\u673a\u6784", "navi_location": {"lng": 108.94940274016, "lat": 34.275031744461}, "type": "education", "detail_url": "http://api.map.baidu.com/place/detail?uid=f60a15eddd1daeefbb17e7cf&output=html&source=placeapi_v2", "overall_rating": "5.0", "comment_num": "2", "children": []}}, {"name": "\u897f\u5b89\u5e02\u4ea4\u901a\u5b89\u5168\u6559\u80b2\u804c\u4e1a\u5b66\u6821\u5357\u533a\u9a7e\u6821", "location": {"lat": 34.212536, "lng": 108.936745}, "address": "\u4e1c\u4eea\u8def19\u53f7", "province": "\u9655\u897f\u7701", "city": "\u897f\u5b89\u5e02", "area": "\u96c1\u5854\u533a", "street_id": "bb1d38e4b14df74d0c0a706a", "telephone": "(029)88211654", "detail": 1, "uid": "bb1d38e4b14df74d0c0a706a", "detail_info": {"tag": "\u6559\u80b2\u57f9\u8bad;\u57f9\u8bad\u673a\u6784", "type": "education", "detail_url": "http://api.map.baidu.com/place/detail?uid=bb1d38e4b14df74d0c0a706a&output=html&source=placeapi_v2", "overall_rating": "5.0", "comment_num": "1", "children": []}}, {"name": "\u9ed1\u9a6c\u827a\u672f\u57fa\u5730\u7f8e\u672f\u57f9\u8bad\u5b66\u6821", "location": {"lat": 34.22196, "lng": 108.938603}, "address": "\u542b\u5149\u5357\u8def\u7f57\u5bb6\u5be898\u53f7\u53571\u697c", "province": "\u9655\u897f\u7701", "city": "\u897f\u5b89\u5e02", "area": "\u96c1\u5854\u533a", "street_id": "831cdeff10cff8b7e5e96594", "detail": 1, "uid": "aae95c28f210d916afee7a8f", "detail_info": {"tag": "\u6559\u80b2\u57f9\u8bad;\u57f9\u8bad\u673a\u6784", "navi_location": {"lng": 108.93849245503, "lat": 34.221958445436}, "type": "education", "detail_url": "http://api.map.baidu.com/place/detail?uid=aae95c28f210d916afee7a8f&output=html&source=placeapi_v2", "price": "100.0", "overall_rating": "5.0", "comment_num": "1", "children": []}}, {"name": "EF\u82f1\u5b5a\u6559\u80b2\u82f1\u8bed\u57f9\u8bad\u4e2d\u5fc3", "location": {"lat": 34.237747, "lng": 108.910679}, "address": "\u9ad8\u65b0\u533a\u79d1\u6280\u8def33\u53f7\u9ad8\u65b0\u56fd\u9645\u5546\u52a1\u4e2d\u5fc322\u697c2205-2206\u5355\u5143", "province": "\u9655\u897f\u7701", "city": "\u897f\u5b89\u5e02", "area": "\u96c1\u5854\u533a", "street_id": "7cd29a6aae646948b020a8d0", "telephone": "4001188433", "detail": 1, "uid": "7cd29a6aae646948b020a8d0", "detail_info": {"tag": "\u6559\u80b2\u57f9\u8bad;\u57f9\u8bad\u673a\u6784", "navi_location": {"lng": 108.91059046246, "lat": 34.237481330008}, "type": "education", "detail_url": "http://api.map.baidu.com/place/detail?uid=7cd29a6aae646948b020a8d0&output=html&source=placeapi_v2", "price": "0.0", "overall_rating": "2.3", "comment_num": "2", "children": []}}, {"name": "\u897f\u5b89\u4e2d\u56fd\u753b\u9662", "location": {"lat": 34.235355, "lng": 108.937731}, "address": "\u9655\u897f\u7701\u897f\u5b89\u5e02\u96c1\u5854\u533a\u542b\u5149\u5357\u8def296\u53f7", "province": "\u9655\u897f\u7701", "city": "\u897f\u5b89\u5e02", "area": "\u96c1\u5854\u533a", "street_id": "1020060fdd1f50a61894c654", "telephone": "(029)88221057", "detail": 1, "uid": "1020060fdd1f50a61894c654", "detail_info": {"tag": "\u6559\u80b2\u57f9\u8bad;\u57f9\u8bad\u673a\u6784", "navi_location": {"lng": 108.93835118571, "lat": 34.235566497668}, "type": "education", "detail_url": "http://api.map.baidu.com/place/detail?uid=1020060fdd1f50a61894c654&output=html&source=placeapi_v2", "children": []}}, {"name": "\u9655\u897f\u7701\u5173\u4e2d\u804c\u4e1a\u6280\u80fd\u57f9\u8bad\u5b66\u6821", "location": {"lat": 34.230099, "lng": 108.828537}, "address": "\u9c7c\u6597\u8def\u9644\u8fd1", "province": "\u9655\u897f\u7701", "city": "\u897f\u5b89\u5e02", "area": "\u96c1\u5854\u533a", "street_id": "89fd4ea3d693a047e5e96542", "detail": 1, "uid": "89fd4ea3d693a047e5e96542", "detail_info": {"tag": "\u6559\u80b2\u57f9\u8bad;\u57f9\u8bad\u673a\u6784", "navi_location": {"lng": 108.8284228653, "lat": 34.229932122712}, "type": "education", "detail_url": "http://api.map.baidu.com/place/detail?uid=89fd4ea3d693a047e5e96542&output=html&source=placeapi_v2", "overall_rating": "5.0", "comment_num": "1", "children": []}}, {"name": "\u5ef6\u957f\u77f3\u6cb9\u5b89\u5168\u57f9\u8bad\u4e2d\u5fc3", "location": {"lat": 34.24311, "lng": 108.911776}, "address": "\u5149\u6cf0\u8def1\u53f7", "province": "\u9655\u897f\u7701", "city": "\u897f\u5b89\u5e02", "area": "\u96c1\u5854\u533a", "street_id": "eb250f3df1351371240bd055", "detail": 1, "uid": "eb250f3df1351371240bd055", "detail_info": {"tag": "\u6559\u80b2\u57f9\u8bad;\u57f9\u8bad\u673a\u6784", "type": "education", "detail_url": "http://api.map.baidu.com/place/detail?uid=eb250f3df1351371240bd055&output=html&source=placeapi_v2", "overall_rating": "5.0", "comment_num": "2", "children": []}}, {"name": "\u897f\u5b89\u8fdc\u4e1c\u4ec1\u6c11\u9ad8\u8003\u8865\u4e60\u5b66\u6821", "location": {"lat": 34.23891, "lng": 108.872016}, "address": "\u9655\u897f\u7701\u897f\u5b89\u5e02\u96c1\u5854\u533a\u9c7c\u5316\u5be8\u9c7c\u6597\u8def36\u53f7(\u897f\u5b89\u5916\u4e8b\u5b66\u9662\u5357\u6821\u533a\u897f\u4fa7)", "province": "\u9655\u897f\u7701", "city": "\u897f\u5b89\u5e02", "area": "\u96c1\u5854\u533a", "street_id": "3f7fedfe23486fdd5fbe86ac", "detail": 1, "uid": "3f7fedfe23486fdd5fbe86ac", "detail_info": {"tag": "\u6559\u80b2\u57f9\u8bad;\u57f9\u8bad\u673a\u6784", "navi_location": {"lng": 108.87201388486, "lat": 34.239577859752}, "type": "education", "detail_url": "http://api.map.baidu.com/place/detail?uid=3f7fedfe23486fdd5fbe86ac&output=html&source=placeapi_v2", "overall_rating": "5.0", "comment_num": "1", "children": []}}, {"name": "\u897f\u5b89\u4ea4\u901a\u5927\u5b66-\u542f\u5fb7\u4e66\u9662", "location": {"lat": 34.221018, "lng": 108.94437}, "address": "\u6731\u96c0\u5927\u8857205\u53f7", "province": "\u9655\u897f\u7701", "city": "\u897f\u5b89\u5e02", "area": "\u96c1\u5854\u533a", "street_id": "c476efe102ad685d902ca394", "telephone": "(029)82655078", "detail": 1, "uid": "c476efe102ad685d902ca394", "detail_info": {"tag": "\u6559\u80b2\u57f9\u8bad;\u57f9\u8bad\u673a\u6784", "type": "education", "detail_url": "http://api.map.baidu.com/place/detail?uid=c476efe102ad685d902ca394&output=html&source=placeapi_v2", "overall_rating": "5.0", "children": []}}, {"name": "\u897f\u5b89\u4e39\u9752\u6613\u8003\u57f9\u8bad\u4e2d\u5fc3", "location": {"lat": 34.22205, "lng": 108.938603}, "address": "\u542b\u5149\u5357\u8def98\u53f7\u7f57\u5bb6\u5be8\u53171\u697c", "province": "\u9655\u897f\u7701", "city": "\u897f\u5b89\u5e02", "area": "\u96c1\u5854\u533a", "street_id": "7d5f3a0a4d1d43482cb90802", "telephone": "(029)88395771", "detail": 1, "uid": "7d5f3a0a4d1d43482cb90802", "detail_info": {"tag": "\u6559\u80b2\u57f9\u8bad;\u57f9\u8bad\u673a\u6784", "type": "education", "detail_url": "http://api.map.baidu.com/place/detail?uid=7d5f3a0a4d1d43482cb90802&output=html&source=placeapi_v2", "overall_rating": "5.0", "comment_num": "1", "children": []}}, {"name": "\u65b0\u4e1c\u65b9\u8003\u7814\u5b66\u4e60\u4e2d\u5fc3", "location": {"lat": 34.236508, "lng": 108.943312}, "address": "\u5357\u4e8c\u73af\u8def\u897f\u6bb527\u53f7", "province": "\u9655\u897f\u7701", "city": "\u897f\u5b89\u5e02", "area": "\u7891\u6797\u533a", "street_id": "520d9e893d6c517694ec8487", "detail": 1, "uid": "520d9e893d6c517694ec8487", "detail_info": {"tag": "\u6559\u80b2\u57f9\u8bad;\u57f9\u8bad\u673a\u6784", "type": "education", "detail_url": "http://api.map.baidu.com/place/detail?uid=520d9e893d6c517694ec8487&output=html&source=placeapi_v2", "overall_rating": "5.0", "children": []}}, {"name": "\u9655\u897f\u5148\u901a\u7f51\u7edc\u6280\u672f\u5b66\u6821", "location": {"lat": 34.229941, "lng": 108.927574}, "address": "\u5409\u7965\u8def179\u53f7\u96c1\u5854\u4e16\u7eaa\u5546\u52a1\u5927\u53a6A\u5ea78\u5c42", "province": "\u9655\u897f\u7701", "city": "\u897f\u5b89\u5e02", "area": "\u96c1\u5854\u533a", "street_id": "52b88f6ef4b6ae58102935de", "detail": 1, "uid": "52b88f6ef4b6ae58102935de", "detail_info": {"tag": "\u6559\u80b2\u57f9\u8bad;\u57f9\u8bad\u673a\u6784", "type": "education", "detail_url": "http://api.map.baidu.com/place/detail?uid=52b88f6ef4b6ae58102935de&output=html&source=placeapi_v2", "price": "0.0", "children": []}}, {"name": "\u897f\u5b89\u793e\u4f1a\u79d1\u5b66\u57f9\u8bad\u5b66\u6821", "location": {"lat": 34.223952, "lng": 108.942872}, "address": "\u897f\u5b89\u5e02\u96c1\u5854\u533a\u96c1\u5854\u897f\u8def158\u53f7", "province": "\u9655\u897f\u7701", "city": "\u897f\u5b89\u5e02", "area": "\u96c1\u5854\u533a", "street_id": "c3382ea01a6ff645c51b75ec", "detail": 1, "uid": "c3382ea01a6ff645c51b75ec", "detail_info": {"tag": "\u6559\u80b2\u57f9\u8bad;\u57f9\u8bad\u673a\u6784", "type": "education", "detail_url": "http://api.map.baidu.com/place/detail?uid=c3382ea01a6ff645c51b75ec&output=html&source=placeapi_v2", "overall_rating": "5.0", "comment_num": "1", "children": []}}, {"name": "\u745e\u601d\u5b66\u79d1\u82f1\u8bed(\u897f\u5b89)", "location": {"lat": 34.251104, "lng": 108.893634}, "address": "\u5510\u5ef6\u8def\u5317\u6bb5\u4e0e\u5927\u5be8\u8def\u5341\u5b57\u534e\u5e9c\u65b0\u6843\u56ed2\u53f7\u697c2\u20143\u5c42", "province": "\u9655\u897f\u7701", "city": "\u897f\u5b89\u5e02", "area": "\u96c1\u5854\u533a", "street_id": "f005332c5bbcbd8096ca0797", "telephone": "(029)88856777", "detail": 1, "uid": "f005332c5bbcbd8096ca0797", "detail_info": {"tag": "\u6559\u80b2\u57f9\u8bad;\u57f9\u8bad\u673a\u6784", "type": "education", "detail_url": "http://api.map.baidu.com/place/detail?uid=f005332c5bbcbd8096ca0797&output=html&source=placeapi_v2", "price": "0.0", "overall_rating": "5.0", "children": []}}, {"name": "\u897f\u5b89\u5e02\u5de5\u4e1a\u4ea4\u901a\u5e72\u90e8\u5b66\u6821", "location": {"lat": 34.243503, "lng": 108.864087}, "address": "\u5bcc\u9c7c\u8def166\u53f7", "province": "\u9655\u897f\u7701", "city": "\u897f\u5b89\u5e02", "area": "\u96c1\u5854\u533a", "street_id": "d4034eb3f6232bf7c1364493", "detail": 1, "uid": "d4034eb3f6232bf7c1364493", "detail_info": {"tag": "\u6559\u80b2\u57f9\u8bad;\u57f9\u8bad\u673a\u6784", "navi_location": {"lng": 108.86373613254, "lat": 34.243810313446}, "type": "education", "detail_url": "http://api.map.baidu.com/place/detail?uid=d4034eb3f6232bf7c1364493&output=html&source=placeapi_v2", "overall_rating": "5.0", "comment_num": "1", "children": []}}, {"name": "ge\u4e2d\u56fd\u521b\u65b0\u4e2d\u5fc3", "location": {"lat": 34.197698, "lng": 108.879417}, "address": "\u897f\u5b89\u5e02\u96c1\u5854\u533a\u9526\u4e1a1\u8def29\u53f7", "province": "\u9655\u897f\u7701", "city": "\u897f\u5b89\u5e02", "area": "\u96c1\u5854\u533a", "street_id": "1b80f3d9de656b2d2cb96dc4", "detail": 1, "uid": "756a99420d54b01ad23ce3c8", "detail_info": {"tag": "\u6559\u80b2\u57f9\u8bad;\u57f9\u8bad\u673a\u6784", "navi_location": {"lng": 108.87941743501, "lat": 34.19753791111}, "type": "education", "detail_url": "http://api.map.baidu.com/place/detail?uid=756a99420d54b01ad23ce3c8&output=html&source=placeapi_v2", "overall_rating": "0.0", "comment_num": "1", "children": []}}, {"name": "\u5c71\u6728\u57f9\u8bad(\u571f\u95e8\u5206\u6821)", "location": {"lat": 34.264858, "lng": 108.891046}, "address": "\u4e30\u9550\u897f\u8def100\u53f7", "province": "\u9655\u897f\u7701", "city": "\u897f\u5b89\u5e02", "area": "\u83b2\u6e56\u533a", "street_id": "78bd50f796ef615b31870a3b", "telephone": "(029)84250592", "detail": 1, "uid": "78bd50f796ef615b31870a3b", "detail_info": {"tag": "\u6559\u80b2\u57f9\u8bad;\u57f9\u8bad\u673a\u6784", "navi_location": {"lng": 108.89125550804, "lat": 34.265102464507}, "type": "education", "detail_url": "http://api.map.baidu.com/place/detail?uid=78bd50f796ef615b31870a3b&output=html&source=placeapi_v2", "overall_rating": "4.3", "comment_num": "11", "children": []}}, {"name": "\u6e05\u534e\u5927\u5b66\u9644\u5c5e\u4e2d\u5b66\u540c\u65b9\u591a\u5a92\u4f53\u793a\u8303\u5b66\u6821", "location": {"lat": 34.210885, "lng": 108.932058}, "address": "\u4e1c\u4eea\u8def162", "province": "\u9655\u897f\u7701", "city": "\u897f\u5b89\u5e02", "area": "\u96c1\u5854\u533a", "street_id": "971277c50c9c513d2bd7ab57", "detail": 1, "uid": "971277c50c9c513d2bd7ab57", "detail_info": {"tag": "\u6559\u80b2\u57f9\u8bad;\u5176\u4ed6", "navi_location": {"lng": 108.93238620176, "lat": 34.210920089345}, "type": "education", "detail_url": "http://api.map.baidu.com/place/detail?uid=971277c50c9c513d2bd7ab57&output=html&source=placeapi_v2", "overall_rating": "5.0", "children": []}}, {"name": "\u745e\u68ee\u82f1\u8bed", "location": {"lat": 34.181401, "lng": 108.876654}, "address": "\u9655\u897f\u7701\u897f\u5b89\u5e02\u957f\u5b89\u533a\u9ad8\u65b0\u533a\u7d2b\u8587\u7530\u56ed\u90fd\u5e02F\u533a\u5546\u4e1a\u6b65\u884c\u8857", "province": "\u9655\u897f\u7701", "city": "\u897f\u5b89\u5e02", "area": "\u957f\u5b89\u533a", "street_id": "05a961fff4bb65ef230262a6", "detail": 1, "uid": "05a961fff4bb65ef230262a6", "detail_info": {"tag": "\u6559\u80b2\u57f9\u8bad;\u57f9\u8bad\u673a\u6784", "type": "education", "detail_url": "http://api.map.baidu.com/place/detail?uid=05a961fff4bb65ef230262a6&output=html&source=placeapi_v2", "overall_rating": "5.0", "comment_num": "2", "children": []}}, {"name": "\u5e86\u534e\u9a7e\u6821", "location": {"lat": 34.181432, "lng": 108.868052}, "address": "\u9655\u897f\u7701\u897f\u5b89\u5e02\u957f\u5b89\u533a\u9093\u5e97\u5317\u9526\u4e1a\u56db\u8def\u957f\u5b89\u56ed\u516c\u5bd3\u5c0f\u533a\u4e1c\u533a", "province": "\u9655\u897f\u7701", "city": "\u897f\u5b89\u5e02", "area": "\u957f\u5b89\u533a", "street_id": "5ebc93df683823a45abbbc8e", "telephone": "(029)68805427,15229331261", "detail": 1, "uid": "5ebc93df683823a45abbbc8e", "detail_info": {"tag": "\u6559\u80b2\u57f9\u8bad;\u57f9\u8bad\u673a\u6784", "type": "education", "detail_url": "http://api.map.baidu.com/place/detail?uid=5ebc93df683823a45abbbc8e&output=html&source=placeapi_v2", "overall_rating": "5.0", "comment_num": "2", "children": []}}, {"name": "\u9655\u897f\u7701\u4f53\u80b2\u8fd0\u52a8\u5b66\u6821", "location": {"lat": 34.240536, "lng": 108.945954}, "address": "\u6731\u96c0\u5927\u8857\u4e2d\u6bb59\u53f7", "province": "\u9655\u897f\u7701", "city": "\u897f\u5b89\u5e02", "area": "\u7891\u6797\u533a", "street_id": "fd13a3f2de43aefbb1077d36", "telephone": "(029)85252354,(029)85258455", "detail": 1, "uid": "fd13a3f2de43aefbb1077d36", "detail_info": {"tag": "\u6559\u80b2\u57f9\u8bad;\u57f9\u8bad\u673a\u6784", "navi_location": {"lng": 108.94574169426, "lat": 34.240388372322}, "type": "education", "detail_url": "http://api.map.baidu.com/place/detail?uid=fd13a3f2de43aefbb1077d36&output=html&source=placeapi_v2", "overall_rating": "5.0", "comment_num": "4", "children": []}}, {"name": "\u91d1\u8272\u96e8\u6797(\u897f\u5b89\u5206\u4e2d\u5fc3)", "location": {"lat": 34.242157, "lng": 108.897944}, "address": "\u9ad8\u65b0\u533a\u65fa\u5ea7\u56fd\u9645\u57ceC\u5ea7\u5e95\u55463\u697c", "province": "\u9655\u897f\u7701", "city": "\u897f\u5b89\u5e02", "area": "\u96c1\u5854\u533a", "street_id": "829236d9b898058b14b54b59", "telephone": "(029)84504636", "detail": 1, "uid": "829236d9b898058b14b54b59", "detail_info": {"tag": "\u6559\u80b2\u57f9\u8bad;\u57f9\u8bad\u673a\u6784", "type": "education", "detail_url": "http://api.map.baidu.com/place/detail?uid=829236d9b898058b14b54b59&output=html&source=placeapi_v2", "price": "0.0", "children": []}}, {"name": "\u6fb3\u6d32\u888b\u9f20\u56fd\u9645\u65e9\u6559", "location": {"lat": 34.234472, "lng": 108.942785}, "address": "\u897f\u5b89\u5e02\u96c1\u5854\u533a\u4e8c\u73af\u5357\u8def\u897f\u6bb564\u53f7\u51ef\u5fb7\u5e7f\u573a\u65b0\u5730\u57ceF5", "province": "\u9655\u897f\u7701", "city": "\u897f\u5b89\u5e02", "area": "\u96c1\u5854\u533a", "street_id": "8e99528793421c9621022022", "detail": 1, "uid": "8e99528793421c9621022022", "detail_info": {"tag": "\u6559\u80b2\u57f9\u8bad;\u57f9\u8bad\u673a\u6784", "indoor_floor": "F5", "type": "education", "detail_url": "http://api.map.baidu.com/place/detail?uid=8e99528793421c9621022022&output=html&source=placeapi_v2", "children": []}}, {"name": "\u897f\u5b89\u6768\u5065\u6587\u5316\u6559\u80b2\u57f9\u8bad\u5b66\u6821(\u4e30\u9550\u897f\u8def)", "location": {"lat": 34.265343, "lng": 108.894935}, "address": "\u4e30\u9550\u897f\u8def7\u53f7\u571f\u95e8\u5341\u5b57\u897f\u5317\u89d2\u5e86\u5b89\u5bbe\u9986\u9662\u5185", "province": "\u9655\u897f\u7701", "city": "\u897f\u5b89\u5e02", "area": "\u83b2\u6e56\u533a", "street_id": "108b1cea07209aad3586f41b", "detail": 1, "uid": "108b1cea07209aad3586f41b", "detail_info": {"tag": "\u6559\u80b2\u57f9\u8bad;\u57f9\u8bad\u673a\u6784", "navi_location": {"lng": 108.89493384363, "lat": 34.265127478973}, "type": "education", "detail_url": "http://api.map.baidu.com/place/detail?uid=108b1cea07209aad3586f41b&output=html&source=placeapi_v2", "overall_rating": "5.0", "comment_num": "3", "children": []}}, {"name": "\u82f1\u8bfa\u6d25\u5178\u6559\u80b2\u4e2d\u5fc3", "location": {"lat": 34.250133, "lng": 108.916419}, "address": "\u52b3\u52a8\u5357\u8def88\u53f7\u7b2c\u4e00\u5e6211601\u53f7", "province": "\u9655\u897f\u7701", "city": "\u897f\u5b89\u5e02", "area": "\u83b2\u6e56\u533a", "street_id": "a7820d52ff1e62b6fb22131e", "detail": 1, "uid": "a7820d52ff1e62b6fb22131e", "detail_info": {"tag": "\u6559\u80b2\u57f9\u8bad;\u57f9\u8bad\u673a\u6784", "type": "education", "detail_url": "http://api.map.baidu.com/place/detail?uid=a7820d52ff1e62b6fb22131e&output=html&source=placeapi_v2", "price": "0.0", "comment_num": "2", "children": []}}, {"name": "\u897f\u5b89\u7891\u6797\u9ed1\u535a\u58eb\u57f9\u8bad\u5b66\u6821(\u9ad8\u65b0\u5206\u6821)", "location": {"lat": 34.239585, "lng": 108.913349}, "address": "\u9ad8\u65b0\u8def33\u53f7\u65b0\u6c47\u5927\u53a6B\u5ea76\u5c42", "province": "\u9655\u897f\u7701", "city": "\u897f\u5b89\u5e02", "area": "\u96c1\u5854\u533a", "street_id": "02e8db59ec516095e812e4ae", "detail": 1, "uid": "02e8db59ec516095e812e4ae", "detail_info": {"tag": "\u6559\u80b2\u57f9\u8bad;\u57f9\u8bad\u673a\u6784", "type": "education", "detail_url": "http://api.map.baidu.com/place/detail?uid=02e8db59ec516095e812e4ae&output=html&source=placeapi_v2", "overall_rating": "5.0", "children": []}}, {"name": "\u4ec1\u548c\u4f1a\u8ba1\u57f9\u8bad(\u9ad8\u65b0\u6821\u533a)", "location": {"lat": 34.242021, "lng": 108.89831}, "address": "\u5510\u5ef6\u8def1\u53f7\u65fa\u5ea7\u56fd\u9645\u57ceD\u5ea715\u5c42", "province": "\u9655\u897f\u7701", "city": "\u897f\u5b89\u5e02", "area": "\u96c1\u5854\u533a", "street_id": "49c8f638b9ade9a652e5c584", "detail": 1, "uid": "49c8f638b9ade9a652e5c584", "detail_info": {"tag": "\u6559\u80b2\u57f9\u8bad;\u57f9\u8bad\u673a\u6784", "type": "education", "detail_url": "http://api.map.baidu.com/place/detail?uid=49c8f638b9ade9a652e5c584&output=html&source=placeapi_v2", "price": "0.0", "children": []}}, {"name": "\u4f73\u97f3\u82f1\u8bed", "location": {"lat": 34.260646, "lng": 108.916219}, "address": "\u9655\u897f\u7701\u897f\u5b89\u5e02\u83b2\u6e56\u533a\u52b3\u52a8\u5357\u8def240\u53f7\u7d2b\u91d1\u5927\u53a65\u5c42", "province": "\u9655\u897f\u7701", "city": "\u897f\u5b89\u5e02", "area": "\u83b2\u6e56\u533a", "street_id": "a12baa407296482be956fa83", "telephone": "(029)82272222", "detail": 1, "uid": "a12baa407296482be956fa83", "detail_info": {"tag": "\u6559\u80b2\u57f9\u8bad;\u57f9\u8bad\u673a\u6784", "type": "education", "detail_url": "http://api.map.baidu.com/place/detail?uid=a12baa407296482be956fa83&output=html&source=placeapi_v2", "overall_rating": "5.0", "comment_num": "2", "children": []}}, {"name": "\u535a\u5b89\u9a7e\u6821(\u4e08\u516b\u5317\u8def)", "location": {"lat": 34.24676, "lng": 108.878607}, "address": "\u4e08\u516b\u5317\u8def66\u53f7", "province": "\u9655\u897f\u7701", "city": "\u897f\u5b89\u5e02", "area": "\u96c1\u5854\u533a", "street_id": "750ec1652c67602b4c3a5942", "telephone": "(029)84258412", "detail": 1, "uid": "750ec1652c67602b4c3a5942", "detail_info": {"tag": "\u6559\u80b2\u57f9\u8bad;\u57f9\u8bad\u673a\u6784", "navi_location": {"lng": 108.87876311197, "lat": 34.246747967668}, "type": "education", "detail_url": "http://api.map.baidu.com/place/detail?uid=750ec1652c67602b4c3a5942&output=html&source=placeapi_v2", "overall_rating": "4.0", "comment_num": "3", "children": []}}, {"name": "\u4e2d\u4ea4\u7b2c\u4e8c\u516c\u8def\u5de5\u7a0b\u5c40\u6709\u9650\u516c\u53f8\u6280\u5de5\u5b66\u6821", "location": {"lat": 34.225866, "lng": 108.928827}, "address": "\u4e01\u767d\u8def96\u53f7", "province": "\u9655\u897f\u7701", "city": "\u897f\u5b89\u5e02", "area": "\u96c1\u5854\u533a", "street_id": "4cf8d24e7091ffe49cf7796a", "telephone": "(029)88210144", "detail": 1, "uid": "4cf8d24e7091ffe49cf7796a", "detail_info": {"tag": "\u6559\u80b2\u57f9\u8bad;\u57f9\u8bad\u673a\u6784", "navi_location": {"lng": 108.92883697154, "lat": 34.226020731936}, "type": "education", "detail_url": "http://api.map.baidu.com/place/detail?uid=4cf8d24e7091ffe49cf7796a&output=html&source=placeapi_v2", "overall_rating": "5.0", "comment_num": "1", "children": []}}, {"name": "\u6c49\u666e\u68ee\u82f1\u8bed(\u949f\u697c\u5b66\u4e60\u4e2d\u5fc3)", "location": {"lat": 34.275822, "lng": 108.950462}, "address": "\u9655\u897f\u7701\u897f\u5b89\u5e02\u83b2\u6e56\u533a\u83b2\u6e56\u8def36\u53f7", "province": "\u9655\u897f\u7701", "city": "\u897f\u5b89\u5e02", "area": "\u83b2\u6e56\u533a", "street_id": "a3a2a19b3ddc57e815a1909f", "detail": 1, "uid": "a3a2a19b3ddc57e815a1909f", "detail_info": {"tag": "\u6559\u80b2\u57f9\u8bad;\u57f9\u8bad\u673a\u6784", "type": "education", "detail_url": "http://api.map.baidu.com/place/detail?uid=a3a2a19b3ddc57e815a1909f&output=html&source=placeapi_v2", "price": "0.0", "overall_rating": "5.0", "comment_num": "1", "children": []}}, {"name": "\u897f\u5b89\u8f6f\u4ef6\u670d\u52a1\u5916\u5305\u5b66\u9662", "location": {"lat": 34.230723, "lng": 108.889859}, "address": "\u9655\u897f\u7701\u897f\u5b89\u5e02\u96c1\u5854\u533a\u897f\u5b89\u8f6f\u4ef6\u56ed\u79e6\u98ce\u9601C\u5ea7C101/E\u5ea7101~103", "province": "\u9655\u897f\u7701", "city": "\u897f\u5b89\u5e02", "area": "\u96c1\u5854\u533a", "street_id": "fd968156b2b106df09a8d426", "detail": 1, "uid": "fd968156b2b106df09a8d426", "detail_info": {"tag": "\u6559\u80b2\u57f9\u8bad;\u57f9\u8bad\u673a\u6784", "navi_location": {"lng": 108.88972637108, "lat": 34.230921479659}, "type": "education", "detail_url": "http://api.map.baidu.com/place/detail?uid=fd968156b2b106df09a8d426&output=html&source=placeapi_v2", "overall_rating": "5.0", "comment_num": "1", "children": []}}, {"name": "\u897f\u5b89\u9f99\u6cfd\u6559\u80b2\u57f9\u8bad\u4e2d\u5fc3", "location": {"lat": 34.277919, "lng": 108.949085}, "address": "\u9752\u5e74\u8def\u7acb\u65b0\u885718\u53f7\u7acb\u65b0\u5927\u53a63\u5c42", "province": "\u9655\u897f\u7701", "city": "\u897f\u5b89\u5e02", "area": "\u83b2\u6e56\u533a", "street_id": "0acc1941f2ac3c1140e192d1", "detail": 1, "uid": "0acc1941f2ac3c1140e192d1", "detail_info": {"tag": "\u6559\u80b2\u57f9\u8bad;\u57f9\u8bad\u673a\u6784", "type": "education", "detail_url": "http://api.map.baidu.com/place/detail?uid=0acc1941f2ac3c1140e192d1&output=html&source=placeapi_v2", "overall_rating": "5.0", "comment_num": "3", "children": []}}, {"name": "\u6052\u901a\u9a7e\u6821", "location": {"lat": 34.236837, "lng": 108.797661}, "address": "\u5357\u4e30\u6751\u9644\u8fd1", "province": "\u9655\u897f\u7701", "city": "\u897f\u5b89\u5e02", "area": "\u957f\u5b89\u533a", "street_id": "6824fa01f1c668056fc02c5b", "detail": 1, "uid": "6824fa01f1c668056fc02c5b", "detail_info": {"tag": "\u6559\u80b2\u57f9\u8bad;\u57f9\u8bad\u673a\u6784", "type": "education", "detail_url": "http://api.map.baidu.com/place/detail?uid=6824fa01f1c668056fc02c5b&output=html&source=placeapi_v2", "overall_rating": "5.0", "comment_num": "0", "children": []}}, {"name": "\u897f\u5b89\u4e1c\u4f73\u82f1\u8bed\u57f9\u8bad\u4e2d\u5fc3", "location": {"lat": 34.229185, "lng": 108.94671}, "address": "\u96c1\u5854\u533a\u5c0f\u5be8\u897f\u8def26\u53f7\u94f6\u6cf0\u57ce9\u697c", "province": "\u9655\u897f\u7701", "city": "\u897f\u5b89\u5e02", "area": "\u96c1\u5854\u533a", "street_id": "05dd7d5f0caa6b02ad080f02", "telephone": "(029)62670000,13519106673", "detail": 1, "uid": "05dd7d5f0caa6b02ad080f02", "detail_info": {"tag": "\u6559\u80b2\u57f9\u8bad;\u57f9\u8bad\u673a\u6784", "type": "education", "detail_url": "http://api.map.baidu.com/place/detail?uid=05dd7d5f0caa6b02ad080f02&output=html&source=placeapi_v2", "price": "0.0", "overall_rating": "3.0", "comment_num": "3", "children": []}}, {"name": "\u897f\u5b89\u4f73\u97f3\u82f1\u8bed\u5b66\u6821", "location": {"lat": 34.239072, "lng": 108.909141}, "address": "\u5149\u5fb7\u8def2\u53f7\u4e2d\u56fd\u8054\u901a\u897f\u9ad8\u65b0\u8425\u4e1a\u53854\u5c42", "province": "\u9655\u897f\u7701", "city": "\u897f\u5b89\u5e02", "area": "\u96c1\u5854\u533a", "street_id": "78e331dc35206638593ac8fe", "detail": 1, "uid": "78e331dc35206638593ac8fe", "detail_info": {"tag": "\u6559\u80b2\u57f9\u8bad;\u57f9\u8bad\u673a\u6784", "type": "education", "detail_url": "http://api.map.baidu.com/place/detail?uid=78e331dc35206638593ac8fe&output=html&source=placeapi_v2", "overall_rating": "5.0", "children": []}}, {"name": "\u4e1c\u4e9a\u897f\u6587\u82f1\u8bed\u660e\u5fb7\u5206\u6821", "location": {"lat": 34.214487, "lng": 108.945159}, "address": "\u6731\u96c0\u5927\u8857\u5929\u4f26\u660e\u73e0\u5927\u53a62\u5c42", "province": "\u9655\u897f\u7701", "city": "\u897f\u5b89\u5e02", "area": "\u96c1\u5854\u533a", "street_id": "4cf8d24ecf7bb0999cf7790f", "detail": 1, "uid": "4cf8d24ecf7bb0999cf7790f", "detail_info": {"tag": "\u6559\u80b2\u57f9\u8bad;\u57f9\u8bad\u673a\u6784", "type": "education", "detail_url": "http://api.map.baidu.com/place/detail?uid=4cf8d24ecf7bb0999cf7790f&output=html&source=placeapi_v2", "price": "0.0", "overall_rating": "5.0", "comment_num": "1", "children": []}}, {"name": "\u97e6\u535a\u56fd\u9645\u82f1\u8bed(\u949f\u697c\u4e2d\u5fc3)", "location": {"lat": 34.265089, "lng": 108.94933}, "address": "\u897f\u5b89\u5e02\u7891\u6797\u533a\u897f\u5927\u885748\u53f7\u94f6\u6cf0\u767e\u8d27F7", "province": "\u9655\u897f\u7701", "city": "\u897f\u5b89\u5e02", "area": "\u7891\u6797\u533a", "street_id": "180217b9a9fdaa88f50e77c4", "telephone": "4009209796", "detail": 1, "uid": "2dd1855276e6eaffca291512", "detail_info": {"tag": "\u6559\u80b2\u57f9\u8bad;\u57f9\u8bad\u673a\u6784", "indoor_floor": "F7", "type": "education", "detail_url": "http://api.map.baidu.com/place/detail?uid=2dd1855276e6eaffca291512&output=html&source=placeapi_v2", "comment_num": "1", "children": []}}, {"name": "\u6d77\u4f26\u591a\u5170\u5c11\u513f\u82f1\u8bed", "location": {"lat": 34.265985, "lng": 108.945936}, "address": "\u83b2\u6e56\u533a\u897f\u5927\u8857\u767e\u76db\u65f6\u4ee3\u76db\u51788F", "province": "\u9655\u897f\u7701", "city": "\u897f\u5b89\u5e02", "area": "\u83b2\u6e56\u533a", "street_id": "a28a134beeb72e51d13ce398", "detail": 1, "uid": "98480894c32223fe9868b4e8", "detail_info": {"tag": "\u6559\u80b2\u57f9\u8bad;\u57f9\u8bad\u673a\u6784", "navi_location": {"lng": 108.9454722044, "lat": 34.266189652879}, "type": "education", "detail_url": "http://api.map.baidu.com/place/detail?uid=98480894c32223fe9868b4e8&output=html&source=placeapi_v2", "price": "0.0", "overall_rating": "4.3", "comment_num": "1", "children": []}}, {"name": "\u9ad8\u65b0\u524d\u666f\u5916\u56fd\u8bed\u5b66\u6821", "location": {"lat": 34.212848, "lng": 108.925902}, "address": "\u7535\u5b50\u6b63\u885788\u53f7\u51ef\u60a6\u534e\u5eadD\u5ea73\u5c42", "province": "\u9655\u897f\u7701", "city": "\u897f\u5b89\u5e02", "area": "\u96c1\u5854\u533a", "street_id": "1f59e5fc5f7c828af4b9164d", "telephone": "(029)88440151", "detail": 1, "uid": "1f59e5fc5f7c828af4b9164d", "detail_info": {"tag": "\u6559\u80b2\u57f9\u8bad;\u57f9\u8bad\u673a\u6784", "navi_location": {"lng": 108.92613911306, "lat": 34.212851613125}, "type": "education", "detail_url": "http://api.map.baidu.com/place/detail?uid=1f59e5fc5f7c828af4b9164d&output=html&source=placeapi_v2", "overall_rating": "5.0", "comment_num": "1", "children": []}}, {"name": "\u9ad8\u65b0\u524d\u666f\u5916\u56fd\u8bed\u5b66\u6821(\u4e30\u9550\u4e1c\u8def)", "location": {"lat": 34.265331, "lng": 108.902481}, "address": "\u4e30\u9550\u4e1c\u8def233\u53f73\u5c42", "province": "\u9655\u897f\u7701", "city": "\u897f\u5b89\u5e02", "area": "\u83b2\u6e56\u533a", "street_id": "f1f5cac5d1df8a9836b06c3b", "telephone": "(029)68901810", "detail": 1, "uid": "f1f5cac5d1df8a9836b06c3b", "detail_info": {"tag": "\u6559\u80b2\u57f9\u8bad;\u57f9\u8bad\u673a\u6784", "type": "education", "detail_url": "http://api.map.baidu.com/place/detail?uid=f1f5cac5d1df8a9836b06c3b&output=html&source=placeapi_v2", "overall_rating": "5.0", "comment_num": "1", "children": []}}, {"name": "\u5b66\u5927\u6559\u80b2(\u660e\u5fb7\u6821\u533a)", "location": {"lat": 34.204635, "lng": 108.933887}, "address": "\u9655\u897f\u7701\u897f\u5b89\u5e02\u96c1\u5854\u533a\u4e1c\u4eea\u8def22\u53f7", "province": "\u9655\u897f\u7701", "city": "\u897f\u5b89\u5e02", "area": "\u96c1\u5854\u533a", "street_id": "8caafdf14caf122b13293526", "telephone": "(029)62298858", "detail": 1, "uid": "8caafdf14caf122b13293526", "detail_info": {"tag": "\u6559\u80b2\u57f9\u8bad;\u57f9\u8bad\u673a\u6784", "type": "education", "detail_url": "http://api.map.baidu.com/place/detail?uid=8caafdf14caf122b13293526&output=html&source=placeapi_v2", "comment_num": "3", "children": []}}, {"name": "\u827a\u7af9\u94a2\u7434\u5b66\u6821", "location": {"lat": 34.203932, "lng": 108.883022}, "address": "\u9ad8\u65b0\u533a\u9526\u4e1a\u8def\u4e08\u516b\u4e09\u8def\u5317\u53e3\u7eff\u5730\u4e16\u7eaa\u57ceb\u533a\u6258\u5361\u8857b-20203\u53f7", "province": "\u9655\u897f\u7701", "city": "\u897f\u5b89\u5e02", "area": "\u96c1\u5854\u533a", "street_id": "6660378b41bda5e26ca3cc55", "telephone": "13201637881", "detail": 1, "uid": "6660378b41bda5e26ca3cc55", "detail_info": {"tag": "\u6559\u80b2\u57f9\u8bad;\u57f9\u8bad\u673a\u6784", "type": "education", "detail_url": "http://api.map.baidu.com/place/detail?uid=6660378b41bda5e26ca3cc55&output=html&source=placeapi_v2", "overall_rating": "4.7", "comment_num": "2", "children": []}}, {"name": "\u897f\u5b89\u4e0a\u6797\u82d1\u82b1\u827a\u57f9\u8bad\u5b66\u6821", "location": {"lat": 34.267361, "lng": 108.936142}, "address": "\u897f\u5b89\u5e02\u83b2\u6e56\u533a\u897f\u4e3e\u9662\u5df71\u53f7\u513f\u7ae5\u516c\u56ed\u79d1\u6280\u56ed\u827a\u99864\u697c", "province": "\u9655\u897f\u7701", "city": "\u897f\u5b89\u5e02", "area": "\u83b2\u6e56\u533a", "street_id": "28859993d5765ff145e27494", "detail": 1, "uid": "28859993d5765ff145e27494", "detail_info": {"tag": "\u6559\u80b2\u57f9\u8bad;\u57f9\u8bad\u673a\u6784", "type": "education", "detail_url": "http://api.map.baidu.com/place/detail?uid=28859993d5765ff145e27494&output=html&source=placeapi_v2", "price": "0.0", "children": []}}, {"name": "\u5e86\u534e\u9a7e\u6821", "location": {"lat": 34.207952, "lng": 108.943743}, "address": "\u6731\u96c0\u5927\u8857\u4e0e\u5929\u575b\u897f\u8def\u5341\u5b57\u5411\u897f100\u7c73\u8def\u5357", "province": "\u9655\u897f\u7701", "city": "\u897f\u5b89\u5e02", "area": "\u96c1\u5854\u533a", "street_id": "18b3c4f14df49e1043e192f3", "telephone": "(029)85451599,13359247699", "detail": 1, "uid": "18b3c4f14df49e1043e192f3", "detail_info": {"tag": "\u6559\u80b2\u57f9\u8bad;\u57f9\u8bad\u673a\u6784", "type": "education", "detail_url": "http://api.map.baidu.com/place/detail?uid=18b3c4f14df49e1043e192f3&output=html&source=placeapi_v2", "overall_rating": "5.0", "comment_num": "1", "children": []}}, {"name": "\u849c\u6ce5\u4e50\u535a\u673a\u5668\u4eba\u6559\u80b2", "location": {"lat": 34.203872, "lng": 108.937821}, "address": "\u4e08\u516b\u4e1c\u8def6A-10107\u53f7\u9644\u8fd1", "province": "\u9655\u897f\u7701", "city": "\u897f\u5b89\u5e02", "area": "\u96c1\u5854\u533a", "street_id": "5028f38f43281b3d88fc06cf", "detail": 1, "uid": "5028f38f43281b3d88fc06cf", "detail_info": {"tag": "\u6559\u80b2\u57f9\u8bad;\u57f9\u8bad\u673a\u6784", "type": "education", "detail_url": "http://api.map.baidu.com/place/detail?uid=5028f38f43281b3d88fc06cf&output=html&source=placeapi_v2", "overall_rating": "5.0", "comment_num": "1", "children": []}}, {"name": "\u548c\u58f0\u97f3\u4e50\u827a\u672f\u5b66\u6821", "location": {"lat": 34.206003, "lng": 108.926362}, "address": "\u7535\u5b50\u6b63\u8857\u96c1\u5854\u5546\u52a1A\u5ea77\u5c42", "province": "\u9655\u897f\u7701", "city": "\u897f\u5b89\u5e02", "area": "\u96c1\u5854\u533a", "street_id": "4aeab8ffbb3ed5560aa8d4b5", "detail": 1, "uid": "4aeab8ffbb3ed5560aa8d4b5", "detail_info": {"tag": "\u6559\u80b2\u57f9\u8bad;\u57f9\u8bad\u673a\u6784", "type": "education", "detail_url": "http://api.map.baidu.com/place/detail?uid=4aeab8ffbb3ed5560aa8d4b5&output=html&source=placeapi_v2", "comment_num": "2", "children": []}}, {"name": "\u96c5\u5a1c\u97f3\u4e50\u6559\u80b2\u4e2d\u5fc3(\u9ad8\u65b0\u8def)", "location": {"lat": 34.241093, "lng": 108.914053}, "address": "\u897f\u5b89\u5e02\u9ad8\u65b0\u533a\u7cdc\u5bb6\u6865\u5c0f\u533a\u9ad8\u65b0\u5546\u52a1\u4e09\u5c42", "province": "\u9655\u897f\u7701", "city": "\u897f\u5b89\u5e02", "area": "\u96c1\u5854\u533a", "street_id": "b0d056f27436e07dcac3db02", "detail": 1, "uid": "b0d056f27436e07dcac3db02", "detail_info": {"tag": "\u6559\u80b2\u57f9\u8bad;\u57f9\u8bad\u673a\u6784", "type": "education", "detail_url": "http://api.map.baidu.com/place/detail?uid=b0d056f27436e07dcac3db02&output=html&source=placeapi_v2", "price": "0.0", "overall_rating": "5.0", "comment_num": "2", "children": []}}, {"name": "\u9655\u897f\u7701\u98de\u9038\u821e\u8e48\u827a\u672f\u57f9\u8bad\u4e2d\u5fc3", "location": {"lat": 34.269964, "lng": 108.941816}, "address": "\u9655\u897f\u7701\u897f\u5b89\u5e02\u83b2\u6e56\u533a\u897f\u4ed3\u5357\u5df770\u53f74\u697c", "province": "\u9655\u897f\u7701", "city": "\u897f\u5b89\u5e02", "area": "\u83b2\u6e56\u533a", "street_id": "0770c88c32d68b223f9a5e7b", "detail": 1, "uid": "0770c88c32d68b223f9a5e7b", "detail_info": {"tag": "\u6559\u80b2\u57f9\u8bad;\u57f9\u8bad\u673a\u6784", "navi_location": {"lng": 108.9416323975, "lat": 34.269848527206}, "type": "education", "detail_url": "http://api.map.baidu.com/place/detail?uid=0770c88c32d68b223f9a5e7b&output=html&source=placeapi_v2", "children": []}}, {"name": "\u4e2d\u56fd\u7535\u4fe1\u897f\u5b89\u5e02\u5206\u516c\u53f8\u57f9\u8bad\u4e2d\u5fc3", "location": {"lat": 34.262534, "lng": 108.938594}, "address": "\u4e94\u661f\u88571\u53f7", "province": "\u9655\u897f\u7701", "city": "\u897f\u5b89\u5e02", "area": "\u83b2\u6e56\u533a", "street_id": "dfc496b6f2380fd18936ee09", "detail": 1, "uid": "dfc496b6f2380fd18936ee09", "detail_info": {"tag": "\u6559\u80b2\u57f9\u8bad;\u57f9\u8bad\u673a\u6784", "type": "education", "detail_url": "http://api.map.baidu.com/place/detail?uid=dfc496b6f2380fd18936ee09&output=html&source=placeapi_v2", "overall_rating": "5.0", "children": []}}, {"name": "\u534e\u6d25\u9a7e\u6821(\u5317\u957f\u5b89\u8857)", "location": {"lat": 34.180558, "lng": 108.951747}, "address": "\u9655\u897f\u7701\u897f\u5b89\u5e02\u957f\u5b89\u533a\u5317\u957f\u5b89\u8857380\u53f7", "province": "\u9655\u897f\u7701", "city": "\u897f\u5b89\u5e02", "area": "\u957f\u5b89\u533a", "street_id": "926bc949c78fc510a21de95c", "telephone": "13379088457", "detail": 1, "uid": "926bc949c78fc510a21de95c", "detail_info": {"tag": "\u6559\u80b2\u57f9\u8bad;\u57f9\u8bad\u673a\u6784", "navi_location": {"lng": 108.95147593585, "lat": 34.180555696769}, "type": "education", "detail_url": "http://api.map.baidu.com/place/detail?uid=926bc949c78fc510a21de95c&output=html&source=placeapi_v2", "price": "0.0", "overall_rating": "5.0", "comment_num": "4", "children": []}}, {"name": "\u5f08\u5b66\u56ed\u5c11\u513f\u56f4\u68cb\u4e2d\u5fc3(\u542b\u5149\u95e8\u6821\u533a)", "location": {"lat": 34.256714, "lng": 108.939319}, "address": "\u542b\u5149\u95e8\u5916\u542b\u5149\u5927\u53a66\u5c42", "province": "\u9655\u897f\u7701", "city": "\u897f\u5b89\u5e02", "area": "\u7891\u6797\u533a", "street_id": "5ce2637d52a3ea51ae31e53b", "detail": 1, "uid": "5ce2637d52a3ea51ae31e53b", "detail_info": {"tag": "\u6559\u80b2\u57f9\u8bad;\u57f9\u8bad\u673a\u6784", "navi_location": {"lng": 108.93941115746, "lat": 34.256868560314}, "type": "education", "detail_url": "http://api.map.baidu.com/place/detail?uid=5ce2637d52a3ea51ae31e53b&output=html&source=placeapi_v2", "overall_rating": "5.0", "comment_num": "0", "children": []}}, {"name": "\u897f\u5b89\u5e02\u9a7e\u9a76\u5458\u62a5\u540d\u5927\u5385", "location": {"lat": 34.200014, "lng": 108.884626}, "address": "\u9526\u4e1a\u8def\u7eff\u5730\u4e2d\u592e\u5e7f\u573a\u4e03\u514b\u62c9\u6676\u5ea7\u4e00\u5c42", "province": "\u9655\u897f\u7701", "city": "\u897f\u5b89\u5e02", "area": "\u96c1\u5854\u533a", "street_id": "22848d8aea0bb4ef0c0e6bfb", "detail": 1, "uid": "22848d8aea0bb4ef0c0e6bfb", "detail_info": {"tag": "\u6559\u80b2\u57f9\u8bad;\u57f9\u8bad\u673a\u6784", "navi_location": {"lng": 108.88487745538, "lat": 34.199795022463}, "type": "education", "detail_url": "http://api.map.baidu.com/place/detail?uid=22848d8aea0bb4ef0c0e6bfb&output=html&source=placeapi_v2", "overall_rating": "5.0", "comment_num": "1", "children": []}}, {"name": "\u79e6\u6b66\u5802\u6b66\u672f\u6563\u6253\u57f9\u8bad", "location": {"lat": 34.26321, "lng": 108.929637}, "address": "\u73af\u57ce\u897f\u8def\u5357\u6bb5,\u4e07\u76db\u5bbe\u99868\u697c", "province": "\u9655\u897f\u7701", "city": "\u897f\u5b89\u5e02", "area": "\u83b2\u6e56\u533a", "street_id": "4023e7bb5b13dcf09cec2b31", "detail": 1, "uid": "4023e7bb5b13dcf09cec2b31", "detail_info": {"tag": "\u6559\u80b2\u57f9\u8bad;\u57f9\u8bad\u673a\u6784", "type": "education", "detail_url": "http://api.map.baidu.com/place/detail?uid=4023e7bb5b13dcf09cec2b31&output=html&source=placeapi_v2", "children": []}}, {"name": "\u9e4f\u7fd4\u9a7e\u6821(\u767d\u6c99\u8def\u5e97)", "location": {"lat": 34.236528, "lng": 108.919703}, "address": "\u767d\u6c99\u8def\u6a0a\u5bb6\u814a\u6c41\u8089\u5939\u998d\u5317\u4fa7", "province": "\u9655\u897f\u7701", "city": "\u897f\u5b89\u5e02", "area": "\u96c1\u5854\u533a", "street_id": "5ffba6a478f440af51e5c5ca", "telephone": "(029)88212736", "detail": 1, "uid": "5ffba6a478f440af51e5c5ca", "detail_info": {"tag": "\u6559\u80b2\u57f9\u8bad;\u57f9\u8bad\u673a\u6784", "type": "education", "detail_url": "http://api.map.baidu.com/place/detail?uid=5ffba6a478f440af51e5c5ca&output=html&source=placeapi_v2", "overall_rating": "5.0", "comment_num": "2", "children": []}}, {"name": "\u9e4f\u7fd4\u9a7e\u6821(\u571f\u95e8\u62a5\u540d\u8054\u7edc\u70b9)", "location": {"lat": 34.270682, "lng": 108.882859}, "address": "\u9655\u897f\u7701\u897f\u5b89\u5e02\u83b2\u6e56\u533a\u571f\u95e8\u6c49\u57ce\u4e1c\u8def\u793e\u533a(\u56e2\u7ed3\u897f\u8def\u5357)", "province": "\u9655\u897f\u7701", "city": "\u897f\u5b89\u5e02", "area": "\u83b2\u6e56\u533a", "street_id": "0fafba89491efdf745e2742b", "telephone": "13572189746", "detail": 1, "uid": "0fafba89491efdf745e2742b", "detail_info": {"tag": "\u6559\u80b2\u57f9\u8bad;\u57f9\u8bad\u673a\u6784", "type": "education", "detail_url": "http://api.map.baidu.com/place/detail?uid=0fafba89491efdf745e2742b&output=html&source=placeapi_v2", "overall_rating": "5.0", "comment_num": "2", "children": []}}, {"name": "\u5929\u9053\u7559\u5b66", "location": {"lat": 34.237706, "lng": 108.910986}, "address": "\u79d1\u6280\u8def33\u53f7\u9ad8\u65b0\u56fd\u9645\u5546\u52a1\u4e2d\u5fc318\u5c42", "province": "\u9655\u897f\u7701", "city": "\u897f\u5b89\u5e02", "area": "\u96c1\u5854\u533a", "street_id": "e72bb4b91d7154243913fd3d", "detail": 1, "uid": "e72bb4b91d7154243913fd3d", "detail_info": {"tag": "\u6559\u80b2\u57f9\u8bad;\u57f9\u8bad\u673a\u6784", "type": "education", "detail_url": "http://api.map.baidu.com/place/detail?uid=e72bb4b91d7154243913fd3d&output=html&source=placeapi_v2", "overall_rating": "5.0", "children": []}}, {"name": "\u5317\u4eac\u7ea2\u821e\u978b\u5f62\u4f53\u821e\u8e48\u6559\u80b2", "location": {"lat": 34.231319, "lng": 108.909002}, "address": "\u96c1\u5854\u533a\u79d1\u6280\u4e00\u8def\u67ab\u53f6\u5e7f\u573a\u4e8c\u671f20102\u5ba4", "province": "\u9655\u897f\u7701", "city": "\u897f\u5b89\u5e02", "area": "\u96c1\u5854\u533a", "street_id": "a83159e08f7ecee6343a710d", "telephone": "(029)88896522,18092638734", "detail": 1, "uid": "a20222f7cd12c19c70210bdc", "detail_info": {"tag": "\u6559\u80b2\u57f9\u8bad;\u57f9\u8bad\u673a\u6784", "type": "education", "detail_url": "http://api.map.baidu.com/place/detail?uid=a20222f7cd12c19c70210bdc&output=html&source=placeapi_v2", "comment_num": "2", "children": []}}, {"name": "\u897f\u5317\u5de5\u4e1a\u5927\u5b66-\u5e72\u90e8\u6559\u80b2\u57f9\u8bad\u4e2d\u5fc3", "location": {"lat": 34.247635, "lng": 108.91847}, "address": "\u9655\u897f\u7701\u897f\u5b89\u5e02\u7891\u6797\u533a\u53cb\u8c0a\u897f\u8def127\u53f7\u897f\u5317\u5de5\u4e1a\u5927\u5b66\u5185", "province": "\u9655\u897f\u7701", "city": "\u897f\u5b89\u5e02", "area": "\u7891\u6797\u533a", "street_id": "715575797f2fc65443e19286", "detail": 1, "uid": "715575797f2fc65443e19286", "detail_info": {"tag": "\u6559\u80b2\u57f9\u8bad;\u57f9\u8bad\u673a\u6784", "navi_location": {"lng": 108.91842791394, "lat": 34.248019789868}, "type": "education", "detail_url": "http://api.map.baidu.com/place/detail?uid=715575797f2fc65443e19286&output=html&source=placeapi_v2", "children": []}}, {"name": "\u777f\u6b23\u6559\u80b2(\u9ad8\u65b0\u6821\u533a)", "location": {"lat": 34.241086, "lng": 108.914063}, "address": "\u897f\u5b89\u5e02\u9ad8\u65b0\u8def25\u53f7\u9ad8\u65b0\u5546\u52a1\u5927\u53a63\u697c", "province": "\u9655\u897f\u7701", "city": "\u897f\u5b89\u5e02", "area": "\u96c1\u5854\u533a", "street_id": "324dd1fc9f47ec01e0110346", "telephone": "(029)88787781", "detail": 1, "uid": "324dd1fc9f47ec01e0110346", "detail_info": {"tag": "\u6559\u80b2\u57f9\u8bad;\u57f9\u8bad\u673a\u6784", "type": "education", "detail_url": "http://api.map.baidu.com/place/detail?uid=324dd1fc9f47ec01e0110346&output=html&source=placeapi_v2", "price": "0.0", "comment_num": "1", "children": []}}, {"name": "\u5df4\u6d1b\u514b\u97f3\u4e50\u5b66\u6821", "location": {"lat": 34.233253, "lng": 108.917834}, "address": "\u897f\u5b89\u5e02\u9ad8\u65b0\u533a\u79d1\u6280\u8def10\u53f7\u901a\u8fbe\u5927\u53a66\u5c42", "province": "\u9655\u897f\u7701", "city": "\u897f\u5b89\u5e02", "area": "\u96c1\u5854\u533a", "street_id": "b340a46e22d9f17695f08c95", "detail": 1, "uid": "b340a46e22d9f17695f08c95", "detail_info": {"tag": "\u6559\u80b2\u57f9\u8bad;\u57f9\u8bad\u673a\u6784", "type": "education", "detail_url": "http://api.map.baidu.com/place/detail?uid=b340a46e22d9f17695f08c95&output=html&source=placeapi_v2", "comment_num": "1", "children": []}}, {"name": "\u4e1c\u4e9a\u897f\u6587\u60c5\u5883\u82f1\u8bed\u897f\u7a0d\u95e8\u6821\u533a", "location": {"lat": 34.261185, "lng": 108.916264}, "address": "\u52b3\u52a8\u5357\u8def296\u53f7\u6c11\u822a\u5927\u53a6\u9662\u5185\u5357\u697c3\u5c42", "province": "\u9655\u897f\u7701", "city": "\u897f\u5b89\u5e02", "area": "\u83b2\u6e56\u533a", "street_id": "5778dafb7841d7cc77026940", "detail": 1, "uid": "5778dafb7841d7cc77026940", "detail_info": {"tag": "\u6559\u80b2\u57f9\u8bad;\u57f9\u8bad\u673a\u6784", "type": "education", "detail_url": "http://api.map.baidu.com/place/detail?uid=5778dafb7841d7cc77026940&output=html&source=placeapi_v2", "price": "0.0", "overall_rating": "5.0", "children": []}}, {"name": "\u897f\u5b89\u5c0f\u5929\u9e45\u827a\u672f\u56e2-\u9ad8\u65b0\u827a\u672f\u4e2d\u5fc3", "location": {"lat": 34.239257, "lng": 108.911149}, "address": "\u897f\u5b89\u5e02\u96c1\u5854\u533a\u9ad8\u79d1\u5927\u53a6\u526f\u697c3\u5c42", "province": "\u9655\u897f\u7701", "city": "\u897f\u5b89\u5e02", "area": "\u96c1\u5854\u533a", "street_id": "248df10f7ca0b7378bdb7340", "detail": 1, "uid": "248df10f7ca0b7378bdb7340", "detail_info": {"tag": "\u6559\u80b2\u57f9\u8bad;\u57f9\u8bad\u673a\u6784", "navi_location": {"lng": 108.91101252502, "lat": 34.239317778666}, "type": "education", "detail_url": "http://api.map.baidu.com/place/detail?uid=248df10f7ca0b7378bdb7340&output=html&source=placeapi_v2", "overall_rating": "5.0", "comment_num": "1", "children": []}}, {"name": "\u56fd\u5bb6\u53d1\u5c55\u548c\u6539\u9769\u59d4\u5458\u4f1a\u57f9\u8bad\u4e2d\u5fc3\u9655\u897f\u6559\u80b2\u57f9\u8bad\u57fa\u5730", "location": {"lat": 34.276779, "lng": 108.937196}, "address": "\u9655\u897f\u7701\u897f\u5b89\u5e02\u83b2\u6e56\u533a\u897f\u5317\u4e8c\u8def1\u53f7", "province": "\u9655\u897f\u7701", "city": "\u897f\u5b89\u5e02", "area": "\u83b2\u6e56\u533a", "street_id": "7f0c8a926d2cb67d81a12ef8", "detail": 1, "uid": "7f0c8a926d2cb67d81a12ef8", "detail_info": {"tag": "\u6559\u80b2\u57f9\u8bad;\u57f9\u8bad\u673a\u6784", "navi_location": {"lng": 108.93703783431, "lat": 34.276779247159}, "type": "education", "detail_url": "http://api.map.baidu.com/place/detail?uid=7f0c8a926d2cb67d81a12ef8&output=html&source=placeapi_v2", "overall_rating": "5.0", "comment_num": "2", "children": []}}, {"name": "\u5409\u7684\u5821\u5c11\u513f\u82f1\u8bed(\u9ad8\u65b0\u8def)", "location": {"lat": 34.24076, "lng": 108.913911}, "address": "\u9ad8\u65b0\u8def25\u53f7\u5e0c\u683c\u739b\u5927\u53a64\u5c42", "province": "\u9655\u897f\u7701", "city": "\u897f\u5b89\u5e02", "area": "\u96c1\u5854\u533a", "street_id": "1c7999a0308ebe614afc8db1", "detail": 1, "uid": "1c7999a0308ebe614afc8db1", "detail_info": {"tag": "\u6559\u80b2\u57f9\u8bad;\u57f9\u8bad\u673a\u6784", "type": "education", "detail_url": "http://api.map.baidu.com/place/detail?uid=1c7999a0308ebe614afc8db1&output=html&source=placeapi_v2", "overall_rating": "5.0", "children": []}}, {"name": "\u534e\u6d25\u9a7e\u6821", "location": {"lat": 34.200304, "lng": 108.880294}, "address": "\u4e08\u516b\u897f\u8def\u7eff\u5730\u4e16\u7eaa\u57ce2\u53f7\u697c", "province": "\u9655\u897f\u7701", "city": "\u897f\u5b89\u5e02", "area": "\u96c1\u5854\u533a", "street_id": "6acea8434c53458230169ba7", "telephone": "(029)68995530,(029)68995539", "detail": 1, "uid": "6acea8434c53458230169ba7", "detail_info": {"tag": "\u6559\u80b2\u57f9\u8bad;\u57f9\u8bad\u673a\u6784", "type": "education", "detail_url": "http://api.map.baidu.com/place/detail?uid=6acea8434c53458230169ba7&output=html&source=placeapi_v2", "overall_rating": "5.0", "comment_num": "2", "children": []}}, {"name": "\u65b0\u4e1c\u65b9(\u4e00\u4e2d\u6559\u5b66\u533a)", "location": {"lat": 34.269283, "lng": 108.924817}, "address": "\u897f\u5b89\u5e02\u83b2\u6e56\u533a\u94c1\u5854\u5bfa\u8def52\u53f7\u4e34\u8857\u5546\u4e1a\u697c3\u5c42", "province": "\u9655\u897f\u7701", "city": "\u897f\u5b89\u5e02", "area": "\u83b2\u6e56\u533a", "street_id": "c568e5fa1c702d145bf6be14", "detail": 1, "uid": "c568e5fa1c702d145bf6be14", "detail_info": {"tag": "\u6559\u80b2\u57f9\u8bad;\u57f9\u8bad\u673a\u6784", "navi_location": {"lng": 108.92480578604, "lat": 34.269373332132}, "type": "education", "detail_url": "http://api.map.baidu.com/place/detail?uid=c568e5fa1c702d145bf6be14&output=html&source=placeapi_v2", "price": "0.0", "comment_num": "1", "children": []}}, {"name": "\u91d1\u667a\u4e91\u8d77\u70b9\u8f6f\u4ef6\u57f9\u8bad", "location": {"lat": 34.238232, "lng": 108.884105}, "address": "\u9ad8\u65b0\u533a\u5510\u5174\u8def6\u53f7\u5510\u5174\u6570\u7801\u56fd\u9645\u5927\u53a6509\u5ba4", "province": "\u9655\u897f\u7701", "city": "\u897f\u5b89\u5e02", "area": "\u96c1\u5854\u533a", "street_id": "a46e1ef7e3220f94d6b74eb4", "detail": 1, "uid": "a46e1ef7e3220f94d6b74eb4", "detail_info": {"tag": "\u6559\u80b2\u57f9\u8bad;\u57f9\u8bad\u673a\u6784", "type": "education", "detail_url": "http://api.map.baidu.com/place/detail?uid=a46e1ef7e3220f94d6b74eb4&output=html&source=placeapi_v2", "overall_rating": "5.0", "children": []}}, {"name": "\u521b\u00b7\u827a\u00b7\u5b9d\u00b7\u8d1d", "location": {"lat": 34.250643, "lng": 108.916207}, "address": "\u897f\u5b89\u5e02\u83b2\u6e56\u533a\u52b3\u52a8\u5357\u8def118\u53f7\u897f\u5e02\u57ceF3", "province": "\u9655\u897f\u7701", "city": "\u897f\u5b89\u5e02", "area": "\u83b2\u6e56\u533a", "street_id": "cdfaa283e0cf44efab175af4", "detail": 1, "uid": "cdfaa283e0cf44efab175af4", "detail_info": {"tag": "\u6559\u80b2\u57f9\u8bad;\u57f9\u8bad\u673a\u6784", "navi_location": {"lng": 108.91586539057, "lat": 34.250272706862}, "indoor_floor": "F3", "type": "education", "detail_url": "http://api.map.baidu.com/place/detail?uid=cdfaa283e0cf44efab175af4&output=html&source=placeapi_v2", "children": []}}, {"name": "\u9655\u897f\u7701\u5b89\u5168\u8840\u6db2\u548c\u8840\u5236\u54c1\u8fdc\u7a0b\u6559\u80b2\u57f9\u8bad\u4e2d\u5fc3", "location": {"lat": 34.232202, "lng": 108.94593}, "address": "\u6731\u96c0\u5927\u8857407\u53f7", "province": "\u9655\u897f\u7701", "city": "\u897f\u5b89\u5e02", "area": "\u96c1\u5854\u533a", "street_id": "2b90c0ae73f626a1120daaf3", "detail": 1, "uid": "2b90c0ae73f626a1120daaf3", "detail_info": {"tag": "\u6559\u80b2\u57f9\u8bad;\u57f9\u8bad\u673a\u6784", "navi_location": {"lng": 108.9456921015, "lat": 34.232199734352}, "type": "education", "detail_url": "http://api.map.baidu.com/place/detail?uid=2b90c0ae73f626a1120daaf3&output=html&source=placeapi_v2", "overall_rating": "5.0", "comment_num": "1", "children": []}}, {"name": "\u5b66\u5927\u6559\u80b2(\u897f\u5b89\u897f\u5173\u6821\u533a)", "location": {"lat": 34.264539, "lng": 108.919962}, "address": "\u897f\u5173\u6b63\u8857258\u53f7\u5fa1\u7b14\u534e\u7ae0\u56db\u5c42", "province": "\u9655\u897f\u7701", "city": "\u897f\u5b89\u5e02", "area": "\u83b2\u6e56\u533a", "street_id": "59c601445a17246cc6f025aa", "telephone": "4006254008", "detail": 1, "uid": "59c601445a17246cc6f025aa", "detail_info": {"tag": "\u6559\u80b2\u57f9\u8bad;\u57f9\u8bad\u673a\u6784", "navi_location": {"lng": 108.91949103605, "lat": 34.264985180785}, "type": "education", "detail_url": "http://api.map.baidu.com/place/detail?uid=59c601445a17246cc6f025aa&output=html&source=placeapi_v2", "price": "0.0", "children": []}}, {"name": "\u534e\u6d25\u9a7e\u6821(\u4e08\u516b\u5357\u6751\u62a5\u540d\u8054\u7edc\u70b9)", "location": {"lat": 34.204972, "lng": 108.860291}, "address": "\u4e08\u516b\u5357\u6751\u5185", "province": "\u9655\u897f\u7701", "city": "\u897f\u5b89\u5e02", "area": "\u96c1\u5854\u533a", "street_id": "46253c80d99138c3eb12e4e2", "telephone": "(029)87304366", "detail": 1, "uid": "46253c80d99138c3eb12e4e2", "detail_info": {"tag": "\u6559\u80b2\u57f9\u8bad;\u57f9\u8bad\u673a\u6784", "navi_location": {"lng": 108.86029112821, "lat": 34.20473208334}, "type": "education", "detail_url": "http://api.map.baidu.com/place/detail?uid=46253c80d99138c3eb12e4e2&output=html&source=placeapi_v2", "overall_rating": "5.0", "comment_num": "1", "children": []}}, {"name": "\u5c71\u6728\u57f9\u8bad(\u7d2b\u8587\u5206\u6821)", "location": {"lat": 34.211957, "lng": 108.926316}, "address": "\u7535\u5b50\u6b63\u8857128\u53f7\u51ef\u60a6\u534e\u5ead\u5bf9\u9762\u5317\u5c71\u95e8\u7ad9", "province": "\u9655\u897f\u7701", "city": "\u897f\u5b89\u5e02", "area": "\u96c1\u5854\u533a", "street_id": "ecf5d80a287117e9d13ce3e1", "detail": 1, "uid": "ecf5d80a287117e9d13ce3e1", "detail_info": {"tag": "\u6559\u80b2\u57f9\u8bad;\u57f9\u8bad\u673a\u6784", "type": "education", "detail_url": "http://api.map.baidu.com/place/detail?uid=ecf5d80a287117e9d13ce3e1&output=html&source=placeapi_v2", "overall_rating": "4.5", "comment_num": "2", "children": []}}, {"name": "\u897f\u5b89\u6b63\u534e\u9a7e\u6821", "location": {"lat": 34.241149, "lng": 108.908782}, "address": "\u897f\u5b89\u5e02\u9ad8\u65b0\u533a\u5149\u534e\u8def13\u53f7\u5174\u4e1a\u5927\u53a61\u5c42", "province": "\u9655\u897f\u7701", "city": "\u897f\u5b89\u5e02", "area": "\u96c1\u5854\u533a", "street_id": "5fbcf2462afb006d7069d374", "detail": 1, "uid": "5fbcf2462afb006d7069d374", "detail_info": {"tag": "\u6559\u80b2\u57f9\u8bad;\u57f9\u8bad\u673a\u6784", "navi_location": {"lng": 108.90886723222, "lat": 34.241382318085}, "type": "education", "detail_url": "http://api.map.baidu.com/place/detail?uid=5fbcf2462afb006d7069d374&output=html&source=placeapi_v2", "overall_rating": "5.0", "children": []}}, {"name": "\u897f\u5b89\u4ea4\u901a\u5927\u5b66\u533b\u5b66\u9662\u7b2c\u4e00\u9644\u5c5e\u533b\u9662-\u5916\u79d1\u5b66\u57fa\u672c\u6280\u80fd\u8bad\u7ec3\u4e2d\u5fc3", "location": {"lat": 34.221449, "lng": 108.94651}, "address": "\u96c1\u5854\u897f\u8def76\u53f7\u897f\u5b89\u4ea4\u901a\u5927\u5b66\u96c1\u5854\u6821\u533a", "province": "\u9655\u897f\u7701", "city": "\u897f\u5b89\u5e02", "area": "\u96c1\u5854\u533a", "street_id": "593a68326192b2533a13fdf5", "detail": 1, "uid": "593a68326192b2533a13fdf5", "detail_info": {"tag": "\u6559\u80b2\u57f9\u8bad;\u57f9\u8bad\u673a\u6784", "type": "education", "detail_url": "http://api.map.baidu.com/place/detail?uid=593a68326192b2533a13fdf5&output=html&source=placeapi_v2", "children": []}}, {"name": "\u542f\u667a\u6570\u7406\u5316\u7279\u8bad\u90e8", "location": {"lat": 34.234426, "lng": 108.90866}, "address": "\u9ad8\u65b0\u8def60\u53f7\u4e00\u54c1\u7f8e\u9053\u5927\u53a6A1911", "province": "\u9655\u897f\u7701", "city": "\u897f\u5b89\u5e02", "area": "\u96c1\u5854\u533a", "street_id": "5e17d166f2988d29c92915e5", "detail": 1, "uid": "5e17d166f2988d29c92915e5", "detail_info": {"tag": "\u6559\u80b2\u57f9\u8bad;\u57f9\u8bad\u673a\u6784", "type": "education", "detail_url": "http://api.map.baidu.com/place/detail?uid=5e17d166f2988d29c92915e5&output=html&source=placeapi_v2", "comment_num": "1", "children": []}}, {"name": "\u534e\u6d25\u9a7e\u6821(\u897f\u8377\u82b1\u56ed\u62a5\u540d\u8054\u7edc\u70b9)", "location": {"lat": 34.241695, "lng": 108.935394}, "address": "\u7891\u6797\u533a\u542b\u5149\u793e\u533a19\u53f7", "province": "\u9655\u897f\u7701", "city": "\u897f\u5b89\u5e02", "area": "\u7891\u6797\u533a", "street_id": "f8e61f512db42319e215f956", "telephone": "(029)88412039", "detail": 1, "uid": "f8e61f512db42319e215f956", "detail_info": {"tag": "\u6559\u80b2\u57f9\u8bad;\u57f9\u8bad\u673a\u6784", "type": "education", "detail_url": "http://api.map.baidu.com/place/detail?uid=f8e61f512db42319e215f956&output=html&source=placeapi_v2", "overall_rating": "5.0", "comment_num": "2", "children": []}}, {"name": "\u5955\u5fb7\u56f4\u68cb\u5b66\u6821", "location": {"lat": 34.275767, "lng": 108.948181}, "address": "\u9655\u897f\u7701\u897f\u5b89\u5e02\u83b2\u6e56\u533a\u83b2\u6e56\u516c\u56ed\u5317\u95e8\u4e1c\u4fa7", "province": "\u9655\u897f\u7701", "city": "\u897f\u5b89\u5e02", "area": "\u83b2\u6e56\u533a", "street_id": "00f1c7fb382d4462c056ac0c", "telephone": "(029)87325628", "detail": 1, "uid": "00f1c7fb382d4462c056ac0c", "detail_info": {"tag": "\u6559\u80b2\u57f9\u8bad;\u57f9\u8bad\u673a\u6784", "navi_location": {"lng": 108.94818106083, "lat": 34.275915324044}, "type": "education", "detail_url": "http://api.map.baidu.com/place/detail?uid=00f1c7fb382d4462c056ac0c&output=html&source=placeapi_v2", "overall_rating": "5.0", "comment_num": "3", "children": []}}, {"name": "\u897f\u5b89\u6c42\u5b9e\u6559\u80b2\u8f85\u5bfc\u4e2d\u5fc3", "location": {"lat": 34.222512, "lng": 108.898343}, "address": "\u5510\u5ef6\u8def37\u53f7CLASS\u56fd\u9645\u516c\u9986D\u5ea71406", "province": "\u9655\u897f\u7701", "city": "\u897f\u5b89\u5e02", "area": "\u96c1\u5854\u533a", "street_id": "3b02d750d7ff7fa3dfee8b9a", "detail": 1, "uid": "3b02d750d7ff7fa3dfee8b9a", "detail_info": {"tag": "\u6559\u80b2\u57f9\u8bad;\u57f9\u8bad\u673a\u6784", "type": "education", "detail_url": "http://api.map.baidu.com/place/detail?uid=3b02d750d7ff7fa3dfee8b9a&output=html&source=placeapi_v2", "overall_rating": "5.0", "children": []}}, {"name": "\u6ce2\u7279\u6559\u80b2\u5409\u7965\u8def\u603b\u6821", "location": {"lat": 34.229213, "lng": 108.937333}, "address": "\u5409\u7965\u8def21G5\u5c42", "province": "\u9655\u897f\u7701", "city": "\u897f\u5b89\u5e02", "area": "\u96c1\u5854\u533a", "street_id": "6033f34441647f460c0e6b29", "detail": 1, "uid": "5b25f4467d62a3ea1029356a", "detail_info": {"tag": "\u6559\u80b2\u57f9\u8bad;\u57f9\u8bad\u673a\u6784", "navi_location": {"lng": 108.93733280011, "lat": 34.228992344791}, "type": "education", "detail_url": "http://api.map.baidu.com/place/detail?uid=5b25f4467d62a3ea1029356a&output=html&source=placeapi_v2", "price": "0.0", "overall_rating": "5.0", "comment_num": "3", "children": []}}, {"name": "\u91d1\u5b50\u6559\u80b2", "location": {"lat": 34.233212, "lng": 108.917009}, "address": "\u897f\u5b89\u5e02\u96c1\u5854\u533a\u79d1\u6280\u8def16\u53f7", "province": "\u9655\u897f\u7701", "city": "\u897f\u5b89\u5e02", "area": "\u96c1\u5854\u533a", "street_id": "923a90058fae097acae33caa", "detail": 1, "uid": "923a90058fae097acae33caa", "detail_info": {"tag": "\u6559\u80b2\u57f9\u8bad;\u57f9\u8bad\u673a\u6784", "type": "education", "detail_url": "http://api.map.baidu.com/place/detail?uid=923a90058fae097acae33caa&output=html&source=placeapi_v2", "overall_rating": "5.0", "comment_num": "1", "children": []}}, {"name": "\u534e\u4e3a\u5148\u901a\u6388\u6743\u57f9\u8bad\u4e2d\u5fc3", "location": {"lat": 34.229627, "lng": 108.927943}, "address": "\u5409\u7965\u8def179\u53f7", "province": "\u9655\u897f\u7701", "city": "\u897f\u5b89\u5e02", "area": "\u96c1\u5854\u533a", "street_id": "6cce302a1c44ad3e2bd7ab83", "detail": 1, "uid": "6cce302a1c44ad3e2bd7ab83", "detail_info": {"tag": "\u6559\u80b2\u57f9\u8bad;\u57f9\u8bad\u673a\u6784", "type": "education", "detail_url": "http://api.map.baidu.com/place/detail?uid=6cce302a1c44ad3e2bd7ab83&output=html&source=placeapi_v2", "overall_rating": "5.0", "comment_num": "1", "children": []}}, {"name": "\u7ea2\u8d1d\u857e\u5c11\u513f\u827a\u672f\u4e2d\u5fc3", "location": {"lat": 34.233917, "lng": 108.92543}, "address": "\u9655\u897f\u7701\u897f\u5b89\u5e02\u96c1\u5854\u533a\u592a\u767d\u5357\u8def(\u4e91\u57ce\u5927\u9152\u5e97)", "province": "\u9655\u897f\u7701", "city": "\u897f\u5b89\u5e02", "area": "\u96c1\u5854\u533a", "street_id": "30874fb62db6ac5888db7301", "detail": 1, "uid": "30874fb62db6ac5888db7301", "detail_info": {"tag": "\u6559\u80b2\u57f9\u8bad;\u57f9\u8bad\u673a\u6784", "navi_location": {"lng": 108.92575411459, "lat": 34.234109631844}, "type": "education", "detail_url": "http://api.map.baidu.com/place/detail?uid=30874fb62db6ac5888db7301&output=html&source=placeapi_v2", "children": []}}, {"name": "\u897f\u5317\u5927\u5b66(\u592a\u767d\u6821\u533a)-\u5e08\u8d44\u57f9\u8bad\u4e2d\u5fc3", "location": {"lat": 34.252095, "lng": 108.932946}, "address": "\u592a\u767d\u8def\u897f\u5317\u5927\u5b66", "province": "\u9655\u897f\u7701", "city": "\u897f\u5b89\u5e02", "area": "\u7891\u6797\u533a", "street_id": "9b1cee151e67a5e1c9291599", "detail": 1, "uid": "9b1cee151e67a5e1c9291599", "detail_info": {"tag": "\u6559\u80b2\u57f9\u8bad;\u57f9\u8bad\u673a\u6784", "navi_location": {"lng": 108.93015182401, "lat": 34.254074161864}, "type": "education", "detail_url": "http://api.map.baidu.com/place/detail?uid=9b1cee151e67a5e1c9291599&output=html&source=placeapi_v2", "overall_rating": "5.0", "children": []}}, {"name": "\u5c71\u6728\u57f9\u8bad(\u5916\u4e8b\u5b66\u9662\u5206\u6821)", "location": {"lat": 34.239718, "lng": 108.871924}, "address": "\u9c7c\u6597\u8def\u4e2d\u6bb5", "province": "\u9655\u897f\u7701", "city": "\u897f\u5b89\u5e02", "area": "\u96c1\u5854\u533a", "street_id": "9d7f65ba5b1923493ce23135", "telephone": "(029)88518418,(029)88518337", "detail": 1, "uid": "9d7f65ba5b1923493ce23135", "detail_info": {"tag": "\u6559\u80b2\u57f9\u8bad;\u57f9\u8bad\u673a\u6784", "type": "education", "detail_url": "http://api.map.baidu.com/place/detail?uid=9d7f65ba5b1923493ce23135&output=html&source=placeapi_v2", "overall_rating": "5.0", "comment_num": "2", "children": []}}, {"name": "\u5173\u4e2d\u9a7e\u6821", "location": {"lat": 34.207034, "lng": 108.855009}, "address": "\u94fa\u5c1a\u65b0\u6751\u82b1\u56ed\u5185", "province": "\u9655\u897f\u7701", "city": "\u897f\u5b89\u5e02", "area": "\u96c1\u5854\u533a", "street_id": "daac0e7c40f50455b9df8fb1", "telephone": "18802979149", "detail": 1, "uid": "daac0e7c40f50455b9df8fb1", "detail_info": {"tag": "\u6559\u80b2\u57f9\u8bad;\u57f9\u8bad\u673a\u6784", "type": "education", "detail_url": "http://api.map.baidu.com/place/detail?uid=daac0e7c40f50455b9df8fb1&output=html&source=placeapi_v2", "overall_rating": "5.0", "comment_num": "1", "children": []}}, {"name": "\u897f\u90e8\u9a7e\u6821\u62a5\u540d\u70b9(\u9c7c\u9550\u8def)", "location": {"lat": 34.23825, "lng": 108.852234}, "address": "\u897f\u5b89\u5e02\u96c1\u5854\u533a\u9c7c\u9550\u8def\u9c7c\u5316\u5be8\u8003\u573a\u5bf9\u97621\u5c42", "province": "\u9655\u897f\u7701", "city": "\u897f\u5b89\u5e02", "area": "\u96c1\u5854\u533a", "street_id": "81a07b6efc791867e0110302", "telephone": "(029)81339163", "detail": 1, "uid": "81a07b6efc791867e0110302", "detail_info": {"tag": "\u6559\u80b2\u57f9\u8bad;\u57f9\u8bad\u673a\u6784", "navi_location": {"lng": 108.85234717094, "lat": 34.238413942649}, "type": "education", "detail_url": "http://api.map.baidu.com/place/detail?uid=81a07b6efc791867e0110302&output=html&source=placeapi_v2", "price": "0.0", "overall_rating": "5.0", "comment_num": "3", "children": []}}, {"name": "\u9655\u897f\u7701\u6e38\u6cf3\u9986-\u6691\u671f\u6e38\u6cf3\u57f9\u8bad\u73ed", "location": {"lat": 34.205911, "lng": 108.896228}, "address": "\u4e08\u516b\u4e1c\u8def311\u53f7", "province": "\u9655\u897f\u7701", "city": "\u897f\u5b89\u5e02", "area": "\u96c1\u5854\u533a", "street_id": "b923cf117ffcbc22102935ea", "detail": 1, "uid": "b923cf117ffcbc22102935ea", "detail_info": {"tag": "\u6559\u80b2\u57f9\u8bad;\u57f9\u8bad\u673a\u6784", "type": "education", "detail_url": "http://api.map.baidu.com/place/detail?uid=b923cf117ffcbc22102935ea&output=html&source=placeapi_v2", "overall_rating": "5.0", "comment_num": "1", "children": []}}, {"name": "\u9e4f\u7fd4\u9a7e\u6821\u79d1\u6280\u4e8c\u8def\u670d\u52a1\u7ad9", "location": {"lat": 34.226149, "lng": 108.913483}, "address": "\u9655\u897f\u7701\u897f\u5b89\u5e02\u96c1\u5854\u533a\u767d\u6c99\u8def\u5357\u6bb52\u53f7", "province": "\u9655\u897f\u7701", "city": "\u897f\u5b89\u5e02", "area": "\u96c1\u5854\u533a", "street_id": "86d864a2a414cb9ccb1b9540", "telephone": "15529269725", "detail": 1, "uid": "86d864a2a414cb9ccb1b9540", "detail_info": {"tag": "\u6559\u80b2\u57f9\u8bad;\u57f9\u8bad\u673a\u6784", "type": "education", "detail_url": "http://api.map.baidu.com/place/detail?uid=86d864a2a414cb9ccb1b9540&output=html&source=placeapi_v2", "overall_rating": "5.0", "comment_num": "2", "children": []}}, {"name": "\u897f\u5b89A \u821e\u8e48\u5de5\u4f5c\u5ba4", "location": {"lat": 34.251716, "lng": 108.936025}, "address": "\u897f\u5b89\u9ad8\u65b0\u533a\u5510\u5ef6\u8def6\u53f7\u4ea4\u901a\u5927\u53a6", "province": "\u9655\u897f\u7701", "city": "\u897f\u5b89\u5e02", "area": "\u7891\u6797\u533a", "street_id": "44207646faaa4272dfee8ba9", "telephone": "15902969772", "detail": 1, "uid": "44207646faaa4272dfee8ba9", "detail_info": {"tag": "\u6559\u80b2\u57f9\u8bad;\u57f9\u8bad\u673a\u6784", "navi_location": {"lng": 108.9360184983, "lat": 34.252008196605}, "type": "education", "detail_url": "http://api.map.baidu.com/place/detail?uid=44207646faaa4272dfee8ba9&output=html&source=placeapi_v2", "comment_num": "6", "children": []}}, {"name": "\u5409\u7684\u5821\u5c11\u513f\u82f1\u8bed\u5b66\u6821(\u5409\u7965\u6821\u533a)", "location": {"lat": 34.229134, "lng": 108.936976}, "address": "\u5409\u7965\u8def23F6\u5c42", "province": "\u9655\u897f\u7701", "city": "\u897f\u5b89\u5e02", "area": "\u96c1\u5854\u533a", "street_id": "5211d21929c198597dc876c7", "telephone": "(029)82023202", "detail": 1, "uid": "5211d21929c198597dc876c7", "detail_info": {"tag": "\u6559\u80b2\u57f9\u8bad;\u57f9\u8bad\u673a\u6784", "navi_location": {"lng": 108.93697562665, "lat": 34.228979703086}, "type": "education", "detail_url": "http://api.map.baidu.com/place/detail?uid=5211d21929c198597dc876c7&output=html&source=placeapi_v2", "price": "0.0", "overall_rating": "5.0", "comment_num": "1", "children": []}}, {"name": "EIC\u542f\u5fb7\u6559\u80b2", "location": {"lat": 34.236703, "lng": 108.910123}, "address": "\u897f\u5b89\u9ad8\u65b0\u8def56\u53f7\u7535\u4fe1\u5e7f\u573a\u91d1\u878d\u5546\u52a1\u4e2d\u5fc34\u5c42\u5357\u9762\u542f\u5fb7\u6559\u80b2", "province": "\u9655\u897f\u7701", "city": "\u897f\u5b89\u5e02", "area": "\u96c1\u5854\u533a", "street_id": "1433d23d1302a603220220f3", "detail": 1, "uid": "1433d23d1302a603220220f3", "detail_info": {"tag": "\u6559\u80b2\u57f9\u8bad;\u57f9\u8bad\u673a\u6784", "navi_location": {"lng": 108.91008208712, "lat": 34.23580067372}, "type": "education", "detail_url": "http://api.map.baidu.com/place/detail?uid=1433d23d1302a603220220f3&output=html&source=placeapi_v2", "comment_num": "1", "children": []}}, {"name": "\u6817\u7ea2\u5f3a\u7f8e\u53d1\u5316\u5986\u5b66\u6821", "location": {"lat": 34.259, "lng": 108.951883}, "address": "\u5927\u6e58\u5b50\u5e99\u8857\u5357\u95e8\u91cc\u9ec4\u6cb3\u62db\u5f85\u62404-6\u697c", "province": "\u9655\u897f\u7701", "city": "\u897f\u5b89\u5e02", "area": "\u7891\u6797\u533a", "street_id": "16db3ce9a1a31af10682c28f", "detail": 1, "uid": "16db3ce9a1a31af10682c28f", "detail_info": {"tag": "\u6559\u80b2\u57f9\u8bad;\u57f9\u8bad\u673a\u6784", "navi_location": {"lng": 108.95154969033, "lat": 34.259145468417}, "type": "education", "detail_url": "http://api.map.baidu.com/place/detail?uid=16db3ce9a1a31af10682c28f&output=html&source=placeapi_v2", "overall_rating": "5.0", "comment_num": "5", "children": []}}, {"name": "\u6613\u70b9\u56fd\u9645\u82f1\u8bed\u5b66\u6821", "location": {"lat": 34.269193, "lng": 108.92131}, "address": "\u73af\u57ce\u897f\u8def\u8857\u9053\u94c1\u5854\u5bfa\u8def\u6768\u5bb6\u56f4\u589965\u53f7\u4e8c\u697c", "province": "\u9655\u897f\u7701", "city": "\u897f\u5b89\u5e02", "area": "\u83b2\u6e56\u533a", "street_id": "6a5b37ec7b2ae09cb64f5482", "telephone": "(029)88613201,18049069120", "detail": 1, "uid": "6a5b37ec7b2ae09cb64f5482", "detail_info": {"tag": "\u6559\u80b2\u57f9\u8bad;\u57f9\u8bad\u673a\u6784", "type": "education", "detail_url": "http://api.map.baidu.com/place/detail?uid=6a5b37ec7b2ae09cb64f5482&output=html&source=placeapi_v2", "overall_rating": "5.0", "comment_num": "1", "children": []}}, {"name": "\u897f\u5b89\u97f3\u4e50\u5b66\u9662-\u9644\u5c5e\u4e2d\u7b49\u97f3\u4e50\u5b66\u6821", "location": {"lat": 34.234628, "lng": 108.948389}, "address": "\u957f\u5b89\u4e2d\u8def108\u53f7", "province": "\u9655\u897f\u7701", "city": "\u897f\u5b89\u5e02", "area": "\u96c1\u5854\u533a", "street_id": "fd13a3f2364ec6f9b1077d02", "detail": 1, "uid": "fd13a3f2364ec6f9b1077d02", "detail_info": {"tag": "\u6559\u80b2\u57f9\u8bad;\u57f9\u8bad\u673a\u6784", "type": "education", "detail_url": "http://api.map.baidu.com/place/detail?uid=fd13a3f2364ec6f9b1077d02&output=html&source=placeapi_v2", "overall_rating": "5.0", "children": []}}, {"name": "\u661f\u706b\u9a7e\u6821(\u6731\u96c0\u5927\u8857\u62a5\u540d\u8054\u7edc\u70b9)", "location": {"lat": 34.25305, "lng": 108.945909}, "address": "\u897f\u5b89\u5e02\u7891\u6797\u533a\u6731\u96c0\u5927\u885785A", "province": "\u9655\u897f\u7701", "city": "\u897f\u5b89\u5e02", "area": "\u7891\u6797\u533a", "street_id": "5cc43c368423cd0d734b871a", "telephone": "13201590998", "detail": 1, "uid": "5cc43c368423cd0d734b871a", "detail_info": {"tag": "\u6559\u80b2\u57f9\u8bad;\u57f9\u8bad\u673a\u6784", "navi_location": {"lng": 108.94574412687, "lat": 34.253027463507}, "type": "education", "detail_url": "http://api.map.baidu.com/place/detail?uid=5cc43c368423cd0d734b871a&output=html&source=placeapi_v2", "overall_rating": "5.0", "children": []}}, {"name": "\u4e50\u9ad8\u673a\u5668\u4eba(\u9ad8\u65b0\u5e97)", "location": {"lat": 34.231947, "lng": 108.908529}, "address": "\u9ad8\u65b0\u8def\u67ab\u53f6\u5e7f\u573a\uff08\u9ad8\u65b0\u4e00\u5c0f\u5bf9\u9762\uff09A\u5ea7\u4e1c\u5355\u51431202\u5ba4", "province": "\u9655\u897f\u7701", "city": "\u897f\u5b89\u5e02", "area": "\u96c1\u5854\u533a", "street_id": "dfadd20fe5de72d5f6e73b6b", "detail": 1, "uid": "dfadd20fe5de72d5f6e73b6b", "detail_info": {"tag": "\u6559\u80b2\u57f9\u8bad;\u57f9\u8bad\u673a\u6784", "type": "education", "detail_url": "http://api.map.baidu.com/place/detail?uid=dfadd20fe5de72d5f6e73b6b&output=html&source=placeapi_v2", "price": "0.0", "overall_rating": "4.7", "comment_num": "21", "children": []}}, {"name": "\u4e1c\u5723\u5b66\u82d1", "location": {"lat": 34.23929, "lng": 108.870226}, "address": "\u9c7c\u6597\u8def88\u53f7\u51ef\u661f\u8d2d\u7269\u5e7f\u573a5\u5c42", "province": "\u9655\u897f\u7701", "city": "\u897f\u5b89\u5e02", "area": "\u96c1\u5854\u533a", "street_id": "17751c826081b1e13a04b1e9", "telephone": "(029)88601639", "detail": 1, "uid": "17751c826081b1e13a04b1e9", "detail_info": {"tag": "\u6559\u80b2\u57f9\u8bad;\u57f9\u8bad\u673a\u6784", "type": "education", "detail_url": "http://api.map.baidu.com/place/detail?uid=17751c826081b1e13a04b1e9&output=html&source=placeapi_v2", "overall_rating": "5.0", "children": []}}, {"name": "\u521b\u4e50\u6d82\u5c11\u513f\u7f8e\u672f", "location": {"lat": 34.228045, "lng": 108.880302}, "address": "\u4e08\u516b\u5317\u8def\u4e0e\u79d1\u6280\u4e09\u8def\u53e3\u590f\u65e5\u666f\u8272\u5c0f\u533a8\u53f7\u697c\u5546\u8857", "province": "\u9655\u897f\u7701", "city": "\u897f\u5b89\u5e02", "area": "\u96c1\u5854\u533a", "street_id": "2148069917110d2ce812e487", "detail": 1, "uid": "2148069917110d2ce812e487", "detail_info": {"tag": "\u6559\u80b2\u57f9\u8bad;\u57f9\u8bad\u673a\u6784", "navi_location": {"lng": 108.88035791597, "lat": 34.228159647397}, "type": "education", "detail_url": "http://api.map.baidu.com/place/detail?uid=2148069917110d2ce812e487&output=html&source=placeapi_v2", "overall_rating": "5.0", "comment_num": "1", "children": []}}, {"name": "\u4e1c\u65b9\u8dc6\u62f3\u9053\u6559\u80b2\u673a\u6784", "location": {"lat": 34.241236, "lng": 108.915633}, "address": "\u7cdc\u5bb6\u6865\u5c0f\u533a\u670d\u52a1\u4e2d\u5fc35\u697c", "province": "\u9655\u897f\u7701", "city": "\u897f\u5b89\u5e02", "area": "\u96c1\u5854\u533a", "street_id": "acc61582f4ac5ea4f942b2a3", "telephone": "13572554908", "detail": 1, "uid": "acc61582f4ac5ea4f942b2a3", "detail_info": {"tag": "\u6559\u80b2\u57f9\u8bad;\u57f9\u8bad\u673a\u6784", "navi_location": {"lng": 108.91498716129, "lat": 34.241655763214}, "type": "education", "detail_url": "http://api.map.baidu.com/place/detail?uid=acc61582f4ac5ea4f942b2a3&output=html&source=placeapi_v2", "overall_rating": "5.0", "children": []}}, {"name": "\u897f\u5927\u4f73\u827a\u7f8e\u672f\u57f9\u8bad\u4e2d\u5fc3", "location": {"lat": 34.251427, "lng": 108.929713}, "address": "\u592a\u767d\u5317\u8def276\u53f7\u5357\u96621\u5c42", "province": "\u9655\u897f\u7701", "city": "\u897f\u5b89\u5e02", "area": "\u7891\u6797\u533a", "street_id": "05fd2640d4ec1b59d4b74ee5", "telephone": "(029)88489106", "detail": 1, "uid": "05fd2640d4ec1b59d4b74ee5", "detail_info": {"tag": "\u6559\u80b2\u57f9\u8bad;\u57f9\u8bad\u673a\u6784", "navi_location": {"lng": 108.92960415409, "lat": 34.251281651502}, "type": "education", "detail_url": "http://api.map.baidu.com/place/detail?uid=05fd2640d4ec1b59d4b74ee5&output=html&source=placeapi_v2", "overall_rating": "5.0", "children": []}}, {"name": "\u5929\u624d\u5b9d\u5b9d\u897f\u5b89\u9f13\u697c\u4e2d\u5fc3(\u94f6\u6cf0\u767e\u8d27\u949f\u697c\u5e97)", "location": {"lat": 34.264804, "lng": 108.949578}, "address": "\u897f\u5927\u885748\u53f7\u4e2d\u73af\u5e7f\u573a7\u5c42", "province": "\u9655\u897f\u7701", "city": "\u897f\u5b89\u5e02", "area": "\u7891\u6797\u533a", "street_id": "c606df71b467065202294f76", "detail": 1, "uid": "c606df71b467065202294f76", "detail_info": {"tag": "\u6559\u80b2\u57f9\u8bad;\u57f9\u8bad\u673a\u6784", "navi_location": {"lng": 108.94980043887, "lat": 34.264575041263}, "type": "education", "detail_url": "http://api.map.baidu.com/place/detail?uid=c606df71b467065202294f76&output=html&source=placeapi_v2", "overall_rating": "5.0", "children": []}}, {"name": "\u83c1\u534e\u7f8e\u672f\u6559\u80b2", "location": {"lat": 34.21, "lng": 108.934694}, "address": "\u897f\u5b89\u5e02\u96c1\u5854\u533a\u4e1c\u4eea\u8def134\u53f7", "province": "\u9655\u897f\u7701", "city": "\u897f\u5b89\u5e02", "area": "\u96c1\u5854\u533a", "street_id": "d0a33810db371a1308f5eb6d", "detail": 1, "uid": "d0a33810db371a1308f5eb6d", "detail_info": {"tag": "\u6559\u80b2\u57f9\u8bad;\u57f9\u8bad\u673a\u6784", "type": "education", "detail_url": "http://api.map.baidu.com/place/detail?uid=d0a33810db371a1308f5eb6d&output=html&source=placeapi_v2", "comment_num": "1", "children": []}}, {"name": "\u7f24\u7eb7\u9e1f\u5c11\u513f\u7f8e\u672f\u57fa\u5730(\u897f\u7a0d\u95e8\u5e97)", "location": {"lat": 34.261421, "lng": 108.916134}, "address": "\u52b3\u52a8\u5357\u8def\u4e2d\u6bb5296\u53f7\u897f\u5317\u6c11\u822a\u5927\u53a67\u5c42", "province": "\u9655\u897f\u7701", "city": "\u897f\u5b89\u5e02", "area": "\u83b2\u6e56\u533a", "street_id": "7f42b6bef1882c49cac3dbd4", "detail": 1, "uid": "7f42b6bef1882c49cac3dbd4", "detail_info": {"tag": "\u6559\u80b2\u57f9\u8bad;\u57f9\u8bad\u673a\u6784", "type": "education", "detail_url": "http://api.map.baidu.com/place/detail?uid=7f42b6bef1882c49cac3dbd4&output=html&source=placeapi_v2", "overall_rating": "5.0", "comment_num": "2", "children": []}}, {"name": "\u897f\u5b89\u601d\u62d3\u519b\u4e8b\u590f\u4ee4\u8425", "location": {"lat": 34.219988, "lng": 108.930971}, "address": "\u897f\u5b89\u5e02\u96c1\u5854\u533a\u7535\u5b50\u4e8c\u8def72\u53f7\u9526\u4e1a\u5927\u53a67\u697c", "province": "\u9655\u897f\u7701", "city": "\u897f\u5b89\u5e02", "area": "\u96c1\u5854\u533a", "street_id": "3c8a3d934d673d7258f6be7d", "detail": 1, "uid": "3c8a3d934d673d7258f6be7d", "detail_info": {"tag": "\u6559\u80b2\u57f9\u8bad;\u57f9\u8bad\u673a\u6784", "type": "education", "detail_url": "http://api.map.baidu.com/place/detail?uid=3c8a3d934d673d7258f6be7d&output=html&source=placeapi_v2", "comment_num": "1", "children": []}}, {"name": "\u6b63\u534e\u9a7e\u6821", "location": {"lat": 34.220592, "lng": 108.950304}, "address": "\u5065\u5eb7\u4e1c\u8def38", "province": "\u9655\u897f\u7701", "city": "\u897f\u5b89\u5e02", "area": "\u96c1\u5854\u533a", "street_id": "bbe741429763454ad8131824", "telephone": "13892896128", "detail": 1, "uid": "bbe741429763454ad8131824", "detail_info": {"tag": "\u6559\u80b2\u57f9\u8bad;\u57f9\u8bad\u673a\u6784", "type": "education", "detail_url": "http://api.map.baidu.com/place/detail?uid=bbe741429763454ad8131824&output=html&source=placeapi_v2", "overall_rating": "5.0", "comment_num": "2", "children": []}}, {"name": "\u9e4f\u7fd4\u9a7e\u6821\u7535\u5b50\u4e00\u8def\u77f3\u6cb9\u5927\u5b66\u62a5\u540d\u8054\u7edc\u70b9", "location": {"lat": 34.220762, "lng": 108.935201}, "address": "\u7535\u5b50\u4e00\u8def48\u53f7", "province": "\u9655\u897f\u7701", "city": "\u897f\u5b89\u5e02", "area": "\u96c1\u5854\u533a", "street_id": "5b298a28caabacc2b34c499c", "detail": 1, "uid": "74f26e646ec79b1c1df74d11", "detail_info": {"tag": "\u6559\u80b2\u57f9\u8bad;\u57f9\u8bad\u673a\u6784", "type": "education", "detail_url": "http://api.map.baidu.com/place/detail?uid=74f26e646ec79b1c1df74d11&output=html&source=placeapi_v2", "overall_rating": "5.0", "comment_num": "2", "children": []}}, {"name": "\u5f00\u5fc3ABC\u82f1\u8bed\u57f9\u8bad\u4e2d\u5fc3", "location": {"lat": 34.260869, "lng": 108.895636}, "address": "\u571f\u95e8\u5341\u5b57\u897f\u4e8c\u73af\u5357\u6bb510\u53f7\u827a\u817e\u56fd\u9645\u5546\u52a1\u5927\u53a69\u5c42", "province": "\u9655\u897f\u7701", "city": "\u897f\u5b89\u5e02", "area": "\u83b2\u6e56\u533a", "street_id": "4f8d547f904a8c6aafee7a90", "detail": 1, "uid": "4f8d547f904a8c6aafee7a90", "detail_info": {"tag": "\u6559\u80b2\u57f9\u8bad;\u57f9\u8bad\u673a\u6784", "navi_location": {"lng": 108.89591385182, "lat": 34.260935593147}, "type": "education", "detail_url": "http://api.map.baidu.com/place/detail?uid=4f8d547f904a8c6aafee7a90&output=html&source=placeapi_v2", "overall_rating": "5.0", "comment_num": "2", "children": []}}, {"name": "\u534e\u6d25\u9a7e\u6821\u9526\u4e1a\u56db\u8def\u957f\u91cc\u6751\u670d\u52a1\u7ad9", "location": {"lat": 34.180076, "lng": 108.858104}, "address": "\u897f\u5b89\u5e02\u957f\u5b89\u533a\u5b66\u58eb\u8def\u5317\u53e3", "province": "\u9655\u897f\u7701", "city": "\u897f\u5b89\u5e02", "area": "\u957f\u5b89\u533a", "street_id": "82af40708812893fe9e5823f", "telephone": "(029)68625229", "detail": 1, "uid": "82af40708812893fe9e5823f", "detail_info": {"tag": "\u6559\u80b2\u57f9\u8bad;\u57f9\u8bad\u673a\u6784", "type": "education", "detail_url": "http://api.map.baidu.com/place/detail?uid=82af40708812893fe9e5823f&output=html&source=placeapi_v2", "overall_rating": "5.0", "comment_num": "2", "children": []}}, {"name": "\u6b27\u4e9a\u9a7e\u6821-\u62a5\u540d\u8054\u7edc\u70b9", "location": {"lat": 34.182999, "lng": 108.923706}, "address": "\u9655\u897f\u7701\u897f\u5b89\u5e02\u96c1\u5854\u533a\u7535\u5b50\u5357\u8857", "province": "\u9655\u897f\u7701", "city": "\u897f\u5b89\u5e02", "area": "\u96c1\u5854\u533a", "street_id": "f31651240112c7eca9f729bb", "detail": 1, "uid": "f31651240112c7eca9f729bb", "detail_info": {"tag": "\u6559\u80b2\u57f9\u8bad;\u57f9\u8bad\u673a\u6784", "type": "education", "detail_url": "http://api.map.baidu.com/place/detail?uid=f31651240112c7eca9f729bb&output=html&source=placeapi_v2", "comment_num": "1", "children": []}}, {"name": "\u5b66\u800c\u6613\u6559\u80b2", "location": {"lat": 34.204124, "lng": 108.872004}, "address": "\u897f\u5b89\u5e02\u96c1\u5854\u533a\u9ad8\u79d1\u5c1a\u90fd3\u53f7\u697c1\u697c\u5e95\u554610101", "province": "\u9655\u897f\u7701", "city": "\u897f\u5b89\u5e02", "area": "\u96c1\u5854\u533a", "street_id": "aba4e76c744ba08cab0dd875", "telephone": "(029)88856117", "detail": 1, "uid": "aba4e76c744ba08cab0dd875", "detail_info": {"tag": "\u6559\u80b2\u57f9\u8bad;\u57f9\u8bad\u673a\u6784", "navi_location": {"lng": 108.87145198309, "lat": 34.204217304258}, "type": "education", "detail_url": "http://api.map.baidu.com/place/detail?uid=aba4e76c744ba08cab0dd875&output=html&source=placeapi_v2", "comment_num": "2", "children": []}}, {"name": "\u83b2\u6e56\u533a\u571f\u95e8\u8857\u9053\u793e\u533a\u5b66\u6821", "location": {"lat": 34.264847, "lng": 108.891263}, "address": "\u571f\u95e8\u8857\u9053\u4e30\u9550\u897f\u8def100\u53f7", "province": "\u9655\u897f\u7701", "city": "\u897f\u5b89\u5e02", "area": "\u83b2\u6e56\u533a", "street_id": "46e558f0679bd8b3f219371e", "detail": 1, "uid": "46e558f0679bd8b3f219371e", "detail_info": {"tag": "\u6559\u80b2\u57f9\u8bad;\u57f9\u8bad\u673a\u6784", "navi_location": {"lng": 108.89147730506, "lat": 34.264771528869}, "type": "education", "detail_url": "http://api.map.baidu.com/place/detail?uid=46e558f0679bd8b3f219371e&output=html&source=placeapi_v2", "comment_num": "1", "children": []}}, {"name": "\u897f\u5b89\u6d2a\u6069\u513f\u7ae5\u7f8e\u8bed", "location": {"lat": 34.261279, "lng": 108.914139}, "address": "\u897f\u7a0d\u95e8\u6c11\u822a\u5c0f\u533a\u76ca\u6210\u5927\u53a6\u4e00\u5c42", "province": "\u9655\u897f\u7701", "city": "\u897f\u5b89\u5e02", "area": "\u83b2\u6e56\u533a", "street_id": "5715c3c1eb2f96804e2fdf5b", "detail": 1, "uid": "5715c3c1eb2f96804e2fdf5b", "detail_info": {"tag": "\u6559\u80b2\u57f9\u8bad;\u57f9\u8bad\u673a\u6784", "navi_location": {"lng": 108.9141321029, "lat": 34.261124517229}, "type": "education", "detail_url": "http://api.map.baidu.com/place/detail?uid=5715c3c1eb2f96804e2fdf5b&output=html&source=placeapi_v2", "price": "0.0", "overall_rating": "5.0", "comment_num": "3", "children": []}}, {"name": "\u534e\u6d25\u9a7e\u6821(\u9526\u4e1a\u4e8c\u8def\u62a5\u540d\u8054\u7edc\u70b9)", "location": {"lat": 34.187921, "lng": 108.882757}, "address": "\u9655\u897f\u7701\u897f\u5b89\u5e02\u96c1\u5854\u533a\u9038\u7fe0\u56ed\u9526\u4e1a\u4e8c\u8def\u5185", "province": "\u9655\u897f\u7701", "city": "\u897f\u5b89\u5e02", "area": "\u96c1\u5854\u533a", "street_id": "0d4fb5ed83e4529b16c90592", "telephone": "(029)89182526", "detail": 1, "uid": "0d4fb5ed83e4529b16c90592", "detail_info": {"tag": "\u6559\u80b2\u57f9\u8bad;\u57f9\u8bad\u673a\u6784", "navi_location": {"lng": 108.8827477904, "lat": 34.188001641857}, "type": "education", "detail_url": "http://api.map.baidu.com/place/detail?uid=0d4fb5ed83e4529b16c90592&output=html&source=placeapi_v2", "overall_rating": "5.0", "comment_num": "1", "children": []}}, {"name": "\u51b0\u878d\u5fc3\u7406\u54a8\u8be2", "location": {"lat": 34.243534, "lng": 108.904088}, "address": "\u9ad8\u65b0\u56db\u8def\u4e39\u67ab\u56fd\u9645A\u5ea72105\u5ba4", "province": "\u9655\u897f\u7701", "city": "\u897f\u5b89\u5e02", "area": "\u96c1\u5854\u533a", "street_id": "4a52b8dc0f6e5c3e2efaa767", "detail": 1, "uid": "4a52b8dc0f6e5c3e2efaa767", "detail_info": {"tag": "\u6559\u80b2\u57f9\u8bad;\u57f9\u8bad\u673a\u6784", "type": "education", "detail_url": "http://api.map.baidu.com/place/detail?uid=4a52b8dc0f6e5c3e2efaa767&output=html&source=placeapi_v2", "children": []}}, {"name": "\u521b\u610f\u561f\u561f\u513f\u7ae5\u827a\u672f\u6210\u957f\u4e2d\u5fc3", "location": {"lat": 34.244394, "lng": 108.88278}, "address": "\u897f\u5b89\u79d1\u6280\u8def\u897f\u53e3\u67ab\u97f5\u84dd\u6e7e\u4e1c\u95e8\u5546\u94fa10103\u5ba4", "province": "\u9655\u897f\u7701", "city": "\u897f\u5b89\u5e02", "area": "\u96c1\u5854\u533a", "street_id": "3907ef4c95a3299ba80dd8d9", "detail": 1, "uid": "3907ef4c95a3299ba80dd8d9", "detail_info": {"tag": "\u6559\u80b2\u57f9\u8bad;\u57f9\u8bad\u673a\u6784", "type": "education", "detail_url": "http://api.map.baidu.com/place/detail?uid=3907ef4c95a3299ba80dd8d9&output=html&source=placeapi_v2", "children": []}}, {"name": "\u534e\u6d25\u9a7e\u6821(\u7d2b\u8587\u7530\u56ed\u90fd\u5e02\u62a5\u540d\u8054\u7edc\u70b9)", "location": {"lat": 34.183827, "lng": 108.885539}, "address": "\u827a\u672f\u5927\u8857\u5317\u6bb5\u7530\u56ed\u90fd\u5e02C\u533a\u5e95\u5546", "province": "\u9655\u897f\u7701", "city": "\u897f\u5b89\u5e02", "area": "\u96c1\u5854\u533a", "street_id": "ea9303e6317763fba20464b1", "telephone": "(029)89185462", "detail": 1, "uid": "ea9303e6317763fba20464b1", "detail_info": {"tag": "\u6559\u80b2\u57f9\u8bad;\u57f9\u8bad\u673a\u6784", "type": "education", "detail_url": "http://api.map.baidu.com/place/detail?uid=ea9303e6317763fba20464b1&output=html&source=placeapi_v2", "price": "0.0", "overall_rating": "5.0", "comment_num": "1", "children": []}}, {"name": "\u9c81\u73ed\u57f9\u8bad\u542b\u5149\u5357\u8def", "location": {"lat": 34.233557, "lng": 108.938166}, "address": "\u542b\u5149\u5357\u8def262\u53f7\u6021\u5170\u5927\u53a6D202\u5ba4", "province": "\u9655\u897f\u7701", "city": "\u897f\u5b89\u5e02", "area": "\u96c1\u5854\u533a", "street_id": "a92bdf1763fb25364657266c", "detail": 1, "uid": "a92bdf1763fb25364657266c", "detail_info": {"tag": "\u6559\u80b2\u57f9\u8bad;\u57f9\u8bad\u673a\u6784", "type": "education", "detail_url": "http://api.map.baidu.com/place/detail?uid=a92bdf1763fb25364657266c&output=html&source=placeapi_v2", "price": "0.0", "comment_num": "1", "children": []}}, {"name": "\u9f99\u6587\u6559\u80b2(\u5927\u5be8\u8def\u6821\u533a)", "location": {"lat": 34.251308, "lng": 108.881863}, "address": "\u5927\u5be8\u8def\u65ed\u666f\u78a7\u6cfd\u56ed8\u680b10\u53f7", "province": "\u9655\u897f\u7701", "city": "\u897f\u5b89\u5e02", "area": "\u96c1\u5854\u533a", "street_id": "028f2b52701ee236e60738d6", "telephone": "(029)81330120", "detail": 1, "uid": "028f2b52701ee236e60738d6", "detail_info": {"tag": "\u6559\u80b2\u57f9\u8bad;\u57f9\u8bad\u673a\u6784", "type": "education", "detail_url": "http://api.map.baidu.com/place/detail?uid=028f2b52701ee236e60738d6&output=html&source=placeapi_v2", "comment_num": "1", "children": []}}, {"name": "\u4ec1\u548c\u4f1a\u8ba1\u57f9\u8bad(\u6c11\u822a\u5206\u90e8)", "location": {"lat": 34.261421, "lng": 108.916134}, "address": "\u52b3\u52a8\u5357\u8def296\u53f7\u897f\u5317\u6c11\u822a\u5927\u53a620\u5c42", "province": "\u9655\u897f\u7701", "city": "\u897f\u5b89\u5e02", "area": "\u83b2\u6e56\u533a", "street_id": "14ae5805bd512b4426e0a05c", "detail": 1, "uid": "14ae5805bd512b4426e0a05c", "detail_info": {"tag": "\u6559\u80b2\u57f9\u8bad;\u57f9\u8bad\u673a\u6784", "type": "education", "detail_url": "http://api.map.baidu.com/place/detail?uid=14ae5805bd512b4426e0a05c&output=html&source=placeapi_v2", "price": "0.0", "overall_rating": "5.0", "children": []}}, {"name": "\u534e\u6d25\u9a7e\u6821", "location": {"lat": 34.231323, "lng": 108.880227}, "address": "\u897f\u5b89\u5e02\u96c1\u5854\u533a\u4e08\u516b\u5317\u8def\u4e0e\u79d1\u6280\u4e8c\u8def\u4ea4\u53c9\u53e3\u4e1c\u5357100\u7c73", "province": "\u9655\u897f\u7701", "city": "\u897f\u5b89\u5e02", "area": "\u96c1\u5854\u533a", "street_id": "bcccecabeb2a051388f15d6a", "telephone": "(029)81774590,15991852560", "detail": 1, "uid": "bcccecabeb2a051388f15d6a", "detail_info": {"tag": "\u6559\u80b2\u57f9\u8bad;\u57f9\u8bad\u673a\u6784", "type": "education", "detail_url": "http://api.map.baidu.com/place/detail?uid=bcccecabeb2a051388f15d6a&output=html&source=placeapi_v2", "overall_rating": "5.0", "comment_num": "3", "children": []}}, {"name": "\u4e50\u9ad8\u673a\u5668\u4eba\u9ad8\u624b\u4ff1\u4e50\u90e8(\u7535\u5b50\u57ce\u5e97)", "location": {"lat": 34.220118, "lng": 108.918159}, "address": "\u9ad8\u65b0\u533a\u592a\u767d\u5357\u8def181\u53f7\u897f\u90e8\u7535\u5b50\u793e\u533aB\u5ea71506\u53f7", "province": "\u9655\u897f\u7701", "city": "\u897f\u5b89\u5e02", "area": "\u96c1\u5854\u533a", "street_id": "8cf5b3501c00465d1f3894ee", "detail": 1, "uid": "8cf5b3501c00465d1f3894ee", "detail_info": {"tag": "\u6559\u80b2\u57f9\u8bad;\u57f9\u8bad\u673a\u6784", "type": "education", "detail_url": "http://api.map.baidu.com/place/detail?uid=8cf5b3501c00465d1f3894ee&output=html&source=placeapi_v2", "children": []}}, {"name": "\u534e\u6d25\u9a7e\u6821(\u5409\u7965\u8def\u62a5\u540d\u8054\u7edc\u70b9)", "location": {"lat": 34.229049, "lng": 108.930339}, "address": "\u5409\u7965\u8def129\u53f7", "province": "\u9655\u897f\u7701", "city": "\u897f\u5b89\u5e02", "area": "\u96c1\u5854\u533a", "street_id": "6f002f9c3c85dbc545e27400", "telephone": "(029)88238321", "detail": 1, "uid": "6f002f9c3c85dbc545e27400", "detail_info": {"tag": "\u6559\u80b2\u57f9\u8bad;\u57f9\u8bad\u673a\u6784", "navi_location": {"lng": 108.93029087452, "lat": 34.228925335527}, "type": "education", "detail_url": "http://api.map.baidu.com/place/detail?uid=6f002f9c3c85dbc545e27400&output=html&source=placeapi_v2", "overall_rating": "5.0", "children": []}}, {"name": "\u897f\u5b89\u5f08\u53cb\u56f4\u68cb\u57f9\u8bad\u4e2d\u5fc3", "location": {"lat": 34.208206, "lng": 108.915126}, "address": "\u7535\u5b50\u897f\u88572\u53f7\u878d\u4fa8\u99a8\u82d1\u91d1\u8f89\u6d3b\u52a8\u4e2d\u5fc3\u4e1c1\u697c", "province": "\u9655\u897f\u7701", "city": "\u897f\u5b89\u5e02", "area": "\u96c1\u5854\u533a", "detail": 1, "uid": "21d2a2fe632b157ea9175a71", "detail_info": {"tag": "\u6559\u80b2\u57f9\u8bad;\u57f9\u8bad\u673a\u6784", "navi_location": {"lng": 108.91538641767, "lat": 34.208210106884}, "type": "education", "detail_url": "http://api.map.baidu.com/place/detail?uid=21d2a2fe632b157ea9175a71&output=html&source=placeapi_v2", "comment_num": "2", "children": []}}, {"name": "\u897f\u5b89\u73b0\u4ee3\u97f3\u4e50\u827a\u6821", "location": {"lat": 34.215284, "lng": 108.93459}, "address": "\u4e1c\u4eea\u8def202\u53f746\u4e2d\u5b66\u9694\u58c14\u5c42", "province": "\u9655\u897f\u7701", "city": "\u897f\u5b89\u5e02", "area": "\u96c1\u5854\u533a", "street_id": "32de810f184d9ef640afe6dc", "telephone": "(029)88234243", "detail": 1, "uid": "32de810f184d9ef640afe6dc", "detail_info": {"tag": "\u6559\u80b2\u57f9\u8bad;\u57f9\u8bad\u673a\u6784", "type": "education", "detail_url": "http://api.map.baidu.com/place/detail?uid=32de810f184d9ef640afe6dc&output=html&source=placeapi_v2", "overall_rating": "5.0", "children": []}}, {"name": "\u767e\u6770\u6559\u80b2", "location": {"lat": 34.23576, "lng": 108.912789}, "address": "\u9ad8\u65b0\u533a\u79d1\u6280\u8def30\u53f7\u5408\u529b\u7d2b\u90e1\u5927\u53a6A\u5ea7805\u5ba4", "province": "\u9655\u897f\u7701", "city": "\u897f\u5b89\u5e02", "area": "\u96c1\u5854\u533a", "street_id": "e2e5cf07724a34f11894c68e", "detail": 1, "uid": "e2e5cf07724a34f11894c68e", "detail_info": {"tag": "\u6559\u80b2\u57f9\u8bad;\u57f9\u8bad\u673a\u6784", "type": "education", "detail_url": "http://api.map.baidu.com/place/detail?uid=e2e5cf07724a34f11894c68e&output=html&source=placeapi_v2", "price": "0.0", "comment_num": "1", "children": []}}, {"name": "\u96c5\u5a1c\u97f3\u4e50\u827a\u672f\u5b66\u6821(\u5409\u7965\u5206\u6821)", "location": {"lat": 34.229139, "lng": 108.937333}, "address": "\u5409\u7965\u8def21F6\u5c42", "province": "\u9655\u897f\u7701", "city": "\u897f\u5b89\u5e02", "area": "\u96c1\u5854\u533a", "street_id": "43b7e889ede2311758f6be3a", "telephone": "(029)82023219", "detail": 1, "uid": "43b7e889ede2311758f6be3a", "detail_info": {"tag": "\u6559\u80b2\u57f9\u8bad;\u57f9\u8bad\u673a\u6784", "navi_location": {"lng": 108.93733280011, "lat": 34.228992344791}, "type": "education", "detail_url": "http://api.map.baidu.com/place/detail?uid=43b7e889ede2311758f6be3a&output=html&source=placeapi_v2", "price": "0.0", "overall_rating": "5.0", "children": []}}, {"name": "\u534e\u6d25\u9a7e\u6821(\u535a\u6587\u8def\u62a5\u540d\u8054\u7edc\u70b9)", "location": {"lat": 34.232342, "lng": 108.912027}, "address": "\u79d1\u521b\u8def15\u53f7", "province": "\u9655\u897f\u7701", "city": "\u897f\u5b89\u5e02", "area": "\u96c1\u5854\u533a", "street_id": "f8b1f0377502b63f57bfffd4", "telephone": "(029)88321689", "detail": 1, "uid": "f8b1f0377502b63f57bfffd4", "detail_info": {"tag": "\u6559\u80b2\u57f9\u8bad;\u57f9\u8bad\u673a\u6784", "type": "education", "detail_url": "http://api.map.baidu.com/place/detail?uid=f8b1f0377502b63f57bfffd4&output=html&source=placeapi_v2", "overall_rating": "5.0", "comment_num": "1", "children": []}}, {"name": "\u4e1c\u827a\u4eba\u624d\u57f9\u8bad\u5b66\u6821", "location": {"lat": 34.273353, "lng": 108.950802}, "address": "\u4e8c\u5e9c\u885747\u53f7", "province": "\u9655\u897f\u7701", "city": "\u897f\u5b89\u5e02", "area": "\u83b2\u6e56\u533a", "street_id": "4ce10ce633843da1441a323b", "telephone": "(029)87256814", "detail": 1, "uid": "4ce10ce633843da1441a323b", "detail_info": {"tag": "\u6559\u80b2\u57f9\u8bad;\u57f9\u8bad\u673a\u6784", "type": "education", "detail_url": "http://api.map.baidu.com/place/detail?uid=4ce10ce633843da1441a323b&output=html&source=placeapi_v2", "overall_rating": "5.0", "comment_num": "1", "children": []}}, {"name": "\u4e0a\u6d77\u4ea4\u5927\u6602\u7acb\u56fd\u9645\u6559\u80b2", "location": {"lat": 34.220683, "lng": 108.899585}, "address": "\u9ad8\u65b0\u8def86\u53f7\u9886\u5148\u65f6\u4ee3\u5e7f\u573aB\u5ea73\u5c42", "province": "\u9655\u897f\u7701", "city": "\u897f\u5b89\u5e02", "area": "\u96c1\u5854\u533a", "street_id": "a42c37ddc21daf4d59bbbc4a", "telephone": "(029)89188261", "detail": 1, "uid": "a42c37ddc21daf4d59bbbc4a", "detail_info": {"tag": "\u6559\u80b2\u57f9\u8bad;\u57f9\u8bad\u673a\u6784", "navi_location": {"lng": 108.89973946999, "lat": 34.220562473702}, "type": "education", "detail_url": "http://api.map.baidu.com/place/detail?uid=a42c37ddc21daf4d59bbbc4a&output=html&source=placeapi_v2", "overall_rating": "5.0", "children": []}}, {"name": "\u5409\u7684\u5821\u5c11\u513f\u82f1\u8bed\u57f9\u8bad(\u897f\u5317\u5927\u5b66\u5206\u6821)", "location": {"lat": 34.2509, "lng": 108.929789}, "address": "\u592a\u767d\u5317\u8def260\u53f7\u5929\u6da6\u5927\u53a62\u5c42", "province": "\u9655\u897f\u7701", "city": "\u897f\u5b89\u5e02", "area": "\u7891\u6797\u533a", "street_id": "1b976ce2e33a96abece4a5c0", "detail": 1, "uid": "1b976ce2e33a96abece4a5c0", "detail_info": {"tag": "\u6559\u80b2\u57f9\u8bad;\u57f9\u8bad\u673a\u6784", "type": "education", "detail_url": "http://api.map.baidu.com/place/detail?uid=1b976ce2e33a96abece4a5c0&output=html&source=placeapi_v2", "overall_rating": "5.0", "comment_num": "1", "children": []}}, {"name": "\u897f\u90e8\u9a7e\u6821", "location": {"lat": 34.26561, "lng": 108.810562}, "address": "\u897f\u5b89\u5e02\u957f\u5b89\u533a\u897f\u5b9d\u516c\u8def", "province": "\u9655\u897f\u7701", "city": "\u897f\u5b89\u5e02", "area": "\u957f\u5b89\u533a", "street_id": "61600fb0ecf908d89fec2b0f", "telephone": "13289881761,13891849943", "detail": 1, "uid": "61600fb0ecf908d89fec2b0f", "detail_info": {"tag": "\u6559\u80b2\u57f9\u8bad;\u57f9\u8bad\u673a\u6784", "type": "education", "detail_url": "http://api.map.baidu.com/place/detail?uid=61600fb0ecf908d89fec2b0f&output=html&source=placeapi_v2", "overall_rating": "5.0", "children": []}}, {"name": "\u5c1a\u5b66\u5802\u6559\u80b2", "location": {"lat": 34.202227, "lng": 108.876014}, "address": "\u897f\u5b89\u5e02\u96c1\u5854\u533a\u7eff\u5730\u4e16\u7eaa\u57cea\u533a\u897f\u95e8", "province": "\u9655\u897f\u7701", "city": "\u897f\u5b89\u5e02", "area": "\u96c1\u5854\u533a", "street_id": "951ffaebb438d0b193114c21", "detail": 1, "uid": "951ffaebb438d0b193114c21", "detail_info": {"tag": "\u6559\u80b2\u57f9\u8bad;\u57f9\u8bad\u673a\u6784", "type": "education", "detail_url": "http://api.map.baidu.com/place/detail?uid=951ffaebb438d0b193114c21&output=html&source=placeapi_v2", "overall_rating": "5.0", "children": []}}, {"name": "\u897f\u5b89\u534e\u590f\u4e4b\u5149\u57f9\u8bad\u5b66\u6821", "location": {"lat": 34.269279, "lng": 108.924796}, "address": "\u9655\u897f\u7701\u897f\u5b89\u5e02\u83b2\u6e56\u533a\u94c1\u5854\u5bfa\u8def\u4e2d\u6bb554\u53f7", "province": "\u9655\u897f\u7701", "city": "\u897f\u5b89\u5e02", "area": "\u83b2\u6e56\u533a", "street_id": "0999b3972e88e293616858af", "telephone": "18066570297", "detail": 1, "uid": "0999b3972e88e293616858af", "detail_info": {"tag": "\u6559\u80b2\u57f9\u8bad;\u57f9\u8bad\u673a\u6784", "navi_location": {"lng": 108.92459451447, "lat": 34.269371079176}, "type": "education", "detail_url": "http://api.map.baidu.com/place/detail?uid=0999b3972e88e293616858af&output=html&source=placeapi_v2", "price": "620.0", "overall_rating": "5.0", "comment_num": "3", "children": []}}, {"name": "\u5b8f\u5b89\u9a7e\u6821", "location": {"lat": 34.254861, "lng": 108.807703}, "address": "\u5468\u5434\u675121\u53f7\u9644\u8fd1", "province": "\u9655\u897f\u7701", "city": "\u897f\u5b89\u5e02", "area": "\u957f\u5b89\u533a", "detail": 1, "uid": "544602634a06f607b44f5479", "detail_info": {"tag": "\u6559\u80b2\u57f9\u8bad;\u57f9\u8bad\u673a\u6784", "type": "education", "detail_url": "http://api.map.baidu.com/place/detail?uid=544602634a06f607b44f5479&output=html&source=placeapi_v2", "overall_rating": "5.0", "children": []}}, {"name": "\u661f\u5750\u6807\u6559\u80b2", "location": {"lat": 34.205843, "lng": 108.926362}, "address": "\u7535\u5b50\u6b63\u8857\u96c1\u5854\u5546\u52a1B\u5ea73\u697c301\uff5e302/501", "province": "\u9655\u897f\u7701", "city": "\u897f\u5b89\u5e02", "area": "\u96c1\u5854\u533a", "street_id": "1321072d1ee6b32a3586f4a7", "telephone": "(029)88283448", "detail": 1, "uid": "1321072d1ee6b32a3586f4a7", "detail_info": {"tag": "\u6559\u80b2\u57f9\u8bad;\u57f9\u8bad\u673a\u6784", "navi_location": {"lng": 108.92618599652, "lat": 34.205830250836}, "type": "education", "detail_url": "http://api.map.baidu.com/place/detail?uid=1321072d1ee6b32a3586f4a7&output=html&source=placeapi_v2", "comment_num": "2", "children": []}}, {"name": "\u661f\u706b\u9a7e\u6821\u62db\u751f\u70b9", "location": {"lat": 34.287988, "lng": 109.01283}, "address": "\u516c\u56ed\u5317\u8def\u897f50\u7c73", "province": "\u9655\u897f\u7701", "city": "\u897f\u5b89\u5e02", "area": "\u65b0\u57ce\u533a", "street_id": "1efee5783c7a6a34adb22aa7", "telephone": "13152157229", "detail": 1, "uid": "1efee5783c7a6a34adb22aa7", "detail_info": {"tag": "\u6559\u80b2\u57f9\u8bad;\u57f9\u8bad\u673a\u6784", "navi_location": {"lng": 109.01320116194, "lat": 34.287997296717}, "type": "education", "detail_url": "http://api.map.baidu.com/place/detail?uid=1efee5783c7a6a34adb22aa7&output=html&source=placeapi_v2", "overall_rating": "5.0", "comment_num": "1", "children": []}}, {"name": "\u8d1d\u7231\u7279\u827a\u672f\u5b66\u6821", "location": {"lat": 34.287133, "lng": 109.002542}, "address": "\u91d1\u82b1\u5317\u8def301\u7d2b\u6615\u534e\u5ead6\u697c", "province": "\u9655\u897f\u7701", "city": "\u897f\u5b89\u5e02", "area": "\u65b0\u57ce\u533a", "street_id": "97ad81216e4aa07cddee8b0d", "telephone": "(029)63679633", "detail": 1, "uid": "97ad81216e4aa07cddee8b0d", "detail_info": {"tag": "\u6559\u80b2\u57f9\u8bad;\u57f9\u8bad\u673a\u6784", "navi_location": {"lng": 109.00237392066, "lat": 34.287215874379}, "type": "education", "detail_url": "http://api.map.baidu.com/place/detail?uid=97ad81216e4aa07cddee8b0d&output=html&source=placeapi_v2", "children": []}}, {"name": "\u5173\u4e2d\u9a7e\u6821\u62a5\u540d\u5904", "location": {"lat": 34.316997, "lng": 109.023173}, "address": "\u9655\u897f\u7701\u897f\u5b89\u5e02\u672a\u592e\u533a\u5e7f\u5b89\u8def\u4e0e\u65b0\u5174\u8def\u4ea4\u53c9\u53e3\u65c1", "province": "\u9655\u897f\u7701", "city": "\u897f\u5b89\u5e02", "area": "\u672a\u592e\u533a", "street_id": "c6acf0f210a8f8e76e20b9be", "telephone": "15291188871", "detail": 1, "uid": "c6acf0f210a8f8e76e20b9be", "detail_info": {"tag": "\u6559\u80b2\u57f9\u8bad;\u57f9\u8bad\u673a\u6784", "navi_location": {"lng": 109.02335589128, "lat": 34.316780964296}, "type": "education", "detail_url": "http://api.map.baidu.com/place/detail?uid=c6acf0f210a8f8e76e20b9be&output=html&source=placeapi_v2", "overall_rating": "5.0", "comment_num": "1", "children": []}}, {"name": "\u79e6\u5317\u9a7e\u6821(\u5e7f\u5b89\u8def)", "location": {"lat": 34.313768, "lng": 109.001731}, "address": "\u91d1\u82b1\u5317\u8def\u4e0a\u6d77\u5e0c\u53cb\u9ebb\u5c06\u673a\u4e1c\u5317\u4fa7", "province": "\u9655\u897f\u7701", "city": "\u897f\u5b89\u5e02", "area": "\u672a\u592e\u533a", "street_id": "ad06fafc206575ade9f8538f", "telephone": "(029)86628508", "detail": 1, "uid": "ad06fafc206575ade9f8538f", "detail_info": {"tag": "\u6559\u80b2\u57f9\u8bad;\u57f9\u8bad\u673a\u6784", "navi_location": {"lng": 109.00182772037, "lat": 34.313759199347}, "type": "education", "detail_url": "http://api.map.baidu.com/place/detail?uid=ad06fafc206575ade9f8538f&output=html&source=placeapi_v2", "overall_rating": "5.0", "comment_num": "2", "children": []}}, {"name": "\u6d77\u4e1d\u9edb", "location": {"lat": 34.38715, "lng": 108.984034}, "address": "\u9655\u897f\u7701\u897f\u5b89\u5e02\u672a\u592e\u533a\u9f99\u6714\u8def", "province": "\u9655\u897f\u7701", "city": "\u897f\u5b89\u5e02", "area": "\u672a\u592e\u533a", "street_id": "137d213b668121e5c61b756c", "detail": 1, "uid": "137d213b668121e5c61b756c", "detail_info": {"tag": "\u6559\u80b2\u57f9\u8bad;\u57f9\u8bad\u673a\u6784", "type": "education", "detail_url": "http://api.map.baidu.com/place/detail?uid=137d213b668121e5c61b756c&output=html&source=placeapi_v2", "comment_num": "1", "children": []}}, {"name": "\u4e07\u9686\u6559\u80b2", "location": {"lat": 34.281029, "lng": 108.960936}, "address": "\u897f\u516b\u8def158\u53f7601\u5ba4", "province": "\u9655\u897f\u7701", "city": "\u897f\u5b89\u5e02", "area": "\u65b0\u57ce\u533a", "street_id": "848a8e26e5a8ab6903ec0113", "telephone": "(029)87339425,13279313086", "detail": 1, "uid": "848a8e26e5a8ab6903ec0113", "detail_info": {"tag": "\u6559\u80b2\u57f9\u8bad;\u57f9\u8bad\u673a\u6784", "navi_location": {"lng": 108.96093494196, "lat": 34.281176445419}, "type": "education", "detail_url": "http://api.map.baidu.com/place/detail?uid=848a8e26e5a8ab6903ec0113&output=html&source=placeapi_v2", "children": []}}, {"name": "\u80b2\u624d\u82d1\u6559\u80b2(\u9655\u897f\u5206\u516c\u53f8)", "location": {"lat": 34.31923, "lng": 108.95413}, "address": "\u5229\u541bV\u65f6\u4ee3B\u5ea78\u5c4220801/20806", "province": "\u9655\u897f\u7701", "city": "\u897f\u5b89\u5e02", "area": "\u672a\u592e\u533a", "street_id": "477461bea2d3f44914948ebe", "detail": 1, "uid": "477461bea2d3f44914948ebe", "detail_info": {"tag": "\u6559\u80b2\u57f9\u8bad;\u57f9\u8bad\u673a\u6784", "type": "education", "detail_url": "http://api.map.baidu.com/place/detail?uid=477461bea2d3f44914948ebe&output=html&source=placeapi_v2", "overall_rating": "5.0", "children": []}}, {"name": "\u5bcc\u6c11\u9a7e\u6821\u62db\u751f\u62a5\u540d\u70b9", "location": {"lat": 34.311626, "lng": 108.956996}, "address": "\u5317\u4e8c\u73af\u672a\u592e\u7acb\u4ea4\u4e2d\u6bb5\u82cf\u5b81\u7535\u56681\u5c42", "province": "\u9655\u897f\u7701", "city": "\u897f\u5b89\u5e02", "area": "\u672a\u592e\u533a", "street_id": "882e5678f098742a11882420", "telephone": "18992807566", "detail": 1, "uid": "882e5678f098742a11882420", "detail_info": {"tag": "\u6559\u80b2\u57f9\u8bad;\u57f9\u8bad\u673a\u6784", "navi_location": {"lng": 108.9569968784, "lat": 34.311382863489}, "type": "education", "detail_url": "http://api.map.baidu.com/place/detail?uid=882e5678f098742a11882420&output=html&source=placeapi_v2", "overall_rating": "5.0", "children": []}}, {"name": "\u9633\u5149\u4e1c\u65b9\u56fd\u8f89\u6587\u5316\u827a\u672f\u57f9\u8bad\u5b66\u6821", "location": {"lat": 34.286953, "lng": 108.977206}, "address": "\u81ea\u5f3a\u4e1c\u8def36\u53f7\u81ea\u5f18\u4e2d\u5b66\u5185", "province": "\u9655\u897f\u7701", "city": "\u897f\u5b89\u5e02", "area": "\u65b0\u57ce\u533a", "street_id": "b35237e09aba513917c8f6ba", "detail": 1, "uid": "b35237e09aba513917c8f6ba", "detail_info": {"tag": "\u6559\u80b2\u57f9\u8bad;\u57f9\u8bad\u673a\u6784", "type": "education", "detail_url": "http://api.map.baidu.com/place/detail?uid=b35237e09aba513917c8f6ba&output=html&source=placeapi_v2", "overall_rating": "5.0", "children": []}}, {"name": "\u897f\u9ad8\u9a7e\u6821(\u897f\u5b89\u6b63\u5408\u953b\u538b\u5382\u5c45\u6c11\u5c0f\u533a\u897f)", "location": {"lat": 34.330165, "lng": 109.08175}, "address": "325\u53bf\u9053\u9644\u8fd1", "province": "\u9655\u897f\u7701", "city": "\u897f\u5b89\u5e02", "area": "\u705e\u6865\u533a", "street_id": "bc0a117abd70702ab1077df0", "detail": 1, "uid": "bc0a117abd70702ab1077df0", "detail_info": {"tag": "\u6559\u80b2\u57f9\u8bad;\u57f9\u8bad\u673a\u6784", "type": "education", "detail_url": "http://api.map.baidu.com/place/detail?uid=bc0a117abd70702ab1077df0&output=html&source=placeapi_v2", "overall_rating": "5.0", "children": []}}, {"name": "\u57f9\u4f18\u6559\u80b2", "location": {"lat": 34.346632, "lng": 109.107575}, "address": "210\u56fd\u9053\u9644\u8fd1", "province": "\u9655\u897f\u7701", "city": "\u897f\u5b89\u5e02", "area": "\u705e\u6865\u533a", "street_id": "40a8c67d8a420c83d5b74ea0", "detail": 1, "uid": "40a8c67d8a420c83d5b74ea0", "detail_info": {"tag": "\u6559\u80b2\u57f9\u8bad;\u57f9\u8bad\u673a\u6784", "type": "education", "detail_url": "http://api.map.baidu.com/place/detail?uid=40a8c67d8a420c83d5b74ea0&output=html&source=placeapi_v2", "children": []}}, {"name": "\u897f\u5b89\u76db\u6e90\u9a7e\u6821\u62db\u751f\u70b9", "location": {"lat": 34.292987, "lng": 109.077628}, "address": "\u5e2d\u738b\u8def\u56fd\u5bb6\u7535\u7f51\u4e1c\u4fa730\u7c73", "province": "\u9655\u897f\u7701", "city": "\u897f\u5b89\u5e02", "area": "\u705e\u6865\u533a", "street_id": "9d0efe05463baa86306212c3", "telephone": "13572542254", "detail": 1, "uid": "9d0efe05463baa86306212c3", "detail_info": {"tag": "\u6559\u80b2\u57f9\u8bad;\u57f9\u8bad\u673a\u6784", "type": "education", "detail_url": "http://api.map.baidu.com/place/detail?uid=9d0efe05463baa86306212c3&output=html&source=placeapi_v2", "price": "0.0", "overall_rating": "5.0", "comment_num": "2", "children": []}}, {"name": "\u897f\u5b89\u705e\u6865\u6570\u5b57\u4f20\u5a92\u57f9\u8bad\u5b66\u6821", "location": {"lat": 34.319823, "lng": 109.043619}, "address": "\u73af\u56db\u8def\u4e0e\u6d50\u705e\u5927\u9053\u4ea4\u6c47\u5904\u897f\u5357\u89d2", "province": "\u9655\u897f\u7701", "city": "\u897f\u5b89\u5e02", "area": "\u705e\u6865\u533a", "street_id": "3a8ec2857198aeeab220a88d", "detail": 1, "uid": "3a8ec2857198aeeab220a88d", "detail_info": {"tag": "\u6559\u80b2\u57f9\u8bad;\u57f9\u8bad\u673a\u6784", "navi_location": {"lng": 109.04353976777, "lat": 34.320552630661}, "type": "education", "detail_url": "http://api.map.baidu.com/place/detail?uid=3a8ec2857198aeeab220a88d&output=html&source=placeapi_v2", "overall_rating": "5.0", "children": []}}, {"name": "\u5929\u5e73\u9a7e\u6821\u54a8\u8be2\u62a5\u540d\u5904", "location": {"lat": 34.292271, "lng": 109.036501}, "address": "\u9655\u897f\u7701\u897f\u5b89\u5e02\u705e\u6865\u533a\u957f\u5341\u8def\u526f28\u53f7\u9644\u8fd1", "province": "\u9655\u897f\u7701", "city": "\u897f\u5b89\u5e02", "area": "\u705e\u6865\u533a", "street_id": "357aeb2392ed1b80f942b2e0", "telephone": "13572188098", "detail": 1, "uid": "357aeb2392ed1b80f942b2e0", "detail_info": {"tag": "\u6559\u80b2\u57f9\u8bad;\u57f9\u8bad\u673a\u6784", "type": "education", "detail_url": "http://api.map.baidu.com/place/detail?uid=357aeb2392ed1b80f942b2e0&output=html&source=placeapi_v2", "overall_rating": "5.0", "comment_num": "1", "children": []}}, {"name": "WELCOME TO IMMI BABY", "location": {"lat": 34.284931, "lng": 109.000737}, "address": "\u897f\u5b89\u5e02\u65b0\u57ce\u533a\u957f\u7f28\u897f\u8def1\u53f7\u4e07\u548c\u57ce\u8d2d\u7269\u4e2d\u5fc3F3", "province": "\u9655\u897f\u7701", "city": "\u897f\u5b89\u5e02", "area": "\u65b0\u57ce\u533a", "street_id": "c47e8170e66125cd76e5b673", "detail": 1, "uid": "c47e8170e66125cd76e5b673", "detail_info": {"tag": "\u6559\u80b2\u57f9\u8bad;\u57f9\u8bad\u673a\u6784", "navi_location": {"lng": 109.00190291123, "lat": 34.285723687114}, "indoor_floor": "F3", "type": "education", "detail_url": "http://api.map.baidu.com/place/detail?uid=c47e8170e66125cd76e5b673&output=html&source=placeapi_v2", "children": []}}, {"name": "\u534e\u6d25\u9a7e\u6821(\u516b\u5e9c\u5e84\u62a5\u540d\u8054\u7edc\u70b9)", "location": {"lat": 34.295916, "lng": 108.98645}, "address": "\u516b\u5e9c\u5e84\u56ed\u5546\u4e1a\u8857\u4e1c150\u7c73", "province": "\u9655\u897f\u7701", "city": "\u897f\u5b89\u5e02", "area": "\u65b0\u57ce\u533a", "street_id": "7b5ba9619d331e8d78f796a8", "telephone": "(029)86701034", "detail": 1, "uid": "7b5ba9619d331e8d78f796a8", "detail_info": {"tag": "\u6559\u80b2\u57f9\u8bad;\u57f9\u8bad\u673a\u6784", "type": "education", "detail_url": "http://api.map.baidu.com/place/detail?uid=7b5ba9619d331e8d78f796a8&output=html&source=placeapi_v2", "overall_rating": "5.0", "children": []}}, {"name": "\u9e4f\u665f\u6559\u80b2", "location": {"lat": 34.312804, "lng": 108.992896}, "address": "\u9655\u897f\u7701\u897f\u5b89\u5e02\u672a\u592e\u533a\u592a\u548c\u8def\u957f\u5b89\u6613\u5c45\u7efc\u5408\u697c1\u697c", "province": "\u9655\u897f\u7701", "city": "\u897f\u5b89\u5e02", "area": "\u672a\u592e\u533a", "street_id": "c6a45dfe135d26da88db73fa", "detail": 1, "uid": "c6a45dfe135d26da88db73fa", "detail_info": {"tag": "\u6559\u80b2\u57f9\u8bad;\u57f9\u8bad\u673a\u6784", "navi_location": {"lng": 108.99217046273, "lat": 34.3123009546}, "type": "education", "detail_url": "http://api.map.baidu.com/place/detail?uid=c6a45dfe135d26da88db73fa&output=html&source=placeapi_v2", "children": []}}, {"name": "\u767e\u987a\u9a7e\u6821\u62a5\u540d\u8054\u7edc\u70b9", "location": {"lat": 34.283237, "lng": 108.997531}, "address": "\u957f\u7f28\u897f\u8def100\u53f7", "province": "\u9655\u897f\u7701", "city": "\u897f\u5b89\u5e02", "area": "\u65b0\u57ce\u533a", "street_id": "97094c399e4be9bfd6b74ed9", "telephone": "(029)82517331", "detail": 1, "uid": "97094c399e4be9bfd6b74ed9", "detail_info": {"tag": "\u6559\u80b2\u57f9\u8bad;\u57f9\u8bad\u673a\u6784", "navi_location": {"lng": 108.99727955735, "lat": 34.283417052802}, "type": "education", "detail_url": "http://api.map.baidu.com/place/detail?uid=97094c399e4be9bfd6b74ed9&output=html&source=placeapi_v2", "overall_rating": "5.0", "children": []}}, {"name": "\u9655\u897f\u79d1\u6280\u5927\u5b66-\u5de5\u7a0b\u8bad\u7ec3\u4e2d\u5fc3", "location": {"lat": 34.384041, "lng": 108.981394}, "address": "\u5317\u8f7b\u8def\u9644\u8fd1", "province": "\u9655\u897f\u7701", "city": "\u897f\u5b89\u5e02", "area": "\u672a\u592e\u533a", "detail": 1, "uid": "1c78914921d4b1a4c4f50d29", "detail_info": {"tag": "\u6559\u80b2\u57f9\u8bad;\u57f9\u8bad\u673a\u6784", "type": "education", "detail_url": "http://api.map.baidu.com/place/detail?uid=1c78914921d4b1a4c4f50d29&output=html&source=placeapi_v2", "children": []}}, {"name": "\u5458\u5de5\u533a\u57df", "location": {"lat": 34.334572, "lng": 108.952411}, "address": "\u897f\u5b89\u5e02\u672a\u592e\u533a\u672a\u592e\u8def150\u53f7\u4e16\u7eaa\u91d1\u82b1F2", "province": "\u9655\u897f\u7701", "city": "\u897f\u5b89\u5e02", "area": "\u672a\u592e\u533a", "street_id": "8cead67d8fce558e35b06c67", "detail": 1, "uid": "8cead67d8fce558e35b06c67", "detail_info": {"tag": "\u6559\u80b2\u57f9\u8bad;\u57f9\u8bad\u673a\u6784", "navi_location": {"lng": 108.95072520307, "lat": 34.335899244692}, "indoor_floor": "F2", "type": "education", "detail_url": "http://api.map.baidu.com/place/detail?uid=8cead67d8fce558e35b06c67&output=html&source=placeapi_v2", "children": []}}, {"name": "\u897f\u5b89\u5148\u950b\u9a7e\u6821", "location": {"lat": 34.360416, "lng": 108.969195}, "address": "\u7ea2\u65d7\u8def23\u53f7", "province": "\u9655\u897f\u7701", "city": "\u897f\u5b89\u5e02", "area": "\u672a\u592e\u533a", "detail": 1, "uid": "7cd6bed816921e0d7402699d", "detail_info": {"tag": "\u6559\u80b2\u57f9\u8bad;\u57f9\u8bad\u673a\u6784", "type": "education", "detail_url": "http://api.map.baidu.com/place/detail?uid=7cd6bed816921e0d7402699d&output=html&source=placeapi_v2", "children": []}}, {"name": "\u5458\u5de5\u533a\u57df", "location": {"lat": 34.305542, "lng": 108.952028}, "address": "\u897f\u5b89\u5e02\u672a\u592e\u533a\u672a\u592e\u8def80\u53f7\u6c11\u751f\u767e\u8d27F3", "province": "\u9655\u897f\u7701", "city": "\u897f\u5b89\u5e02", "area": "\u672a\u592e\u533a", "street_id": "60ade81599c0b18a5a3ac897", "detail": 1, "uid": "60ade81599c0b18a5a3ac897", "detail_info": {"tag": "\u6559\u80b2\u57f9\u8bad;\u57f9\u8bad\u673a\u6784", "navi_location": {"lng": 108.95103196542, "lat": 34.305781219262}, "indoor_floor": "F3", "type": "education", "detail_url": "http://api.map.baidu.com/place/detail?uid=60ade81599c0b18a5a3ac897&output=html&source=placeapi_v2", "children": []}}, {"name": "\u5b89\u99a8\u6559\u80b2\u6258\u7ba1\u4e2d\u5fc3", "location": {"lat": 34.281029, "lng": 108.960936}, "address": "\u897f\u516b\u8def158\u53f74\u697c", "province": "\u9655\u897f\u7701", "city": "\u897f\u5b89\u5e02", "area": "\u65b0\u57ce\u533a", "street_id": "b6ece5a6f13deee8df1e52a2", "telephone": "(029)87437576,15332444475", "detail": 1, "uid": "b6ece5a6f13deee8df1e52a2", "detail_info": {"tag": "\u6559\u80b2\u57f9\u8bad;\u57f9\u8bad\u673a\u6784", "navi_location": {"lng": 108.96093494196, "lat": 34.281176445419}, "type": "education", "detail_url": "http://api.map.baidu.com/place/detail?uid=b6ece5a6f13deee8df1e52a2&output=html&source=placeapi_v2", "overall_rating": "5.0", "children": []}}, {"name": "\u7eff\u53f6\u5bb6\u6559\u5b66\u4e60\u4e2d\u5fc3", "location": {"lat": 34.281029, "lng": 108.960936}, "address": "\u897f\u516b\u8def158\u53f75\u697c", "province": "\u9655\u897f\u7701", "city": "\u897f\u5b89\u5e02", "area": "\u65b0\u57ce\u533a", "street_id": "0c940ec1ff87a51703ec0195", "telephone": "18991102096", "detail": 1, "uid": "0c940ec1ff87a51703ec0195", "detail_info": {"tag": "\u6559\u80b2\u57f9\u8bad;\u57f9\u8bad\u673a\u6784", "navi_location": {"lng": 108.96093494196, "lat": 34.281176445419}, "type": "education", "detail_url": "http://api.map.baidu.com/place/detail?uid=0c940ec1ff87a51703ec0195&output=html&source=placeapi_v2", "overall_rating": "5.0", "children": []}}, {"name": "\u540d\u5e08\u8054\u76df\u6559\u80b2", "location": {"lat": 34.280118, "lng": 108.956507}, "address": "\u897f\u4e03\u8def285\u53f7", "province": "\u9655\u897f\u7701", "city": "\u897f\u5b89\u5e02", "area": "\u65b0\u57ce\u533a", "street_id": "6ee5fd8b4923dcb94f3a5973", "detail": 1, "uid": "6ee5fd8b4923dcb94f3a5973", "detail_info": {"tag": "\u6559\u80b2\u57f9\u8bad;\u57f9\u8bad\u673a\u6784", "type": "education", "detail_url": "http://api.map.baidu.com/place/detail?uid=6ee5fd8b4923dcb94f3a5973&output=html&source=placeapi_v2", "children": []}}, {"name": "\u4e00\u77f3\u4e66\u9662\u6559\u80b2", "location": {"lat": 34.289155, "lng": 108.953791}, "address": "\u817e\u98de\u9e3f\u7fd4\u5927\u53a612\u5c42", "province": "\u9655\u897f\u7701", "city": "\u897f\u5b89\u5e02", "area": "\u65b0\u57ce\u533a", "street_id": "19d2e17bdf0226f0c056aceb", "detail": 1, "uid": "19d2e17bdf0226f0c056aceb", "detail_info": {"tag": "\u6559\u80b2\u57f9\u8bad;\u57f9\u8bad\u673a\u6784", "type": "education", "detail_url": "http://api.map.baidu.com/place/detail?uid=19d2e17bdf0226f0c056aceb&output=html&source=placeapi_v2", "children": []}}, {"name": "\u91d1\u7a57\u9a7e\u6821", "location": {"lat": 34.372611, "lng": 109.00393}, "address": "\u9655\u897f\u7701\u897f\u5b89\u5e02\u672a\u592e\u533a\u8f9b\u738b\u516c\u8def\u9644\u8fd1", "province": "\u9655\u897f\u7701", "city": "\u897f\u5b89\u5e02", "area": "\u672a\u592e\u533a", "street_id": "6e0c3b7e7dda4b5f018972c8", "telephone": "13679217359", "detail": 1, "uid": "6e0c3b7e7dda4b5f018972c8", "detail_info": {"tag": "\u6559\u80b2\u57f9\u8bad;\u57f9\u8bad\u673a\u6784", "type": "education", "detail_url": "http://api.map.baidu.com/place/detail?uid=6e0c3b7e7dda4b5f018972c8&output=html&source=placeapi_v2", "overall_rating": "5.0", "children": []}}, {"name": "\u897f\u5b89\u7891\u6797\u9a7e\u6821\u62a5\u540d\u5904", "location": {"lat": 34.301504, "lng": 109.034536}, "address": "\u9655\u897f\u7701\u897f\u5b89\u5e02\u705e\u6865\u533a\u5341\u91cc\u94fa\u5317\u8def\u897f\u5b89\u7891\u6797\u9a7e\u6821\u62a5\u540d\u5904", "province": "\u9655\u897f\u7701", "city": "\u897f\u5b89\u5e02", "area": "\u705e\u6865\u533a", "street_id": "d95976c7519827e90b69d926", "telephone": "(029)86795364", "detail": 1, "uid": "d95976c7519827e90b69d926", "detail_info": {"tag": "\u6559\u80b2\u57f9\u8bad;\u57f9\u8bad\u673a\u6784", "type": "education", "detail_url": "http://api.map.baidu.com/place/detail?uid=d95976c7519827e90b69d926&output=html&source=placeapi_v2", "overall_rating": "1.0", "comment_num": "2", "children": []}}, {"name": "\u5bcc\u6c11\u9a7e\u6821\u62db\u751f\u62a5\u540d\u5904", "location": {"lat": 34.312332, "lng": 109.001513}, "address": "\u91cd\u5149\u8def13\u53f7\u9644\u8fd1", "province": "\u9655\u897f\u7701", "city": "\u897f\u5b89\u5e02", "area": "\u672a\u592e\u533a", "street_id": "96b2d0312f3c00beb35c6af5", "detail": 1, "uid": "96b2d0312f3c00beb35c6af5", "detail_info": {"tag": "\u6559\u80b2\u57f9\u8bad;\u57f9\u8bad\u673a\u6784", "type": "education", "detail_url": "http://api.map.baidu.com/place/detail?uid=96b2d0312f3c00beb35c6af5&output=html&source=placeapi_v2", "children": []}}, {"name": "XIYIN GINWA", "location": {"lat": 34.33527, "lng": 108.953158}, "address": "\u897f\u5b89\u5e02\u672a\u592e\u533a\u672a\u592e\u8def150\u53f7\u4e16\u7eaa\u91d1\u82b1B1", "province": "\u9655\u897f\u7701", "city": "\u897f\u5b89\u5e02", "area": "\u672a\u592e\u533a", "street_id": "ca6890fd4d17f2c099005035", "detail": 1, "uid": "ca6890fd4d17f2c099005035", "detail_info": {"tag": "\u6559\u80b2\u57f9\u8bad;\u57f9\u8bad\u673a\u6784", "indoor_floor": "B1", "type": "education", "detail_url": "http://api.map.baidu.com/place/detail?uid=ca6890fd4d17f2c099005035&output=html&source=placeapi_v2", "children": []}}, {"name": "\u65b0\u661f\u97f3\u4e50\u821e\u8e48\u5b66\u6821", "location": {"lat": 34.323002, "lng": 108.953266}, "address": "\u672a\u592e\u8def126\u53f7\u8d5b\u9ad8\u5546\u52a1\u6e2f6\u5c42", "province": "\u9655\u897f\u7701", "city": "\u897f\u5b89\u5e02", "area": "\u672a\u592e\u533a", "street_id": "a3a7e2bd3c8915b215a190d3", "detail": 1, "uid": "a3a7e2bd3c8915b215a190d3", "detail_info": {"tag": "\u6559\u80b2\u57f9\u8bad;\u57f9\u8bad\u673a\u6784", "type": "education", "detail_url": "http://api.map.baidu.com/place/detail?uid=a3a7e2bd3c8915b215a190d3&output=html&source=placeapi_v2", "children": []}}, {"name": "\u8dc6\u62f3\u9053\u4e13\u4e1a\u6280\u80fd\u57f9\u8bad", "location": {"lat": 34.321721, "lng": 108.953205}, "address": "\u672a\u592e\u8def126\u53f7\u8d5b\u9ad8\u56fd\u9645D\u5ea77\u5c42-D5", "province": "\u9655\u897f\u7701", "city": "\u897f\u5b89\u5e02", "area": "\u672a\u592e\u533a", "street_id": "8f25eb8218135edfeaf853d0", "detail": 1, "uid": "8f25eb8218135edfeaf853d0", "detail_info": {"tag": "\u6559\u80b2\u57f9\u8bad;\u57f9\u8bad\u673a\u6784", "navi_location": {"lng": 108.95320598603, "lat": 34.321450257662}, "type": "education", "detail_url": "http://api.map.baidu.com/place/detail?uid=8f25eb8218135edfeaf853d0&output=html&source=placeapi_v2", "overall_rating": "5.0", "comment_num": "1", "children": []}}, {"name": "\u897f\u5b89\u5148\u950b\u9a7e\u6821\u62a5\u540d\u5904", "location": {"lat": 34.360508, "lng": 108.969627}, "address": "\u7ea2\u65d7\u8def23", "province": "\u9655\u897f\u7701", "city": "\u897f\u5b89\u5e02", "area": "\u672a\u592e\u533a", "street_id": "c84ccb63e5a9f2b45bbbbcab", "telephone": "(029)86622278", "detail": 1, "uid": "c84ccb63e5a9f2b45bbbbcab", "detail_info": {"tag": "\u6559\u80b2\u57f9\u8bad;\u57f9\u8bad\u673a\u6784", "type": "education", "detail_url": "http://api.map.baidu.com/place/detail?uid=c84ccb63e5a9f2b45bbbbcab&output=html&source=placeapi_v2", "children": []}}, {"name": "\u552f\u77e5\u6559\u80b2", "location": {"lat": 34.337917, "lng": 108.954119}, "address": "\u7ecf\u5f00\u533a\u672a\u592e\u8def\u4e0e\u51e4\u57ce\u4e94\u8def\u5341\u5b57\u4e1c\u5317\u89d2MAX\u672a\u6765\u57ceA\u5ea724\u5c42", "province": "\u9655\u897f\u7701", "city": "\u897f\u5b89\u5e02", "area": "\u672a\u592e\u533a", "street_id": "6986aa286d432745a0046413", "detail": 1, "uid": "6986aa286d432745a0046413", "detail_info": {"tag": "\u6559\u80b2\u57f9\u8bad;\u57f9\u8bad\u673a\u6784", "type": "education", "detail_url": "http://api.map.baidu.com/place/detail?uid=6986aa286d432745a0046413&output=html&source=placeapi_v2", "children": []}}, {"name": "\u5927\u4f17\u4f1a\u8ba1\u6559\u80b2\u96c6\u56e2", "location": {"lat": 34.337917, "lng": 108.954119}, "address": "\u7ecf\u5f00\u533a\u672a\u592e\u8def\u4e0e\u51e4\u57ce\u4e94\u8def\u5341\u5b57\u4e1c\u5317\u89d2MAX\u672a\u6765\u57ceA\u5ea725\u5c42", "province": "\u9655\u897f\u7701", "city": "\u897f\u5b89\u5e02", "area": "\u672a\u592e\u533a", "street_id": "4d9a8153476f14f15810939d", "detail": 1, "uid": "4d9a8153476f14f15810939d", "detail_info": {"tag": "\u6559\u80b2\u57f9\u8bad;\u57f9\u8bad\u673a\u6784", "type": "education", "detail_url": "http://api.map.baidu.com/place/detail?uid=4d9a8153476f14f15810939d&output=html&source=placeapi_v2", "children": []}}, {"name": "\u6167\u5149\u82f1\u8bed\u5feb\u4e50\u8bfe\u5802", "location": {"lat": 34.303381, "lng": 108.954115}, "address": "\u672a\u592e\u8def69\u53f7\u534e\u8fea\u5927\u53a69\u5c4203", "province": "\u9655\u897f\u7701", "city": "\u897f\u5b89\u5e02", "area": "\u672a\u592e\u533a", "street_id": "07f76382c4226982fea7785c", "detail": 1, "uid": "07f76382c4226982fea7785c", "detail_info": {"tag": "\u6559\u80b2\u57f9\u8bad;\u57f9\u8bad\u673a\u6784", "type": "education", "detail_url": "http://api.map.baidu.com/place/detail?uid=07f76382c4226982fea7785c&output=html&source=placeapi_v2", "overall_rating": "5.0", "children": []}}, {"name": "\u7f8e\u5929\u7f8e\u672f\u57f9\u8bad\u4e2d\u5fc3", "location": {"lat": 34.280096, "lng": 108.95586}, "address": "\u5317\u5927\u8857\u897f\u4e03\u8def291\u53f7\u897f\u5317\u8bbe\u8ba1\u7814\u7a76\u9662\u65c1", "province": "\u9655\u897f\u7701", "city": "\u897f\u5b89\u5e02", "area": "\u65b0\u57ce\u533a", "street_id": "7456f1be8a4fe1acce04efea", "telephone": "13468669471", "detail": 1, "uid": "7456f1be8a4fe1acce04efea", "detail_info": {"tag": "\u6559\u80b2\u57f9\u8bad;\u57f9\u8bad\u673a\u6784", "type": "education", "detail_url": "http://api.map.baidu.com/place/detail?uid=7456f1be8a4fe1acce04efea&output=html&source=placeapi_v2", "comment_num": "2", "children": []}}, {"name": "\u65b0\u82bd\u5199\u4f5c", "location": {"lat": 34.292134, "lng": 108.954941}, "address": "\u83b2\u6e56\u533a\u6cb9\u5e93\u88574\u53f7\u5929\u4e59\u5927\u53a63\u5c42", "province": "\u9655\u897f\u7701", "city": "\u897f\u5b89\u5e02", "area": "\u83b2\u6e56\u533a", "street_id": "32429199dab17fb89d9d6831", "telephone": "(029)63371569", "detail": 1, "uid": "32429199dab17fb89d9d6831", "detail_info": {"tag": "\u6559\u80b2\u57f9\u8bad;\u57f9\u8bad\u673a\u6784", "type": "education", "detail_url": "http://api.map.baidu.com/place/detail?uid=32429199dab17fb89d9d6831&output=html&source=placeapi_v2", "overall_rating": "5.0", "children": []}}, {"name": "\u4e2d\u5c0f\u5b66\u751f\u00b7\u5b9a\u5236\u6559\u80b2", "location": {"lat": 34.319822, "lng": 108.95428}, "address": "\u5229\u541bV\u65f6\u4ee3A\u5ea710\u5c42", "province": "\u9655\u897f\u7701", "city": "\u897f\u5b89\u5e02", "area": "\u672a\u592e\u533a", "street_id": "84afabae2876d44395ca0708", "detail": 1, "uid": "84afabae2876d44395ca0708", "detail_info": {"tag": "\u6559\u80b2\u57f9\u8bad;\u57f9\u8bad\u673a\u6784", "navi_location": {"lng": 108.95428075916, "lat": 34.319966685713}, "type": "education", "detail_url": "http://api.map.baidu.com/place/detail?uid=84afabae2876d44395ca0708&output=html&source=placeapi_v2", "overall_rating": "5.0", "children": []}}]
