海底捞(高科广场店),108.89636048431053,34.24389027665382,b9e5d0b8bd7dc6a580a12eba,"{'name': '海底捞(高科广场店)', 'location': {'lat': 34.247938, 'lng': 108.907563}, 'address': '高新区高新四路高科广场C座3层', 'province': '陕西省', 'city': '西安市', 'area': '雁塔区', 'street_id': 'b9e5d0b8bd7dc6a580a12eba', 'telephone': '(029)88362058', 'detail': 1, 'uid': 'b9e5d0b8bd7dc6a580a12eba', 'detail_info': {'tag': '美食;中餐厅', 'navi_location': {'lng': 108.90824844256, 'lat': 34.248256263112}, 'type': 'cater', 'detail_url': 'http://api.map.baidu.com/place/detail?uid=b9e5d0b8bd7dc6a580a12eba&output=html&source=placeapi_v2', 'price': '96.0', 'overall_rating': '4.8', 'comment_num': '200', 'di_review_keyword': [], 'children': []}}"
"{'name': '海底捞(高科广场店)', 'location': {'lat': 34.247938, 'lng': 108.907563}, 'address': '高新区高新四路高科广场C座3层', 'province': '陕西省', 'city': '西安市', 'area': '雁塔区', 'street_id': 'b9e5d0b8bd7dc6a580a12eba', 'telephone': '(029)88362058', 'detail': 1, 'uid': 'b9e5d0b8bd7dc6a580a12eba', 'detail_info': {'tag': '美食;中餐厅', 'navi_location': {'lng': 108.90824844256, 'lat': 34.248256263112}, 'type': 'cater', 'detail_url': 'http://api.map.baidu.com/place/detail?uid=b9e5d0b8bd7dc6a580a12eba&output=html&source=placeapi_v2', 'price': '96.0', 'overall_rating': '4.8', 'comment_num': '200', 'di_review_keyword': [], 'children': []}}"
莲花餐饮(高新店),108.89234210030116,34.220499886978345,6b1c1a40d081ca18e81e97ae,"{'name': '莲花餐饮(高新店)', 'location': {'lat': 34.224543, 'lng': 108.90354}, 'address': '西安高新区高新路南段89号', 'province': '陕西省', 'city': '西安市', 'area': '雁塔区', 'street_id': '6b1c1a40d081ca18e81e97ae', 'telephone': '(029)88899999', 'detail': 1, 'uid': '6b1c1a40d081ca18e81e97ae', 'detail_info': {'tag': '美食;中餐厅', 'navi_location': {'lng': 108.90344216493, 'lat': 34.224540852936}, 'type': 'cater', 'detail_url': 'http://api.map.baidu.com/place/detail?uid=6b1c1a40d081ca18e81e97ae&output=html&source=placeapi_v2', 'price': '76.0', 'overall_rating': '4.3', 'comment_num': '200', 'di_review_keyword': [], 'children': []}}"
"{'name': '莲花餐饮(高新店)', 'location': {'lat': 34.224543, 'lng': 108.90354}, 'address': '西安高新区高新路南段89号', 'province': '陕西省', 'city': '西安市', 'area': '雁塔区', 'street_id': '6b1c1a40d081ca18e81e97ae', 'telephone': '(029)88899999', 'detail': 1, 'uid': '6b1c1a40d081ca18e81e97ae', 'detail_info': {'tag': '美食;中餐厅', 'navi_location': {'lng': 108.90344216493, 'lat': 34.224540852936}, 'type': 'cater', 'detail_url': 'http://api.map.baidu.com/place/detail?uid=6b1c1a40d081ca18e81e97ae&output=html&source=placeapi_v2', 'price': '76.0', 'overall_rating': '4.3', 'comment_num': '200', 'di_review_keyword': [], 'children': []}}"
百姓厨房(高新店),108.89696582478498,34.23590353379636,b1c556e854567015b42655cf,"{'name': '百姓厨房(高新店)', 'location': {'lat': 34.23995, 'lng': 108.908171}, 'address': '雁塔区光德路6号(东隆大厦附近)', 'province': '陕西省', 'city': '西安市', 'area': '雁塔区', 'street_id': 'b1c556e854567015b42655cf', 'telephone': '(029)88350333', 'detail': 1, 'uid': 'b1c556e854567015b42655cf', 'detail_info': {'tag': '美食;中餐厅', 'navi_location': {'lng': 108.90822491684, 'lat': 34.240075320126}, 'type': 'cater', 'detail_url': 'http://api.map.baidu.com/place/detail?uid=b1c556e854567015b42655cf&output=html&source=placeapi_v2', 'price': '59.0', 'overall_rating': '4.5', 'comment_num': '200', 'di_review_keyword': [], 'children': []}}"
"{'name': '百姓厨房(高新店)', 'location': {'lat': 34.23995, 'lng': 108.908171}, 'address': '雁塔区光德路6号(东隆大厦附近)', 'province': '陕西省', 'city': '西安市', 'area': '雁塔区', 'street_id': 'b1c556e854567015b42655cf', 'telephone': '(029)88350333', 'detail': 1, 'uid': 'b1c556e854567015b42655cf', 'detail_info': {'tag': '美食;中餐厅', 'navi_location': {'lng': 108.90822491684, 'lat': 34.240075320126}, 'type': 'cater', 'detail_url': 'http://api.map.baidu.com/place/detail?uid=b1c556e854567015b42655cf&output=html&source=placeapi_v2', 'price': '59.0', 'overall_rating': '4.5', 'comment_num': '200', 'di_review_keyword': [], 'children': []}}"
苏福记(紫薇臻品店),108.8757500585361,34.23930492193068,c01a55aac77cdec69e95dee1,"{'name': '苏福记(紫薇臻品店)', 'location': {'lat': 34.243518, 'lng': 108.886904}, 'address': '科技路西段紫薇臻品19幢1单元1层10103室', 'province': '陕西省', 'city': '西安市', 'area': '雁塔区', 'street_id': 'c01a55aac77cdec69e95dee1', 'telephone': '(029)62591188', 'detail': 1, 'uid': 'c01a55aac77cdec69e95dee1', 'detail_info': {'tag': '美食;中餐厅', 'navi_location': {'lng': 108.88683022064, 'lat': 34.243255429985}, 'type': 'cater', 'detail_url': 'http://api.map.baidu.com/place/detail?uid=c01a55aac77cdec69e95dee1&output=html&source=placeapi_v2', 'price': '44.5', 'overall_rating': '4.6', 'comment_num': '200', 'di_review_keyword': [], 'children': []}}"
"{'name': '苏福记(紫薇臻品店)', 'location': {'lat': 34.243518, 'lng': 108.886904}, 'address': '科技路西段紫薇臻品19幢1单元1层10103室', 'province': '陕西省', 'city': '西安市', 'area': '雁塔区', 'street_id': 'c01a55aac77cdec69e95dee1', 'telephone': '(029)62591188', 'detail': 1, 'uid': 'c01a55aac77cdec69e95dee1', 'detail_info': {'tag': '美食;中餐厅', 'navi_location': {'lng': 108.88683022064, 'lat': 34.243255429985}, 'type': 'cater', 'detail_url': 'http://api.map.baidu.com/place/detail?uid=c01a55aac77cdec69e95dee1&output=html&source=placeapi_v2', 'price': '44.5', 'overall_rating': '4.6', 'comment_num': '200', 'di_review_keyword': [], 'children': []}}"
小杨烤肉(烤宴体验高新店),108.89228299773633,34.24032999849364,35debf298bc8205da6da3932,"{'name': '小杨烤肉(烤宴体验高新店)', 'location': {'lat': 34.244381, 'lng': 108.903484}, 'address': '高新四路15号', 'province': '陕西省', 'city': '西安市', 'area': '雁塔区', 'street_id': '35debf298bc8205da6da3932', 'telephone': '(029)68853222', 'detail': 1, 'uid': '35debf298bc8205da6da3932', 'detail_info': {'tag': '美食;其他', 'navi_location': {'lng': 108.90366464376, 'lat': 34.244334635646}, 'type': 'cater', 'detail_url': 'http://api.map.baidu.com/place/detail?uid=35debf298bc8205da6da3932&output=html&source=placeapi_v2', 'price': '69.0', 'overall_rating': '3.6', 'comment_num': '200', 'di_review_keyword': [], 'children': []}}"
"{'name': '小杨烤肉(烤宴体验高新店)', 'location': {'lat': 34.244381, 'lng': 108.903484}, 'address': '高新四路15号', 'province': '陕西省', 'city': '西安市', 'area': '雁塔区', 'street_id': '35debf298bc8205da6da3932', 'telephone': '(029)68853222', 'detail': 1, 'uid': '35debf298bc8205da6da3932', 'detail_info': {'tag': '美食;其他', 'navi_location': {'lng': 108.90366464376, 'lat': 34.244334635646}, 'type': 'cater', 'detail_url': 'http://api.map.baidu.com/place/detail?uid=35debf298bc8205da6da3932&output=html&source=placeapi_v2', 'price': '69.0', 'overall_rating': '3.6', 'comment_num': '200', 'di_review_keyword': [], 'children': []}}"
西安饭庄(丰登路店),108.89405361257624,34.26076383222734,c7eca12bc04f5d2ee015f9e9,"{'name': '西安饭庄(丰登路店)', 'location': {'lat': 34.264814, 'lng': 108.905242}, 'address': '陕西省西安市莲湖区丰镐东路30号喜来登东邻', 'province': '陕西省', 'city': '西安市', 'area': '莲湖区', 'street_id': 'c7eca12bc04f5d2ee015f9e9', 'telephone': '(029)84295780', 'detail': 1, 'uid': 'c7eca12bc04f5d2ee015f9e9', 'detail_info': {'tag': '美食;中餐厅', 'navi_location': {'lng': 108.90524122293, 'lat': 34.264966387664}, 'type': 'cater', 'detail_url': 'http://api.map.baidu.com/place/detail?uid=c7eca12bc04f5d2ee015f9e9&output=html&source=placeapi_v2', 'price': '93.0', 'overall_rating': '4.3', 'comment_num': '200', 'di_review_keyword': [], 'children': []}}"
"{'name': '西安饭庄(丰登路店)', 'location': {'lat': 34.264814, 'lng': 108.905242}, 'address': '陕西省西安市莲湖区丰镐东路30号喜来登东邻', 'province': '陕西省', 'city': '西安市', 'area': '莲湖区', 'street_id': 'c7eca12bc04f5d2ee015f9e9', 'telephone': '(029)84295780', 'detail': 1, 'uid': 'c7eca12bc04f5d2ee015f9e9', 'detail_info': {'tag': '美食;中餐厅', 'navi_location': {'lng': 108.90524122293, 'lat': 34.264966387664}, 'type': 'cater', 'detail_url': 'http://api.map.baidu.com/place/detail?uid=c7eca12bc04f5d2ee015f9e9&output=html&source=placeapi_v2', 'price': '93.0', 'overall_rating': '4.3', 'comment_num': '200', 'di_review_keyword': [], 'children': []}}"
苏福记(高新店),108.89668515303062,34.24337103177445,9415d3b15b5925ebb04c49cd,"{'name': '苏福记(高新店)', 'location': {'lat': 34.247419, 'lng': 108.907888}, 'address': '高新区高新三路2号海佳云顶商住楼1层', 'province': '陕西省', 'city': '西安市', 'area': '雁塔区', 'street_id': '9415d3b15b5925ebb04c49cd', 'telephone': '(029)81881899', 'detail': 1, 'uid': '9415d3b15b5925ebb04c49cd', 'detail_info': {'tag': '美食;中餐厅', 'navi_location': {'lng': 108.90803577142, 'lat': 34.247463767433}, 'type': 'cater', 'detail_url': 'http://api.map.baidu.com/place/detail?uid=9415d3b15b5925ebb04c49cd&output=html&source=placeapi_v2', 'price': '48.0', 'overall_rating': '4.4', 'comment_num': '200', 'di_review_keyword': [], 'children': []}}"
"{'name': '苏福记(高新店)', 'location': {'lat': 34.247419, 'lng': 108.907888}, 'address': '高新区高新三路2号海佳云顶商住楼1层', 'province': '陕西省', 'city': '西安市', 'area': '雁塔区', 'street_id': '9415d3b15b5925ebb04c49cd', 'telephone': '(029)81881899', 'detail': 1, 'uid': '9415d3b15b5925ebb04c49cd', 'detail_info': {'tag': '美食;中餐厅', 'navi_location': {'lng': 108.90803577142, 'lat': 34.247463767433}, 'type': 'cater', 'detail_url': 'http://api.map.baidu.com/place/detail?uid=9415d3b15b5925ebb04c49cd&output=html&source=placeapi_v2', 'price': '48.0', 'overall_rating': '4.4', 'comment_num': '200', 'di_review_keyword': [], 'children': []}}"
外婆印象(高新店),108.89552728073292,34.226847108942344,cc788fde8cc6a69389fc06ed,"{'name': '外婆印象(高新店)', 'location': {'lat': 34.230889, 'lng': 108.906731}, 'address': '高新路环亚花园5号（近高新一中）', 'province': '陕西省', 'city': '西安市', 'area': '雁塔区', 'street_id': 'cc788fde8cc6a69389fc06ed', 'telephone': '4000206600', 'detail': 1, 'uid': 'cc788fde8cc6a69389fc06ed', 'detail_info': {'tag': '美食;中餐厅', 'navi_location': {'lng': 108.90692187259, 'lat': 34.230908158496}, 'type': 'cater', 'detail_url': 'http://api.map.baidu.com/place/detail?uid=cc788fde8cc6a69389fc06ed&output=html&source=placeapi_v2', 'price': '59.0', 'overall_rating': '4.2', 'comment_num': '200', 'di_review_keyword': [], 'children': []}}"
"{'name': '外婆印象(高新店)', 'location': {'lat': 34.230889, 'lng': 108.906731}, 'address': '高新路环亚花园5号（近高新一中）', 'province': '陕西省', 'city': '西安市', 'area': '雁塔区', 'street_id': 'cc788fde8cc6a69389fc06ed', 'telephone': '4000206600', 'detail': 1, 'uid': 'cc788fde8cc6a69389fc06ed', 'detail_info': {'tag': '美食;中餐厅', 'navi_location': {'lng': 108.90692187259, 'lat': 34.230908158496}, 'type': 'cater', 'detail_url': 'http://api.map.baidu.com/place/detail?uid=cc788fde8cc6a69389fc06ed&output=html&source=placeapi_v2', 'price': '59.0', 'overall_rating': '4.2', 'comment_num': '200', 'di_review_keyword': [], 'children': []}}"
外婆印象(锦业路店),108.87062352395104,34.19493531001346,dfb466b21af38cf9ebe582d4,"{'name': '外婆印象(锦业路店)', 'location': {'lat': 34.199211, 'lng': 108.881727}, 'address': '锦业路36号盈樾国际3楼（绿地世纪城对面）', 'province': '陕西省', 'city': '西安市', 'area': '雁塔区', 'street_id': 'dfb466b21af38cf9ebe582d4', 'telephone': '(029)81100066', 'detail': 1, 'uid': 'dfb466b21af38cf9ebe582d4', 'detail_info': {'tag': '美食;中餐厅', 'navi_location': {'lng': 108.88201414339, 'lat': 34.198786220798}, 'type': 'cater', 'detail_url': 'http://api.map.baidu.com/place/detail?uid=dfb466b21af38cf9ebe582d4&output=html&source=placeapi_v2', 'price': '56.0', 'overall_rating': '4.6', 'comment_num': '200', 'di_review_keyword': [], 'children': []}}"
"{'name': '外婆印象(锦业路店)', 'location': {'lat': 34.199211, 'lng': 108.881727}, 'address': '锦业路36号盈樾国际3楼（绿地世纪城对面）', 'province': '陕西省', 'city': '西安市', 'area': '雁塔区', 'street_id': 'dfb466b21af38cf9ebe582d4', 'telephone': '(029)81100066', 'detail': 1, 'uid': 'dfb466b21af38cf9ebe582d4', 'detail_info': {'tag': '美食;中餐厅', 'navi_location': {'lng': 108.88201414339, 'lat': 34.198786220798}, 'type': 'cater', 'detail_url': 'http://api.map.baidu.com/place/detail?uid=dfb466b21af38cf9ebe582d4&output=html&source=placeapi_v2', 'price': '56.0', 'overall_rating': '4.6', 'comment_num': '200', 'di_review_keyword': [], 'children': []}}"
苏福记(博文路店),108.90186507062846,34.2297143470364,edd64ce1382c67883fe23132,"{'name': '苏福记(博文路店)', 'location': {'lat': 34.233777, 'lng': 108.913068}, 'address': '高新区科技路中段26号质检大厦1-2楼(博文路口)', 'province': '陕西省', 'city': '西安市', 'area': '雁塔区', 'street_id': 'edd64ce1382c67883fe23132', 'telephone': '(029)68576000,(029)68576555', 'detail': 1, 'uid': 'edd64ce1382c67883fe23132', 'detail_info': {'tag': '美食;中餐厅', 'navi_location': {'lng': 108.91329085866, 'lat': 34.233788279684}, 'type': 'cater', 'detail_url': 'http://api.map.baidu.com/place/detail?uid=edd64ce1382c67883fe23132&output=html&source=placeapi_v2', 'price': '41.0', 'overall_rating': '4.7', 'comment_num': '200', 'di_review_keyword': [], 'children': []}}"
"{'name': '苏福记(博文路店)', 'location': {'lat': 34.233777, 'lng': 108.913068}, 'address': '高新区科技路中段26号质检大厦1-2楼(博文路口)', 'province': '陕西省', 'city': '西安市', 'area': '雁塔区', 'street_id': 'edd64ce1382c67883fe23132', 'telephone': '(029)68576000,(029)68576555', 'detail': 1, 'uid': 'edd64ce1382c67883fe23132', 'detail_info': {'tag': '美食;中餐厅', 'navi_location': {'lng': 108.91329085866, 'lat': 34.233788279684}, 'type': 'cater', 'detail_url': 'http://api.map.baidu.com/place/detail?uid=edd64ce1382c67883fe23132&output=html&source=placeapi_v2', 'price': '41.0', 'overall_rating': '4.7', 'comment_num': '200', 'di_review_keyword': [], 'children': []}}"
盛运涮烤自助餐厅(电子正街店),108.91416787409013,34.20047185898886,bbc2194d966ab8f5f82d6179,"{'name': '盛运涮烤自助餐厅(电子正街店)', 'location': {'lat': 34.204651, 'lng': 108.925323}, 'address': '电子正街与丈八东路十字路西北角（民生百货3楼）', 'province': '陕西省', 'city': '西安市', 'area': '雁塔区', 'street_id': 'bbc2194d966ab8f5f82d6179', 'telephone': '(029)89568136', 'detail': 1, 'uid': 'bbc2194d966ab8f5f82d6179', 'detail_info': {'tag': '美食;外国餐厅', 'type': 'cater', 'detail_url': 'http://api.map.baidu.com/place/detail?uid=bbc2194d966ab8f5f82d6179&output=html&source=placeapi_v2', 'price': '52.0', 'overall_rating': '4.6', 'comment_num': '200', 'di_review_keyword': [], 'children': []}}"
"{'name': '盛运涮烤自助餐厅(电子正街店)', 'location': {'lat': 34.204651, 'lng': 108.925323}, 'address': '电子正街与丈八东路十字路西北角（民生百货3楼）', 'province': '陕西省', 'city': '西安市', 'area': '雁塔区', 'street_id': 'bbc2194d966ab8f5f82d6179', 'telephone': '(029)89568136', 'detail': 1, 'uid': 'bbc2194d966ab8f5f82d6179', 'detail_info': {'tag': '美食;外国餐厅', 'type': 'cater', 'detail_url': 'http://api.map.baidu.com/place/detail?uid=bbc2194d966ab8f5f82d6179&output=html&source=placeapi_v2', 'price': '52.0', 'overall_rating': '4.6', 'comment_num': '200', 'di_review_keyword': [], 'children': []}}"
李记搅团(丰庆公园店),108.88964960086564,34.24906850209006,db9f79142563d4e21e5800f3,"{'name': '李记搅团(丰庆公园店)', 'location': {'lat': 34.253132, 'lng': 108.900842}, 'address': '丰登南路2号（丰庆公园西门对面伟基大厦2F）', 'province': '陕西省', 'city': '西安市', 'area': '莲湖区', 'street_id': 'f213e9898022c6d10d0e6b76', 'telephone': '(029)89507777', 'detail': 1, 'uid': 'db9f79142563d4e21e5800f3', 'detail_info': {'tag': '美食;中餐厅', 'navi_location': {'lng': 108.90129748208, 'lat': 34.253093584217}, 'type': 'cater', 'detail_url': 'http://api.map.baidu.com/place/detail?uid=db9f79142563d4e21e5800f3&output=html&source=placeapi_v2', 'price': '47.0', 'overall_rating': '4.3', 'comment_num': '200', 'di_review_keyword': [], 'children': []}}"
"{'name': '李记搅团(丰庆公园店)', 'location': {'lat': 34.253132, 'lng': 108.900842}, 'address': '丰登南路2号（丰庆公园西门对面伟基大厦2F）', 'province': '陕西省', 'city': '西安市', 'area': '莲湖区', 'street_id': 'f213e9898022c6d10d0e6b76', 'telephone': '(029)89507777', 'detail': 1, 'uid': 'db9f79142563d4e21e5800f3', 'detail_info': {'tag': '美食;中餐厅', 'navi_location': {'lng': 108.90129748208, 'lat': 34.253093584217}, 'type': 'cater', 'detail_url': 'http://api.map.baidu.com/place/detail?uid=db9f79142563d4e21e5800f3&output=html&source=placeapi_v2', 'price': '47.0', 'overall_rating': '4.3', 'comment_num': '200', 'di_review_keyword': [], 'children': []}}"
百姓厨房(世家星城店),108.92697607230104,34.193293298469406,435d7aeaf305a42c5abbbc0a,"{'name': '百姓厨房(世家星城店)', 'location': {'lat': 34.197689, 'lng': 108.938083}, 'address': '陕西省西安市雁塔区东仪路南段世家星城A28号', 'province': '陕西省', 'city': '西安市', 'area': '雁塔区', 'street_id': '435d7aeaf305a42c5abbbc0a', 'telephone': '(029)88334211', 'detail': 1, 'uid': '435d7aeaf305a42c5abbbc0a', 'detail_info': {'tag': '美食;中餐厅', 'navi_location': {'lng': 108.93810121154, 'lat': 34.197643146266}, 'type': 'cater', 'detail_url': 'http://api.map.baidu.com/place/detail?uid=435d7aeaf305a42c5abbbc0a&output=html&source=placeapi_v2', 'price': '38.0', 'overall_rating': '4.2', 'comment_num': '200', 'di_review_keyword': [], 'children': []}}"
"{'name': '百姓厨房(世家星城店)', 'location': {'lat': 34.197689, 'lng': 108.938083}, 'address': '陕西省西安市雁塔区东仪路南段世家星城A28号', 'province': '陕西省', 'city': '西安市', 'area': '雁塔区', 'street_id': '435d7aeaf305a42c5abbbc0a', 'telephone': '(029)88334211', 'detail': 1, 'uid': '435d7aeaf305a42c5abbbc0a', 'detail_info': {'tag': '美食;中餐厅', 'navi_location': {'lng': 108.93810121154, 'lat': 34.197643146266}, 'type': 'cater', 'detail_url': 'http://api.map.baidu.com/place/detail?uid=435d7aeaf305a42c5abbbc0a&output=html&source=placeapi_v2', 'price': '38.0', 'overall_rating': '4.2', 'comment_num': '200', 'di_review_keyword': [], 'children': []}}"
鑫华府(绿地世纪城店),108.8714023219034,34.19657291437932,22e11407a3f5dfadd4b74e9c,"{'name': '鑫华府(绿地世纪城店)', 'location': {'lat': 34.200836, 'lng': 108.882511}, 'address': '陕西省西安市高新区绿地世纪城1号(丈八三路与锦业路十字以北)', 'province': '陕西省', 'city': '西安市', 'area': '雁塔区', 'street_id': '22e11407a3f5dfadd4b74e9c', 'telephone': '(029)68910001', 'detail': 1, 'uid': '22e11407a3f5dfadd4b74e9c', 'detail_info': {'tag': '美食;中餐厅', 'navi_location': {'lng': 108.8821185247, 'lat': 34.20074213127}, 'type': 'cater', 'detail_url': 'http://api.map.baidu.com/place/detail?uid=22e11407a3f5dfadd4b74e9c&output=html&source=placeapi_v2', 'price': '356.0', 'overall_rating': '4.4', 'comment_num': '132', 'di_review_keyword': [], 'children': []}}"
"{'name': '鑫华府(绿地世纪城店)', 'location': {'lat': 34.200836, 'lng': 108.882511}, 'address': '陕西省西安市高新区绿地世纪城1号(丈八三路与锦业路十字以北)', 'province': '陕西省', 'city': '西安市', 'area': '雁塔区', 'street_id': '22e11407a3f5dfadd4b74e9c', 'telephone': '(029)68910001', 'detail': 1, 'uid': '22e11407a3f5dfadd4b74e9c', 'detail_info': {'tag': '美食;中餐厅', 'navi_location': {'lng': 108.8821185247, 'lat': 34.20074213127}, 'type': 'cater', 'detail_url': 'http://api.map.baidu.com/place/detail?uid=22e11407a3f5dfadd4b74e9c&output=html&source=placeapi_v2', 'price': '356.0', 'overall_rating': '4.4', 'comment_num': '132', 'di_review_keyword': [], 'children': []}}"
小杨烤肉全国连锁朱雀路示范店,108.9348240969838,34.23005422708509,fa7da3e80bd60e7b42d63e32,"{'name': '小杨烤肉全国连锁朱雀路示范店', 'location': {'lat': 34.234611, 'lng': 108.94594}, 'address': '朱雀大街517号(南二环与朱雀路口南侧)', 'province': '陕西省', 'city': '西安市', 'area': '雁塔区', 'street_id': 'fa7da3e80bd60e7b42d63e32', 'telephone': '(029)85262455', 'detail': 1, 'uid': 'fa7da3e80bd60e7b42d63e32', 'detail_info': {'tag': '美食;其他', 'navi_location': {'lng': 108.94571025805, 'lat': 34.234610014273}, 'type': 'cater', 'detail_url': 'http://api.map.baidu.com/place/detail?uid=fa7da3e80bd60e7b42d63e32&output=html&source=placeapi_v2', 'price': '53.0', 'overall_rating': '4.6', 'comment_num': '200', 'di_review_keyword': [], 'children': []}}"
"{'name': '小杨烤肉全国连锁朱雀路示范店', 'location': {'lat': 34.234611, 'lng': 108.94594}, 'address': '朱雀大街517号(南二环与朱雀路口南侧)', 'province': '陕西省', 'city': '西安市', 'area': '雁塔区', 'street_id': 'fa7da3e80bd60e7b42d63e32', 'telephone': '(029)85262455', 'detail': 1, 'uid': 'fa7da3e80bd60e7b42d63e32', 'detail_info': {'tag': '美食;其他', 'navi_location': {'lng': 108.94571025805, 'lat': 34.234610014273}, 'type': 'cater', 'detail_url': 'http://api.map.baidu.com/place/detail?uid=fa7da3e80bd60e7b42d63e32&output=html&source=placeapi_v2', 'price': '53.0', 'overall_rating': '4.6', 'comment_num': '200', 'di_review_keyword': [], 'children': []}}"
莲花餐饮(朱雀店),108.93505335006675,34.233102293496316,09961cee2541c37ed23ce341,"{'name': '莲花餐饮(朱雀店)', 'location': {'lat': 34.237664, 'lng': 108.946169}, 'address': '朱雀路中段1号西安皇冠假日酒店2层', 'province': '陕西省', 'city': '西安市', 'area': '碑林区', 'street_id': '09961cee2541c37ed23ce341', 'telephone': '(029)88993333,(029)89325526', 'detail': 1, 'uid': '09961cee2541c37ed23ce341', 'detail_info': {'tag': '美食;中餐厅', 'navi_location': {'lng': 108.94610936621, 'lat': 34.237581058752}, 'type': 'cater', 'detail_url': 'http://api.map.baidu.com/place/detail?uid=09961cee2541c37ed23ce341&output=html&source=placeapi_v2', 'price': '105.0', 'overall_rating': '4.6', 'comment_num': '95', 'di_review_keyword': [], 'children': []}}"
"{'name': '莲花餐饮(朱雀店)', 'location': {'lat': 34.237664, 'lng': 108.946169}, 'address': '朱雀路中段1号西安皇冠假日酒店2层', 'province': '陕西省', 'city': '西安市', 'area': '碑林区', 'street_id': '09961cee2541c37ed23ce341', 'telephone': '(029)88993333,(029)89325526', 'detail': 1, 'uid': '09961cee2541c37ed23ce341', 'detail_info': {'tag': '美食;中餐厅', 'navi_location': {'lng': 108.94610936621, 'lat': 34.237581058752}, 'type': 'cater', 'detail_url': 'http://api.map.baidu.com/place/detail?uid=09961cee2541c37ed23ce341&output=html&source=placeapi_v2', 'price': '105.0', 'overall_rating': '4.6', 'comment_num': '95', 'di_review_keyword': [], 'children': []}}"
大厨小馆(丈八三路店),108.87216812180182,34.197314651055706,8561698af77e8c2ac17da234,"{'name': '大厨小馆(丈八三路店)', 'location': {'lat': 34.201565, 'lng': 108.883281}, 'address': '锦业路绿地世纪城饕界品味巷103号', 'province': '陕西省', 'city': '西安市', 'area': '雁塔区', 'street_id': '8561698af77e8c2ac17da234', 'telephone': '(029)68729377', 'detail': 1, 'uid': '8561698af77e8c2ac17da234', 'detail_info': {'tag': '美食;中餐厅', 'navi_location': {'lng': 108.88332767176, 'lat': 34.201782971135}, 'type': 'cater', 'detail_url': 'http://api.map.baidu.com/place/detail?uid=8561698af77e8c2ac17da234&output=html&source=placeapi_v2', 'price': '35.0', 'overall_rating': '4.3', 'comment_num': '200', 'di_review_keyword': [], 'children': []}}"
"{'name': '大厨小馆(丈八三路店)', 'location': {'lat': 34.201565, 'lng': 108.883281}, 'address': '锦业路绿地世纪城饕界品味巷103号', 'province': '陕西省', 'city': '西安市', 'area': '雁塔区', 'street_id': '8561698af77e8c2ac17da234', 'telephone': '(029)68729377', 'detail': 1, 'uid': '8561698af77e8c2ac17da234', 'detail_info': {'tag': '美食;中餐厅', 'navi_location': {'lng': 108.88332767176, 'lat': 34.201782971135}, 'type': 'cater', 'detail_url': 'http://api.map.baidu.com/place/detail?uid=8561698af77e8c2ac17da234&output=html&source=placeapi_v2', 'price': '35.0', 'overall_rating': '4.3', 'comment_num': '200', 'di_review_keyword': [], 'children': []}}"
代购 绿茶(西安王府井店),108.9406382602417,34.248291259570166,9b2e3479769e77cece04efa2,"{'name': '代购 绿茶(西安王府井店)', 'location': {'lat': 34.252942, 'lng': 108.95174}, 'address': '西安市碑林区南关正街88号王府井百货F5', 'province': '陕西省', 'city': '西安市', 'area': '碑林区', 'street_id': '9b2e3479769e77cece04efa2', 'telephone': '(029)89651578', 'detail': 1, 'uid': '9b2e3479769e77cece04efa2', 'detail_info': {'tag': '美食;中餐厅', 'navi_location': {'lng': 108.95318652334, 'lat': 34.252579290488}, 'indoor_floor': 'F5', 'type': 'cater', 'detail_url': 'http://api.map.baidu.com/place/detail?uid=9b2e3479769e77cece04efa2&output=html&source=placeapi_v2', 'price': '62.0', 'overall_rating': '4.5', 'comment_num': '188', 'children': []}}"
"{'name': '代购 绿茶(西安王府井店)', 'location': {'lat': 34.252942, 'lng': 108.95174}, 'address': '西安市碑林区南关正街88号王府井百货F5', 'province': '陕西省', 'city': '西安市', 'area': '碑林区', 'street_id': '9b2e3479769e77cece04efa2', 'telephone': '(029)89651578', 'detail': 1, 'uid': '9b2e3479769e77cece04efa2', 'detail_info': {'tag': '美食;中餐厅', 'navi_location': {'lng': 108.95318652334, 'lat': 34.252579290488}, 'indoor_floor': 'F5', 'type': 'cater', 'detail_url': 'http://api.map.baidu.com/place/detail?uid=9b2e3479769e77cece04efa2&output=html&source=placeapi_v2', 'price': '62.0', 'overall_rating': '4.5', 'comment_num': '188', 'children': []}}"
外婆印象(唐延路店),108.88552809313582,34.23558607475192,f2f15ffbce921891631c6777,"{'name': '外婆印象(唐延路店)', 'location': {'lat': 34.239676, 'lng': 108.896717}, 'address': '西安高新区唐延路3号唐延国际中心5楼(近卜蜂莲花)', 'province': '陕西省', 'city': '西安市', 'area': '雁塔区', 'street_id': 'f2f15ffbce921891631c6777', 'telephone': '(029)88785755', 'detail': 1, 'uid': 'f2f15ffbce921891631c6777', 'detail_info': {'tag': '美食;中餐厅', 'type': 'cater', 'detail_url': 'http://api.map.baidu.com/place/detail?uid=f2f15ffbce921891631c6777&output=html&source=placeapi_v2', 'price': '57.0', 'overall_rating': '4.7', 'comment_num': '200', 'di_review_keyword': [], 'children': []}}"
"{'name': '外婆印象(唐延路店)', 'location': {'lat': 34.239676, 'lng': 108.896717}, 'address': '西安高新区唐延路3号唐延国际中心5楼(近卜蜂莲花)', 'province': '陕西省', 'city': '西安市', 'area': '雁塔区', 'street_id': 'f2f15ffbce921891631c6777', 'telephone': '(029)88785755', 'detail': 1, 'uid': 'f2f15ffbce921891631c6777', 'detail_info': {'tag': '美食;中餐厅', 'type': 'cater', 'detail_url': 'http://api.map.baidu.com/place/detail?uid=f2f15ffbce921891631c6777&output=html&source=placeapi_v2', 'price': '57.0', 'overall_rating': '4.7', 'comment_num': '200', 'di_review_keyword': [], 'children': []}}"
人人居(劳动路店),108.90662679187709,34.243147207367144,7fd72311ee883e865cbe861d,"{'name': '人人居(劳动路店)', 'location': {'lat': 34.247252, 'lng': 108.917821}, 'address': '碑林区友谊西路127号西北工业大学南门（近劳动南路）', 'province': '陕西省', 'city': '西安市', 'area': '碑林区', 'street_id': '7fd72311ee883e865cbe861d', 'telephone': '(029)88485100,(029)88485200', 'detail': 1, 'uid': '7fd72311ee883e865cbe861d', 'detail_info': {'tag': '美食;中餐厅', 'navi_location': {'lng': 108.91789018287, 'lat': 34.246934098524}, 'type': 'cater', 'detail_url': 'http://api.map.baidu.com/place/detail?uid=7fd72311ee883e865cbe861d&output=html&source=placeapi_v2', 'price': '50.0', 'overall_rating': '4.1', 'comment_num': '181', 'di_review_keyword': [], 'children': []}}"
"{'name': '人人居(劳动路店)', 'location': {'lat': 34.247252, 'lng': 108.917821}, 'address': '碑林区友谊西路127号西北工业大学南门（近劳动南路）', 'province': '陕西省', 'city': '西安市', 'area': '碑林区', 'street_id': '7fd72311ee883e865cbe861d', 'telephone': '(029)88485100,(029)88485200', 'detail': 1, 'uid': '7fd72311ee883e865cbe861d', 'detail_info': {'tag': '美食;中餐厅', 'navi_location': {'lng': 108.91789018287, 'lat': 34.246934098524}, 'type': 'cater', 'detail_url': 'http://api.map.baidu.com/place/detail?uid=7fd72311ee883e865cbe861d&output=html&source=placeapi_v2', 'price': '50.0', 'overall_rating': '4.1', 'comment_num': '181', 'di_review_keyword': [], 'children': []}}"
外婆印象(西工大店),108.91245003257151,34.242304034531784,2ba7481eaa820a20c3364433,"{'name': '外婆印象(西工大店)', 'location': {'lat': 34.246479, 'lng': 108.923631}, 'address': '西安市碑林区友谊西路白庙路十字东南角人人乐2楼', 'province': '陕西省', 'city': '西安市', 'area': '碑林区', 'street_id': '2ba7481eaa820a20c3364433', 'telephone': '(029)88481722', 'detail': 1, 'uid': '2ba7481eaa820a20c3364433', 'detail_info': {'tag': '美食;中餐厅', 'navi_location': {'lng': 108.92344934292, 'lat': 34.246525728435}, 'type': 'cater', 'detail_url': 'http://api.map.baidu.com/place/detail?uid=2ba7481eaa820a20c3364433&output=html&source=placeapi_v2', 'price': '44.0', 'overall_rating': '4.1', 'comment_num': '200', 'di_review_keyword': [], 'children': []}}"
"{'name': '外婆印象(西工大店)', 'location': {'lat': 34.246479, 'lng': 108.923631}, 'address': '西安市碑林区友谊西路白庙路十字东南角人人乐2楼', 'province': '陕西省', 'city': '西安市', 'area': '碑林区', 'street_id': '2ba7481eaa820a20c3364433', 'telephone': '(029)88481722', 'detail': 1, 'uid': '2ba7481eaa820a20c3364433', 'detail_info': {'tag': '美食;中餐厅', 'navi_location': {'lng': 108.92344934292, 'lat': 34.246525728435}, 'type': 'cater', 'detail_url': 'http://api.map.baidu.com/place/detail?uid=2ba7481eaa820a20c3364433&output=html&source=placeapi_v2', 'price': '44.0', 'overall_rating': '4.1', 'comment_num': '200', 'di_review_keyword': [], 'children': []}}"
大厨小馆(东仪路店),108.9227871860797,34.192764149050895,11655e5e76ce734246572621,"{'name': '大厨小馆(东仪路店)', 'location': {'lat': 34.197083, 'lng': 108.933907}, 'address': '公交车站世家星城终点站(长安西路与东仪路十字西南角)', 'province': '陕西省', 'city': '西安市', 'area': '雁塔区', 'street_id': '11655e5e76ce734246572621', 'telephone': '(029)68782233', 'detail': 1, 'uid': '11655e5e76ce734246572621', 'detail_info': {'tag': '美食;中餐厅', 'navi_location': {'lng': 108.93450937558, 'lat': 34.197359391877}, 'type': 'cater', 'detail_url': 'http://api.map.baidu.com/place/detail?uid=11655e5e76ce734246572621&output=html&source=placeapi_v2', 'price': '65.0', 'overall_rating': '4.4', 'comment_num': '200', 'di_review_keyword': [], 'children': []}}"
"{'name': '大厨小馆(东仪路店)', 'location': {'lat': 34.197083, 'lng': 108.933907}, 'address': '公交车站世家星城终点站(长安西路与东仪路十字西南角)', 'province': '陕西省', 'city': '西安市', 'area': '雁塔区', 'street_id': '11655e5e76ce734246572621', 'telephone': '(029)68782233', 'detail': 1, 'uid': '11655e5e76ce734246572621', 'detail_info': {'tag': '美食;中餐厅', 'navi_location': {'lng': 108.93450937558, 'lat': 34.197359391877}, 'type': 'cater', 'detail_url': 'http://api.map.baidu.com/place/detail?uid=11655e5e76ce734246572621&output=html&source=placeapi_v2', 'price': '65.0', 'overall_rating': '4.4', 'comment_num': '200', 'di_review_keyword': [], 'children': []}}"
外婆印象(含光路店),108.9277223734345,34.23521902857143,fb2cbe942d5ab9782fb908d4,"{'name': '外婆印象(含光路店)', 'location': {'lat': 34.239652, 'lng': 108.938857}, 'address': '含光北路23号九锦台北区3楼', 'province': '陕西省', 'city': '西安市', 'area': '碑林区', 'street_id': 'fb2cbe942d5ab9782fb908d4', 'telephone': '(029)89351817', 'detail': 1, 'uid': 'fb2cbe942d5ab9782fb908d4', 'detail_info': {'tag': '美食;中餐厅', 'type': 'cater', 'detail_url': 'http://api.map.baidu.com/place/detail?uid=fb2cbe942d5ab9782fb908d4&output=html&source=placeapi_v2', 'price': '62.0', 'overall_rating': '4.8', 'comment_num': '200', 'di_review_keyword': [], 'children': []}}"
"{'name': '外婆印象(含光路店)', 'location': {'lat': 34.239652, 'lng': 108.938857}, 'address': '含光北路23号九锦台北区3楼', 'province': '陕西省', 'city': '西安市', 'area': '碑林区', 'street_id': 'fb2cbe942d5ab9782fb908d4', 'telephone': '(029)89351817', 'detail': 1, 'uid': 'fb2cbe942d5ab9782fb908d4', 'detail_info': {'tag': '美食;中餐厅', 'type': 'cater', 'detail_url': 'http://api.map.baidu.com/place/detail?uid=fb2cbe942d5ab9782fb908d4&output=html&source=placeapi_v2', 'price': '62.0', 'overall_rating': '4.8', 'comment_num': '200', 'di_review_keyword': [], 'children': []}}"
外婆印象(丰庆店),108.8967439870713,34.24828911160564,7c5e480b3b7212adadb22a1a,"{'name': '外婆印象(丰庆店)', 'location': {'lat': 34.252338, 'lng': 108.907944}, 'address': '桃园南路19号(丰庆公园东门对面)', 'province': '陕西省', 'city': '西安市', 'area': '莲湖区', 'street_id': '7c5e480b3b7212adadb22a1a', 'telephone': '(029)88700333', 'detail': 1, 'uid': '7c5e480b3b7212adadb22a1a', 'detail_info': {'tag': '美食;中餐厅', 'navi_location': {'lng': 108.90780280936, 'lat': 34.252337818699}, 'type': 'cater', 'detail_url': 'http://api.map.baidu.com/place/detail?uid=7c5e480b3b7212adadb22a1a&output=html&source=placeapi_v2', 'price': '53.0', 'overall_rating': '4.8', 'comment_num': '192', 'di_review_keyword': [], 'children': []}}"
"{'name': '外婆印象(丰庆店)', 'location': {'lat': 34.252338, 'lng': 108.907944}, 'address': '桃园南路19号(丰庆公园东门对面)', 'province': '陕西省', 'city': '西安市', 'area': '莲湖区', 'street_id': '7c5e480b3b7212adadb22a1a', 'telephone': '(029)88700333', 'detail': 1, 'uid': '7c5e480b3b7212adadb22a1a', 'detail_info': {'tag': '美食;中餐厅', 'navi_location': {'lng': 108.90780280936, 'lat': 34.252337818699}, 'type': 'cater', 'detail_url': 'http://api.map.baidu.com/place/detail?uid=7c5e480b3b7212adadb22a1a&output=html&source=placeapi_v2', 'price': '53.0', 'overall_rating': '4.8', 'comment_num': '192', 'di_review_keyword': [], 'children': []}}"
菜客・陕菜,108.93085543204116,34.25417985067185,6f6721d0b56be858c51e5182,"{'name': '菜客・陕菜', 'location': {'lat': 34.258673, 'lng': 108.941971}, 'address': '陕西省西安市碑林区小南门里十字西北角向西10米报恩寺街3号', 'province': '陕西省', 'city': '西安市', 'area': '碑林区', 'street_id': '6f6721d0b56be858c51e5182', 'telephone': '(029)87624022', 'detail': 1, 'uid': '6f6721d0b56be858c51e5182', 'detail_info': {'tag': '美食;中餐厅', 'navi_location': {'lng': 108.94213544858, 'lat': 34.258511446201}, 'type': 'cater', 'detail_url': 'http://api.map.baidu.com/place/detail?uid=6f6721d0b56be858c51e5182&output=html&source=placeapi_v2', 'price': '47.0', 'overall_rating': '4.7', 'comment_num': '179', 'di_review_keyword': [], 'children': []}}"
"{'name': '菜客・陕菜', 'location': {'lat': 34.258673, 'lng': 108.941971}, 'address': '陕西省西安市碑林区小南门里十字西北角向西10米报恩寺街3号', 'province': '陕西省', 'city': '西安市', 'area': '碑林区', 'street_id': '6f6721d0b56be858c51e5182', 'telephone': '(029)87624022', 'detail': 1, 'uid': '6f6721d0b56be858c51e5182', 'detail_info': {'tag': '美食;中餐厅', 'navi_location': {'lng': 108.94213544858, 'lat': 34.258511446201}, 'type': 'cater', 'detail_url': 'http://api.map.baidu.com/place/detail?uid=6f6721d0b56be858c51e5182&output=html&source=placeapi_v2', 'price': '47.0', 'overall_rating': '4.7', 'comment_num': '179', 'di_review_keyword': [], 'children': []}}"
真爱中国餐馆(朱雀大街店),108.93412913509938,34.238397225407226,c66a1b95c047d44c744ff127,"{'name': '真爱中国餐馆(朱雀大街店)', 'location': {'lat': 34.242945, 'lng': 108.945246}, 'address': '朱雀大街中段38号（小雁塔西门对面）', 'province': '陕西省', 'city': '西安市', 'area': '碑林区', 'street_id': 'c66a1b95c047d44c744ff127', 'telephone': '(029)88401234', 'detail': 1, 'uid': 'c66a1b95c047d44c744ff127', 'detail_info': {'tag': '美食;中餐厅', 'navi_location': {'lng': 108.94522223832, 'lat': 34.243546132983}, 'type': 'cater', 'detail_url': 'http://api.map.baidu.com/place/detail?uid=c66a1b95c047d44c744ff127&output=html&source=placeapi_v2', 'price': '121.0', 'overall_rating': '4.4', 'comment_num': '122', 'di_review_keyword': [], 'children': []}}"
"{'name': '真爱中国餐馆(朱雀大街店)', 'location': {'lat': 34.242945, 'lng': 108.945246}, 'address': '朱雀大街中段38号（小雁塔西门对面）', 'province': '陕西省', 'city': '西安市', 'area': '碑林区', 'street_id': 'c66a1b95c047d44c744ff127', 'telephone': '(029)88401234', 'detail': 1, 'uid': 'c66a1b95c047d44c744ff127', 'detail_info': {'tag': '美食;中餐厅', 'navi_location': {'lng': 108.94522223832, 'lat': 34.243546132983}, 'type': 'cater', 'detail_url': 'http://api.map.baidu.com/place/detail?uid=c66a1b95c047d44c744ff127&output=html&source=placeapi_v2', 'price': '121.0', 'overall_rating': '4.4', 'comment_num': '122', 'di_review_keyword': [], 'children': []}}"
苏浙会馆(高新路店),108.90194438578055,34.24151520148786,1cea15a940f1f3dc07fef5db,"{'name': '苏浙会馆(高新路店)', 'location': {'lat': 34.245582, 'lng': 108.913146}, 'address': '陕西省西安市雁塔区高新一路2号国家开发银行大厦楼下', 'province': '陕西省', 'city': '西安市', 'area': '雁塔区', 'street_id': '1cea15a940f1f3dc07fef5db', 'telephone': '(029)88322222', 'detail': 1, 'uid': '1cea15a940f1f3dc07fef5db', 'detail_info': {'tag': '美食;中餐厅', 'navi_location': {'lng': 108.91314712978, 'lat': 34.246046336046}, 'type': 'cater', 'detail_url': 'http://api.map.baidu.com/place/detail?uid=1cea15a940f1f3dc07fef5db&output=html&source=placeapi_v2', 'price': '103.0', 'overall_rating': '4.3', 'groupon_num': '2', 'comment_num': '200', 'di_review_keyword': [], 'children': []}}"
"{'name': '苏浙会馆(高新路店)', 'location': {'lat': 34.245582, 'lng': 108.913146}, 'address': '陕西省西安市雁塔区高新一路2号国家开发银行大厦楼下', 'province': '陕西省', 'city': '西安市', 'area': '雁塔区', 'street_id': '1cea15a940f1f3dc07fef5db', 'telephone': '(029)88322222', 'detail': 1, 'uid': '1cea15a940f1f3dc07fef5db', 'detail_info': {'tag': '美食;中餐厅', 'navi_location': {'lng': 108.91314712978, 'lat': 34.246046336046}, 'type': 'cater', 'detail_url': 'http://api.map.baidu.com/place/detail?uid=1cea15a940f1f3dc07fef5db&output=html&source=placeapi_v2', 'price': '103.0', 'overall_rating': '4.3', 'groupon_num': '2', 'comment_num': '200', 'di_review_keyword': [], 'children': []}}"
比格比萨(城市皇冠店),108.89213307706198,34.24001862923542,bba87388c61326b9bca822ce,"{'name': '比格比萨(城市皇冠店)', 'location': {'lat': 34.24407, 'lng': 108.903334}, 'address': '西安市雁塔区城市皇冠底商三层10301室', 'province': '陕西省', 'city': '西安市', 'area': '雁塔区', 'street_id': 'bba87388c61326b9bca822ce', 'telephone': '(029)62631100,(029)62631122', 'detail': 1, 'uid': 'bba87388c61326b9bca822ce', 'detail_info': {'tag': '美食;外国餐厅', 'navi_location': {'lng': 108.90345059732, 'lat': 34.244014263858}, 'type': 'cater', 'detail_url': 'http://api.map.baidu.com/place/detail?uid=bba87388c61326b9bca822ce&output=html&source=placeapi_v2', 'price': '49.0', 'overall_rating': '4.4', 'comment_num': '200', 'di_review_keyword': [], 'children': []}}"
"{'name': '比格比萨(城市皇冠店)', 'location': {'lat': 34.24407, 'lng': 108.903334}, 'address': '西安市雁塔区城市皇冠底商三层10301室', 'province': '陕西省', 'city': '西安市', 'area': '雁塔区', 'street_id': 'bba87388c61326b9bca822ce', 'telephone': '(029)62631100,(029)62631122', 'detail': 1, 'uid': 'bba87388c61326b9bca822ce', 'detail_info': {'tag': '美食;外国餐厅', 'navi_location': {'lng': 108.90345059732, 'lat': 34.244014263858}, 'type': 'cater', 'detail_url': 'http://api.map.baidu.com/place/detail?uid=bba87388c61326b9bca822ce&output=html&source=placeapi_v2', 'price': '49.0', 'overall_rating': '4.4', 'comment_num': '200', 'di_review_keyword': [], 'children': []}}"
温州风味美食(四府街店),108.92820655875329,34.25622360592838,12dc3b0ec50ef5ce58f6be08,"{'name': '温州风味美食(四府街店)', 'location': {'lat': 34.260669, 'lng': 108.939328}, 'address': '陕西省西安市莲湖区含光门里甜水井街冰窖巷小区2号楼底商', 'province': '陕西省', 'city': '西安市', 'area': '莲湖区', 'street_id': '12dc3b0ec50ef5ce58f6be08', 'telephone': '15909203971', 'detail': 1, 'uid': '12dc3b0ec50ef5ce58f6be08', 'detail_info': {'tag': '美食;中餐厅', 'navi_location': {'lng': 108.93933221617, 'lat': 34.260516196104}, 'type': 'cater', 'detail_url': 'http://api.map.baidu.com/place/detail?uid=12dc3b0ec50ef5ce58f6be08&output=html&source=placeapi_v2', 'price': '57.0', 'overall_rating': '4.6', 'comment_num': '200', 'di_review_keyword': [], 'children': []}}"
"{'name': '温州风味美食(四府街店)', 'location': {'lat': 34.260669, 'lng': 108.939328}, 'address': '陕西省西安市莲湖区含光门里甜水井街冰窖巷小区2号楼底商', 'province': '陕西省', 'city': '西安市', 'area': '莲湖区', 'street_id': '12dc3b0ec50ef5ce58f6be08', 'telephone': '15909203971', 'detail': 1, 'uid': '12dc3b0ec50ef5ce58f6be08', 'detail_info': {'tag': '美食;中餐厅', 'navi_location': {'lng': 108.93933221617, 'lat': 34.260516196104}, 'type': 'cater', 'detail_url': 'http://api.map.baidu.com/place/detail?uid=12dc3b0ec50ef5ce58f6be08&output=html&source=placeapi_v2', 'price': '57.0', 'overall_rating': '4.6', 'comment_num': '200', 'di_review_keyword': [], 'children': []}}"
北京老铺烤鸭(御铺店),108.92330860776846,34.25226350293406,dffd631c60bf15a538221cd0,"{'name': '北京老铺烤鸭(御铺店)', 'location': {'lat': 34.256619, 'lng': 108.934449}, 'address': '陕西省西安市碑林区环城南路西段202号(近西北大学北门)', 'province': '陕西省', 'city': '西安市', 'area': '碑林区', 'street_id': 'dffd631c60bf15a538221cd0', 'telephone': '(029)88421888', 'detail': 1, 'uid': 'dffd631c60bf15a538221cd0', 'detail_info': {'tag': '美食;中餐厅', 'navi_location': {'lng': 108.93437038077, 'lat': 34.256767101333}, 'type': 'cater', 'detail_url': 'http://api.map.baidu.com/place/detail?uid=dffd631c60bf15a538221cd0&output=html&source=placeapi_v2', 'price': '89.0', 'overall_rating': '4.3', 'comment_num': '200', 'di_review_keyword': [], 'children': []}}"
"{'name': '北京老铺烤鸭(御铺店)', 'location': {'lat': 34.256619, 'lng': 108.934449}, 'address': '陕西省西安市碑林区环城南路西段202号(近西北大学北门)', 'province': '陕西省', 'city': '西安市', 'area': '碑林区', 'street_id': 'dffd631c60bf15a538221cd0', 'telephone': '(029)88421888', 'detail': 1, 'uid': 'dffd631c60bf15a538221cd0', 'detail_info': {'tag': '美食;中餐厅', 'navi_location': {'lng': 108.93437038077, 'lat': 34.256767101333}, 'type': 'cater', 'detail_url': 'http://api.map.baidu.com/place/detail?uid=dffd631c60bf15a538221cd0&output=html&source=placeapi_v2', 'price': '89.0', 'overall_rating': '4.3', 'comment_num': '200', 'di_review_keyword': [], 'children': []}}"
辣宴火锅(含光门店),108.92928341339761,34.252248341628544,ca3a030e4a2152a82bd7abc2,"{'name': '辣宴火锅(含光门店)', 'location': {'lat': 34.256713, 'lng': 108.940405}, 'address': '西安市碑林区环城南路西段45号', 'province': '陕西省', 'city': '西安市', 'area': '碑林区', 'street_id': 'ca3a030e4a2152a82bd7abc2', 'telephone': '(029)85266889', 'detail': 1, 'uid': 'ca3a030e4a2152a82bd7abc2', 'detail_info': {'tag': '美食;中餐厅', 'navi_location': {'lng': 108.9404018501, 'lat': 34.256833491638}, 'type': 'cater', 'detail_url': 'http://api.map.baidu.com/place/detail?uid=ca3a030e4a2152a82bd7abc2&output=html&source=placeapi_v2', 'price': '90.0', 'overall_rating': '4.7', 'comment_num': '200', 'di_review_keyword': [], 'children': []}}"
"{'name': '辣宴火锅(含光门店)', 'location': {'lat': 34.256713, 'lng': 108.940405}, 'address': '西安市碑林区环城南路西段45号', 'province': '陕西省', 'city': '西安市', 'area': '碑林区', 'street_id': 'ca3a030e4a2152a82bd7abc2', 'telephone': '(029)85266889', 'detail': 1, 'uid': 'ca3a030e4a2152a82bd7abc2', 'detail_info': {'tag': '美食;中餐厅', 'navi_location': {'lng': 108.9404018501, 'lat': 34.256833491638}, 'type': 'cater', 'detail_url': 'http://api.map.baidu.com/place/detail?uid=ca3a030e4a2152a82bd7abc2&output=html&source=placeapi_v2', 'price': '90.0', 'overall_rating': '4.7', 'comment_num': '200', 'di_review_keyword': [], 'children': []}}"
比格比萨(吉祥村店),108.92648725935982,34.22473279734447,6113ef772f6af70d8e772757,"{'name': '比格比萨(吉祥村店)', 'location': {'lat': 34.229139, 'lng': 108.937624}, 'address': '吉祥村秋林公司2层', 'province': '陕西省', 'city': '西安市', 'area': '雁塔区', 'street_id': '6113ef772f6af70d8e772757', 'telephone': '(029)63683130,(029)63683129', 'detail': 1, 'uid': '6113ef772f6af70d8e772757', 'detail_info': {'tag': '美食;外国餐厅', 'type': 'cater', 'detail_url': 'http://api.map.baidu.com/place/detail?uid=6113ef772f6af70d8e772757&output=html&source=placeapi_v2', 'price': '49.0', 'overall_rating': '4.8', 'comment_num': '200', 'di_review_keyword': [], 'children': []}}"
"{'name': '比格比萨(吉祥村店)', 'location': {'lat': 34.229139, 'lng': 108.937624}, 'address': '吉祥村秋林公司2层', 'province': '陕西省', 'city': '西安市', 'area': '雁塔区', 'street_id': '6113ef772f6af70d8e772757', 'telephone': '(029)63683130,(029)63683129', 'detail': 1, 'uid': '6113ef772f6af70d8e772757', 'detail_info': {'tag': '美食;外国餐厅', 'type': 'cater', 'detail_url': 'http://api.map.baidu.com/place/detail?uid=6113ef772f6af70d8e772757&output=html&source=placeapi_v2', 'price': '49.0', 'overall_rating': '4.8', 'comment_num': '200', 'di_review_keyword': [], 'children': []}}"
真爱中国餐馆(环城西苑店),108.91895794361012,34.26335157186843,1020060f667be5bf1994c690,"{'name': '真爱中国餐馆(环城西苑店)', 'location': {'lat': 34.267631, 'lng': 108.930103}, 'address': '西门外北侧环城西苑内', 'province': '陕西省', 'city': '西安市', 'area': '莲湖区', 'street_id': '1020060f667be5bf1994c690', 'telephone': '(029)87951234', 'detail': 1, 'uid': '1020060f667be5bf1994c690', 'detail_info': {'tag': '美食;中餐厅', 'navi_location': {'lng': 108.92934875955, 'lat': 34.267898312592}, 'type': 'cater', 'detail_url': 'http://api.map.baidu.com/place/detail?uid=1020060f667be5bf1994c690&output=html&source=placeapi_v2', 'price': '130.0', 'overall_rating': '4.4', 'comment_num': '103', 'di_review_keyword': [], 'children': []}}"
"{'name': '真爱中国餐馆(环城西苑店)', 'location': {'lat': 34.267631, 'lng': 108.930103}, 'address': '西门外北侧环城西苑内', 'province': '陕西省', 'city': '西安市', 'area': '莲湖区', 'street_id': '1020060f667be5bf1994c690', 'telephone': '(029)87951234', 'detail': 1, 'uid': '1020060f667be5bf1994c690', 'detail_info': {'tag': '美食;中餐厅', 'navi_location': {'lng': 108.92934875955, 'lat': 34.267898312592}, 'type': 'cater', 'detail_url': 'http://api.map.baidu.com/place/detail?uid=1020060f667be5bf1994c690&output=html&source=placeapi_v2', 'price': '130.0', 'overall_rating': '4.4', 'comment_num': '103', 'di_review_keyword': [], 'children': []}}"
老万兴,108.92341971014355,34.23571559058953,9cfbd26becb9b92c16c9052a,"{'name': '老万兴', 'location': {'lat': 34.24007, 'lng': 108.934568}, 'address': '陕西省西安市碑林区兴化巷凯旋城6号底商', 'province': '陕西省', 'city': '西安市', 'area': '碑林区', 'street_id': '9cfbd26becb9b92c16c9052a', 'telephone': '(029)89326876', 'detail': 1, 'uid': '9cfbd26becb9b92c16c9052a', 'detail_info': {'tag': '美食;中餐厅', 'navi_location': {'lng': 108.93472442813, 'lat': 34.240167468702}, 'type': 'cater', 'detail_url': 'http://api.map.baidu.com/place/detail?uid=9cfbd26becb9b92c16c9052a&output=html&source=placeapi_v2', 'price': '62.0', 'overall_rating': '4.8', 'comment_num': '200', 'di_review_keyword': [], 'children': []}}"
"{'name': '老万兴', 'location': {'lat': 34.24007, 'lng': 108.934568}, 'address': '陕西省西安市碑林区兴化巷凯旋城6号底商', 'province': '陕西省', 'city': '西安市', 'area': '碑林区', 'street_id': '9cfbd26becb9b92c16c9052a', 'telephone': '(029)89326876', 'detail': 1, 'uid': '9cfbd26becb9b92c16c9052a', 'detail_info': {'tag': '美食;中餐厅', 'navi_location': {'lng': 108.93472442813, 'lat': 34.240167468702}, 'type': 'cater', 'detail_url': 'http://api.map.baidu.com/place/detail?uid=9cfbd26becb9b92c16c9052a&output=html&source=placeapi_v2', 'price': '62.0', 'overall_rating': '4.8', 'comment_num': '200', 'di_review_keyword': [], 'children': []}}"
锦翔炝锅城(朱雀路店),108.93392580670248,34.20385713455974,905bd74e7327f7b55e0d02a6,"{'name': '锦翔炝锅城(朱雀路店)', 'location': {'lat': 34.208384, 'lng': 108.945025}, 'address': '西安市朱雀大街南段50号长江丰泽园A座一、二层', 'province': '陕西省', 'city': '西安市', 'area': '雁塔区', 'street_id': '905bd74e7327f7b55e0d02a6', 'telephone': '(029)85402288,(029)85402299', 'detail': 1, 'uid': '905bd74e7327f7b55e0d02a6', 'detail_info': {'tag': '美食;中餐厅', 'navi_location': {'lng': 108.9453622015, 'lat': 34.208489707126}, 'type': 'cater', 'detail_url': 'http://api.map.baidu.com/place/detail?uid=905bd74e7327f7b55e0d02a6&output=html&source=placeapi_v2', 'price': '55.0', 'overall_rating': '4.5', 'groupon_num': '2', 'comment_num': '200', 'di_review_keyword': [], 'children': []}}"
"{'name': '锦翔炝锅城(朱雀路店)', 'location': {'lat': 34.208384, 'lng': 108.945025}, 'address': '西安市朱雀大街南段50号长江丰泽园A座一、二层', 'province': '陕西省', 'city': '西安市', 'area': '雁塔区', 'street_id': '905bd74e7327f7b55e0d02a6', 'telephone': '(029)85402288,(029)85402299', 'detail': 1, 'uid': '905bd74e7327f7b55e0d02a6', 'detail_info': {'tag': '美食;中餐厅', 'navi_location': {'lng': 108.9453622015, 'lat': 34.208489707126}, 'type': 'cater', 'detail_url': 'http://api.map.baidu.com/place/detail?uid=905bd74e7327f7b55e0d02a6&output=html&source=placeapi_v2', 'price': '55.0', 'overall_rating': '4.5', 'groupon_num': '2', 'comment_num': '200', 'di_review_keyword': [], 'children': []}}"
大厨小馆(友谊路店),108.92962705888668,34.24237553423147,709b72dbbc45943307fef5de,"{'name': '大厨小馆(友谊路店)', 'location': {'lat': 34.246845, 'lng': 108.940754}, 'address': '友谊路黄雁村十字东南角华豪丽晶2楼(公务员大厦正对面)', 'province': '陕西省', 'city': '西安市', 'area': '碑林区', 'street_id': '709b72dbbc45943307fef5de', 'telephone': '(029)85397203', 'detail': 1, 'uid': '709b72dbbc45943307fef5de', 'detail_info': {'tag': '美食;中餐厅', 'navi_location': {'lng': 108.94059036311, 'lat': 34.247098221644}, 'type': 'cater', 'detail_url': 'http://api.map.baidu.com/place/detail?uid=709b72dbbc45943307fef5de&output=html&source=placeapi_v2', 'price': '48.0', 'overall_rating': '4.2', 'comment_num': '164', 'di_review_keyword': [], 'children': []}}"
"{'name': '大厨小馆(友谊路店)', 'location': {'lat': 34.246845, 'lng': 108.940754}, 'address': '友谊路黄雁村十字东南角华豪丽晶2楼(公务员大厦正对面)', 'province': '陕西省', 'city': '西安市', 'area': '碑林区', 'street_id': '709b72dbbc45943307fef5de', 'telephone': '(029)85397203', 'detail': 1, 'uid': '709b72dbbc45943307fef5de', 'detail_info': {'tag': '美食;中餐厅', 'navi_location': {'lng': 108.94059036311, 'lat': 34.247098221644}, 'type': 'cater', 'detail_url': 'http://api.map.baidu.com/place/detail?uid=709b72dbbc45943307fef5de&output=html&source=placeapi_v2', 'price': '48.0', 'overall_rating': '4.2', 'comment_num': '164', 'di_review_keyword': [], 'children': []}}"
人人居(四府街店),108.93120089683403,34.25710046245171,0523a1410a2fb404b23c811d,"{'name': '人人居(四府街店)', 'location': {'lat': 34.2616, 'lng': 108.942313}, 'address': '陕西省西安市碑林区四府街78号', 'province': '陕西省', 'city': '西安市', 'area': '碑林区', 'street_id': '0523a1410a2fb404b23c811d', 'telephone': '(029)87620166', 'detail': 1, 'uid': '0523a1410a2fb404b23c811d', 'detail_info': {'tag': '美食;中餐厅', 'navi_location': {'lng': 108.94241400144, 'lat': 34.261599460917}, 'type': 'cater', 'detail_url': 'http://api.map.baidu.com/place/detail?uid=0523a1410a2fb404b23c811d&output=html&source=placeapi_v2', 'price': '47.0', 'overall_rating': '4.5', 'comment_num': '117', 'di_review_keyword': [], 'children': []}}"
"{'name': '人人居(四府街店)', 'location': {'lat': 34.2616, 'lng': 108.942313}, 'address': '陕西省西安市碑林区四府街78号', 'province': '陕西省', 'city': '西安市', 'area': '碑林区', 'street_id': '0523a1410a2fb404b23c811d', 'telephone': '(029)87620166', 'detail': 1, 'uid': '0523a1410a2fb404b23c811d', 'detail_info': {'tag': '美食;中餐厅', 'navi_location': {'lng': 108.94241400144, 'lat': 34.261599460917}, 'type': 'cater', 'detail_url': 'http://api.map.baidu.com/place/detail?uid=0523a1410a2fb404b23c811d&output=html&source=placeapi_v2', 'price': '47.0', 'overall_rating': '4.5', 'comment_num': '117', 'di_review_keyword': [], 'children': []}}"
椒香火辣,108.89681825403439,34.21740597560757,3f9372f798fc2660e81e9771,"{'name': '椒香火辣', 'location': {'lat': 34.221444, 'lng': 108.908017}, 'address': '科技四路甘家寨东二排34号1层', 'province': '陕西省', 'city': '西安市', 'area': '雁塔区', 'street_id': '3f9372f798fc2660e81e9771', 'telephone': '(029)88608640', 'detail': 1, 'uid': '3f9372f798fc2660e81e9771', 'detail_info': {'tag': '美食;中餐厅', 'navi_location': {'lng': 108.90795039737, 'lat': 34.221413527548}, 'type': 'cater', 'detail_url': 'http://api.map.baidu.com/place/detail?uid=3f9372f798fc2660e81e9771&output=html&source=placeapi_v2', 'price': '55.0', 'overall_rating': '4.4', 'comment_num': '200', 'di_review_keyword': [], 'children': []}}"
"{'name': '椒香火辣', 'location': {'lat': 34.221444, 'lng': 108.908017}, 'address': '科技四路甘家寨东二排34号1层', 'province': '陕西省', 'city': '西安市', 'area': '雁塔区', 'street_id': '3f9372f798fc2660e81e9771', 'telephone': '(029)88608640', 'detail': 1, 'uid': '3f9372f798fc2660e81e9771', 'detail_info': {'tag': '美食;中餐厅', 'navi_location': {'lng': 108.90795039737, 'lat': 34.221413527548}, 'type': 'cater', 'detail_url': 'http://api.map.baidu.com/place/detail?uid=3f9372f798fc2660e81e9771&output=html&source=placeapi_v2', 'price': '55.0', 'overall_rating': '4.4', 'comment_num': '200', 'di_review_keyword': [], 'children': []}}"
老城关腊汁肉夹馍(高新路店),108.89999331428783,34.23424729645078,20e4a9bc0e587051fa42b2f0,"{'name': '老城关腊汁肉夹馍(高新路店)', 'location': {'lat': 34.238302, 'lng': 108.911198}, 'address': '高新区高新路52号高科大厦一层1-2室', 'province': '陕西省', 'city': '西安市', 'area': '雁塔区', 'street_id': '20e4a9bc0e587051fa42b2f0', 'telephone': '(029)88324731', 'detail': 1, 'uid': '20e4a9bc0e587051fa42b2f0', 'detail_info': {'tag': '美食;小吃快餐店', 'navi_location': {'lng': 108.91111875593, 'lat': 34.238172289871}, 'type': 'cater', 'detail_url': 'http://api.map.baidu.com/place/detail?uid=20e4a9bc0e587051fa42b2f0&output=html&source=placeapi_v2', 'price': '15.0', 'overall_rating': '4.2', 'comment_num': '173', 'di_review_keyword': [], 'children': []}}"
"{'name': '老城关腊汁肉夹馍(高新路店)', 'location': {'lat': 34.238302, 'lng': 108.911198}, 'address': '高新区高新路52号高科大厦一层1-2室', 'province': '陕西省', 'city': '西安市', 'area': '雁塔区', 'street_id': '20e4a9bc0e587051fa42b2f0', 'telephone': '(029)88324731', 'detail': 1, 'uid': '20e4a9bc0e587051fa42b2f0', 'detail_info': {'tag': '美食;小吃快餐店', 'navi_location': {'lng': 108.91111875593, 'lat': 34.238172289871}, 'type': 'cater', 'detail_url': 'http://api.map.baidu.com/place/detail?uid=20e4a9bc0e587051fa42b2f0&output=html&source=placeapi_v2', 'price': '15.0', 'overall_rating': '4.2', 'comment_num': '173', 'di_review_keyword': [], 'children': []}}"
Helen's西餐吧,108.9259666006619,34.22477732798362,fe19a7a6af59ff462906cee1,"{'name': ""Helen's西餐吧"", 'location': {'lat': 34.229174, 'lng': 108.937105}, 'address': '西安雁塔区吉祥路21号秋林商厦西20米吉祥小学2楼', 'province': '陕西省', 'city': '西安市', 'area': '雁塔区', 'street_id': 'fe19a7a6af59ff462906cee1', 'telephone': '(029)88257912', 'detail': 1, 'uid': 'fe19a7a6af59ff462906cee1', 'detail_info': {'tag': '美食;外国餐厅', 'navi_location': {'lng': 108.93733240216, 'lat': 34.228992637963}, 'type': 'cater', 'detail_url': 'http://api.map.baidu.com/place/detail?uid=fe19a7a6af59ff462906cee1&output=html&source=placeapi_v2', 'price': '57.5', 'overall_rating': '4.4', 'comment_num': '142', 'di_review_keyword': [], 'children': []}}"
"{'name': ""Helen's西餐吧"", 'location': {'lat': 34.229174, 'lng': 108.937105}, 'address': '西安雁塔区吉祥路21号秋林商厦西20米吉祥小学2楼', 'province': '陕西省', 'city': '西安市', 'area': '雁塔区', 'street_id': 'fe19a7a6af59ff462906cee1', 'telephone': '(029)88257912', 'detail': 1, 'uid': 'fe19a7a6af59ff462906cee1', 'detail_info': {'tag': '美食;外国餐厅', 'navi_location': {'lng': 108.93733240216, 'lat': 34.228992637963}, 'type': 'cater', 'detail_url': 'http://api.map.baidu.com/place/detail?uid=fe19a7a6af59ff462906cee1&output=html&source=placeapi_v2', 'price': '57.5', 'overall_rating': '4.4', 'comment_num': '142', 'di_review_keyword': [], 'children': []}}"
力邦艺术港,108.89531833308004,34.23569877564499,cde9e2c7a6c0baade91e9794,"{'name': '力邦艺术港', 'location': {'lat': 34.239744, 'lng': 108.906523}, 'address': '西安高新区高新二路18号', 'province': '陕西省', 'city': '西安市', 'area': '雁塔区', 'street_id': 'cde9e2c7a6c0baade91e9794', 'detail': 1, 'uid': 'cde9e2c7a6c0baade91e9794', 'detail_info': {'tag': '购物;商铺', 'navi_location': {'lng': 108.90673678662, 'lat': 34.239552317899}, 'type': 'cater', 'detail_url': 'http://api.map.baidu.com/place/detail?uid=cde9e2c7a6c0baade91e9794&output=html&source=placeapi_v2', 'price': '48.0', 'overall_rating': '4.2', 'comment_num': '94', 'di_review_keyword': [], 'children': []}}"
"{'name': '力邦艺术港', 'location': {'lat': 34.239744, 'lng': 108.906523}, 'address': '西安高新区高新二路18号', 'province': '陕西省', 'city': '西安市', 'area': '雁塔区', 'street_id': 'cde9e2c7a6c0baade91e9794', 'detail': 1, 'uid': 'cde9e2c7a6c0baade91e9794', 'detail_info': {'tag': '购物;商铺', 'navi_location': {'lng': 108.90673678662, 'lat': 34.239552317899}, 'type': 'cater', 'detail_url': 'http://api.map.baidu.com/place/detail?uid=cde9e2c7a6c0baade91e9794&output=html&source=placeapi_v2', 'price': '48.0', 'overall_rating': '4.2', 'comment_num': '94', 'di_review_keyword': [], 'children': []}}"
喜多屋,108.937970050811,34.26017611587446,65636b188edae86b2cb17ee5,"{'name': '喜多屋', 'location': {'lat': 34.264789, 'lng': 108.949065}, 'address': '西安市碑林区西大街48号银泰百货F7', 'province': '陕西省', 'city': '西安市', 'area': '碑林区', 'street_id': '65636b188edae86b2cb17ee5', 'telephone': '(029)85258800,(029)87258091', 'detail': 1, 'uid': '65636b188edae86b2cb17ee5', 'detail_info': {'tag': '美食;外国餐厅', 'navi_location': {'lng': 108.94991468447, 'lat': 34.264791484598}, 'indoor_floor': 'F7', 'type': 'cater', 'detail_url': 'http://api.map.baidu.com/place/detail?uid=65636b188edae86b2cb17ee5&output=html&source=placeapi_v2', 'price': '157.0', 'overall_rating': '3.9', 'groupon_num': '1', 'comment_num': '200', 'di_review_keyword': [], 'children': []}}"
"{'name': '喜多屋', 'location': {'lat': 34.264789, 'lng': 108.949065}, 'address': '西安市碑林区西大街48号银泰百货F7', 'province': '陕西省', 'city': '西安市', 'area': '碑林区', 'street_id': '65636b188edae86b2cb17ee5', 'telephone': '(029)85258800,(029)87258091', 'detail': 1, 'uid': '65636b188edae86b2cb17ee5', 'detail_info': {'tag': '美食;外国餐厅', 'navi_location': {'lng': 108.94991468447, 'lat': 34.264791484598}, 'indoor_floor': 'F7', 'type': 'cater', 'detail_url': 'http://api.map.baidu.com/place/detail?uid=65636b188edae86b2cb17ee5&output=html&source=placeapi_v2', 'price': '157.0', 'overall_rating': '3.9', 'groupon_num': '1', 'comment_num': '200', 'di_review_keyword': [], 'children': []}}"
2068香辣虾(北山门店),108.91517858878233,34.20633552876305,805253c170cafacfd62ce229,"{'name': '2068香辣虾(北山门店)', 'location': {'lat': 34.210534, 'lng': 108.926337}, 'address': '电子正街231号', 'province': '陕西省', 'city': '西安市', 'area': '雁塔区', 'street_id': '805253c170cafacfd62ce229', 'telephone': '(029)88852068', 'detail': 1, 'uid': '805253c170cafacfd62ce229', 'detail_info': {'tag': '美食;中餐厅', 'navi_location': {'lng': 108.92622051391, 'lat': 34.210531149482}, 'type': 'cater', 'detail_url': 'http://api.map.baidu.com/place/detail?uid=805253c170cafacfd62ce229&output=html&source=placeapi_v2', 'price': '58.0', 'overall_rating': '4.4', 'comment_num': '200', 'di_review_keyword': [], 'children': []}}"
"{'name': '2068香辣虾(北山门店)', 'location': {'lat': 34.210534, 'lng': 108.926337}, 'address': '电子正街231号', 'province': '陕西省', 'city': '西安市', 'area': '雁塔区', 'street_id': '805253c170cafacfd62ce229', 'telephone': '(029)88852068', 'detail': 1, 'uid': '805253c170cafacfd62ce229', 'detail_info': {'tag': '美食;中餐厅', 'navi_location': {'lng': 108.92622051391, 'lat': 34.210531149482}, 'type': 'cater', 'detail_url': 'http://api.map.baidu.com/place/detail?uid=805253c170cafacfd62ce229&output=html&source=placeapi_v2', 'price': '58.0', 'overall_rating': '4.4', 'comment_num': '200', 'di_review_keyword': [], 'children': []}}"
陈三娃泡姜鸡(水司店),108.91912765252117,34.25212652446438,3c0ea7c525102a85fbf0cbc8,"{'name': '陈三娃泡姜鸡(水司店)', 'location': {'lat': 34.256408, 'lng': 108.930282}, 'address': '西安碑林区太白北路279号西北大学综合服务楼1号楼(近鼎珍源)', 'province': '陕西省', 'city': '西安市', 'area': '碑林区', 'street_id': '3c0ea7c525102a85fbf0cbc8', 'telephone': '(029)88304058', 'detail': 1, 'uid': '3c0ea7c525102a85fbf0cbc8', 'detail_info': {'tag': '美食;中餐厅', 'navi_location': {'lng': 108.93004460586, 'lat': 34.256155897824}, 'type': 'cater', 'detail_url': 'http://api.map.baidu.com/place/detail?uid=3c0ea7c525102a85fbf0cbc8&output=html&source=placeapi_v2', 'price': '59.0', 'overall_rating': '4.4', 'comment_num': '173', 'di_review_keyword': [], 'children': []}}"
"{'name': '陈三娃泡姜鸡(水司店)', 'location': {'lat': 34.256408, 'lng': 108.930282}, 'address': '西安碑林区太白北路279号西北大学综合服务楼1号楼(近鼎珍源)', 'province': '陕西省', 'city': '西安市', 'area': '碑林区', 'street_id': '3c0ea7c525102a85fbf0cbc8', 'telephone': '(029)88304058', 'detail': 1, 'uid': '3c0ea7c525102a85fbf0cbc8', 'detail_info': {'tag': '美食;中餐厅', 'navi_location': {'lng': 108.93004460586, 'lat': 34.256155897824}, 'type': 'cater', 'detail_url': 'http://api.map.baidu.com/place/detail?uid=3c0ea7c525102a85fbf0cbc8&output=html&source=placeapi_v2', 'price': '59.0', 'overall_rating': '4.4', 'comment_num': '173', 'di_review_keyword': [], 'children': []}}"
绿茉莉(高科大厦店),108.89990432000928,34.235132387368076,3a0fbba857e8e4589ee32158,"{'name': '绿茉莉(高科大厦店)', 'location': {'lat': 34.239187, 'lng': 108.911109}, 'address': '高新路高科大厦副楼1楼(近世纪金花后门)', 'province': '陕西省', 'city': '西安市', 'area': '雁塔区', 'street_id': '3a0fbba857e8e4589ee32158', 'telephone': '(029)81883339', 'detail': 1, 'uid': '3a0fbba857e8e4589ee32158', 'detail_info': {'tag': '美食;外国餐厅', 'navi_location': {'lng': 108.91088392181, 'lat': 34.239122334521}, 'type': 'cater', 'detail_url': 'http://api.map.baidu.com/place/detail?uid=3a0fbba857e8e4589ee32158&output=html&source=placeapi_v2', 'price': '175.0', 'overall_rating': '4.6', 'comment_num': '200', 'di_review_keyword': [], 'children': []}}"
"{'name': '绿茉莉(高科大厦店)', 'location': {'lat': 34.239187, 'lng': 108.911109}, 'address': '高新路高科大厦副楼1楼(近世纪金花后门)', 'province': '陕西省', 'city': '西安市', 'area': '雁塔区', 'street_id': '3a0fbba857e8e4589ee32158', 'telephone': '(029)81883339', 'detail': 1, 'uid': '3a0fbba857e8e4589ee32158', 'detail_info': {'tag': '美食;外国餐厅', 'navi_location': {'lng': 108.91088392181, 'lat': 34.239122334521}, 'type': 'cater', 'detail_url': 'http://api.map.baidu.com/place/detail?uid=3a0fbba857e8e4589ee32158&output=html&source=placeapi_v2', 'price': '175.0', 'overall_rating': '4.6', 'comment_num': '200', 'di_review_keyword': [], 'children': []}}"
名羊天下陕北横山铁锅炖羊肉,108.90039376818866,34.226650473638074,870a6c5782a3786b17c8f672,"{'name': '名羊天下陕北横山铁锅炖羊肉', 'location': {'lat': 34.230704, 'lng': 108.911597}, 'address': '博文路39号', 'province': '陕西省', 'city': '西安市', 'area': '雁塔区', 'street_id': '870a6c5782a3786b17c8f672', 'telephone': '(029)84507777', 'detail': 1, 'uid': '870a6c5782a3786b17c8f672', 'detail_info': {'tag': '美食;中餐厅', 'navi_location': {'lng': 108.9113834695, 'lat': 34.230797998975}, 'type': 'cater', 'detail_url': 'http://api.map.baidu.com/place/detail?uid=870a6c5782a3786b17c8f672&output=html&source=placeapi_v2', 'price': '72.0', 'overall_rating': '4.4', 'comment_num': '200', 'di_review_keyword': [], 'children': []}}"
"{'name': '名羊天下陕北横山铁锅炖羊肉', 'location': {'lat': 34.230704, 'lng': 108.911597}, 'address': '博文路39号', 'province': '陕西省', 'city': '西安市', 'area': '雁塔区', 'street_id': '870a6c5782a3786b17c8f672', 'telephone': '(029)84507777', 'detail': 1, 'uid': '870a6c5782a3786b17c8f672', 'detail_info': {'tag': '美食;中餐厅', 'navi_location': {'lng': 108.9113834695, 'lat': 34.230797998975}, 'type': 'cater', 'detail_url': 'http://api.map.baidu.com/place/detail?uid=870a6c5782a3786b17c8f672&output=html&source=placeapi_v2', 'price': '72.0', 'overall_rating': '4.4', 'comment_num': '200', 'di_review_keyword': [], 'children': []}}"
李想大虾火锅花园(大学南路店),108.9190753777029,34.24787391913736,68b1c65f902968f8dc1e5243,"{'name': '李想大虾火锅花园(大学南路店)', 'location': {'lat': 34.252154, 'lng': 108.930233}, 'address': '陕西省西安市碑林区大学南路与太白北路交口东北角', 'province': '陕西省', 'city': '西安市', 'area': '碑林区', 'street_id': '68b1c65f902968f8dc1e5243', 'telephone': '(029)89569833', 'detail': 1, 'uid': '68b1c65f902968f8dc1e5243', 'detail_info': {'tag': '美食;中餐厅', 'navi_location': {'lng': 108.93009660338, 'lat': 34.252169710338}, 'type': 'cater', 'detail_url': 'http://api.map.baidu.com/place/detail?uid=68b1c65f902968f8dc1e5243&output=html&source=placeapi_v2', 'price': '42.0', 'overall_rating': '4.4', 'comment_num': '200', 'di_review_keyword': [], 'children': []}}"
"{'name': '李想大虾火锅花园(大学南路店)', 'location': {'lat': 34.252154, 'lng': 108.930233}, 'address': '陕西省西安市碑林区大学南路与太白北路交口东北角', 'province': '陕西省', 'city': '西安市', 'area': '碑林区', 'street_id': '68b1c65f902968f8dc1e5243', 'telephone': '(029)89569833', 'detail': 1, 'uid': '68b1c65f902968f8dc1e5243', 'detail_info': {'tag': '美食;中餐厅', 'navi_location': {'lng': 108.93009660338, 'lat': 34.252169710338}, 'type': 'cater', 'detail_url': 'http://api.map.baidu.com/place/detail?uid=68b1c65f902968f8dc1e5243&output=html&source=placeapi_v2', 'price': '42.0', 'overall_rating': '4.4', 'comment_num': '200', 'di_review_keyword': [], 'children': []}}"
清真古城好一锅羊蝎子火锅,108.9346204147966,34.25847510777899,e08c0e4963d9a9c3354aaee0,"{'name': '清真古城好一锅羊蝎子火锅', 'location': {'lat': 34.263034, 'lng': 108.945723}, 'address': '南广济街79号(五味十字向北50米)', 'province': '陕西省', 'city': '西安市', 'area': '碑林区', 'street_id': 'e08c0e4963d9a9c3354aaee0', 'telephone': '(029)88444255', 'detail': 1, 'uid': 'e08c0e4963d9a9c3354aaee0', 'detail_info': {'tag': '美食;中餐厅', 'type': 'cater', 'detail_url': 'http://api.map.baidu.com/place/detail?uid=e08c0e4963d9a9c3354aaee0&output=html&source=placeapi_v2', 'price': '67.0', 'overall_rating': '4.6', 'comment_num': '174', 'di_review_keyword': [], 'children': []}}"
"{'name': '清真古城好一锅羊蝎子火锅', 'location': {'lat': 34.263034, 'lng': 108.945723}, 'address': '南广济街79号(五味十字向北50米)', 'province': '陕西省', 'city': '西安市', 'area': '碑林区', 'street_id': 'e08c0e4963d9a9c3354aaee0', 'telephone': '(029)88444255', 'detail': 1, 'uid': 'e08c0e4963d9a9c3354aaee0', 'detail_info': {'tag': '美食;中餐厅', 'type': 'cater', 'detail_url': 'http://api.map.baidu.com/place/detail?uid=e08c0e4963d9a9c3354aaee0&output=html&source=placeapi_v2', 'price': '67.0', 'overall_rating': '4.6', 'comment_num': '174', 'di_review_keyword': [], 'children': []}}"
德泰楼,108.93271361860963,34.27169660271572,435d7aea315462485abbbcf9,"{'name': '德泰楼', 'location': {'lat': 34.276224, 'lng': 108.943809}, 'address': '陕西省西安市莲湖区莲湖路中段107号(近红湖街站)教育宾馆2楼', 'province': '陕西省', 'city': '西安市', 'area': '莲湖区', 'street_id': '435d7aea315462485abbbcf9', 'telephone': '(029)63372221', 'detail': 1, 'uid': '435d7aea315462485abbbcf9', 'detail_info': {'tag': '美食;中餐厅', 'navi_location': {'lng': 108.94378004116, 'lat': 34.276042390848}, 'type': 'cater', 'detail_url': 'http://api.map.baidu.com/place/detail?uid=435d7aea315462485abbbcf9&output=html&source=placeapi_v2', 'price': '55.0', 'overall_rating': '3.6', 'comment_num': '200', 'di_review_keyword': [], 'children': []}}"
"{'name': '德泰楼', 'location': {'lat': 34.276224, 'lng': 108.943809}, 'address': '陕西省西安市莲湖区莲湖路中段107号(近红湖街站)教育宾馆2楼', 'province': '陕西省', 'city': '西安市', 'area': '莲湖区', 'street_id': '435d7aea315462485abbbcf9', 'telephone': '(029)63372221', 'detail': 1, 'uid': '435d7aea315462485abbbcf9', 'detail_info': {'tag': '美食;中餐厅', 'navi_location': {'lng': 108.94378004116, 'lat': 34.276042390848}, 'type': 'cater', 'detail_url': 'http://api.map.baidu.com/place/detail?uid=435d7aea315462485abbbcf9&output=html&source=placeapi_v2', 'price': '55.0', 'overall_rating': '3.6', 'comment_num': '200', 'di_review_keyword': [], 'children': []}}"
塞拉维(高新店),108.90350101937523,34.2379616189322,fa835ce20a7fcdafe912e4fa,"{'name': '塞拉维(高新店)', 'location': {'lat': 34.242038, 'lng': 108.914702}, 'address': '陕西省西安市高新区高新路25号糜家桥小区北侧', 'province': '陕西省', 'city': '西安市', 'area': '雁塔区', 'street_id': 'fa835ce20a7fcdafe912e4fa', 'telephone': '(029)88789718', 'detail': 1, 'uid': 'fa835ce20a7fcdafe912e4fa', 'detail_info': {'tag': '美食;中餐厅', 'type': 'cater', 'detail_url': 'http://api.map.baidu.com/place/detail?uid=fa835ce20a7fcdafe912e4fa&output=html&source=placeapi_v2', 'price': '27.0', 'overall_rating': '4.2', 'groupon_num': '1', 'comment_num': '200', 'di_review_keyword': [], 'children': []}}"
"{'name': '塞拉维(高新店)', 'location': {'lat': 34.242038, 'lng': 108.914702}, 'address': '陕西省西安市高新区高新路25号糜家桥小区北侧', 'province': '陕西省', 'city': '西安市', 'area': '雁塔区', 'street_id': 'fa835ce20a7fcdafe912e4fa', 'telephone': '(029)88789718', 'detail': 1, 'uid': 'fa835ce20a7fcdafe912e4fa', 'detail_info': {'tag': '美食;中餐厅', 'type': 'cater', 'detail_url': 'http://api.map.baidu.com/place/detail?uid=fa835ce20a7fcdafe912e4fa&output=html&source=placeapi_v2', 'price': '27.0', 'overall_rating': '4.2', 'groupon_num': '1', 'comment_num': '200', 'di_review_keyword': [], 'children': []}}"
春来和(汉城南路店),108.86710600621075,34.27003799808474,fd007c5e64071f75a9f729ec,"{'name': '春来和(汉城南路店)', 'location': {'lat': 34.274404, 'lng': 108.878198}, 'address': '汉城南路304号（汉城路与大庆路交叉口南行50米路西近611路起点）', 'province': '陕西省', 'city': '西安市', 'area': '莲湖区', 'street_id': 'fd007c5e64071f75a9f729ec', 'telephone': '(029)84618488', 'detail': 1, 'uid': 'fd007c5e64071f75a9f729ec', 'detail_info': {'tag': '美食;中餐厅', 'navi_location': {'lng': 108.87848352966, 'lat': 34.274354658147}, 'type': 'cater', 'detail_url': 'http://api.map.baidu.com/place/detail?uid=fd007c5e64071f75a9f729ec&output=html&source=placeapi_v2', 'price': '44.0', 'overall_rating': '4.4', 'comment_num': '199', 'di_review_keyword': [], 'children': []}}"
"{'name': '春来和(汉城南路店)', 'location': {'lat': 34.274404, 'lng': 108.878198}, 'address': '汉城南路304号（汉城路与大庆路交叉口南行50米路西近611路起点）', 'province': '陕西省', 'city': '西安市', 'area': '莲湖区', 'street_id': 'fd007c5e64071f75a9f729ec', 'telephone': '(029)84618488', 'detail': 1, 'uid': 'fd007c5e64071f75a9f729ec', 'detail_info': {'tag': '美食;中餐厅', 'navi_location': {'lng': 108.87848352966, 'lat': 34.274354658147}, 'type': 'cater', 'detail_url': 'http://api.map.baidu.com/place/detail?uid=fd007c5e64071f75a9f729ec&output=html&source=placeapi_v2', 'price': '44.0', 'overall_rating': '4.4', 'comment_num': '199', 'di_review_keyword': [], 'children': []}}"
麻辣小三,108.93383744151026,34.25361273233912,2594fa255986cbe113293537,"{'name': '麻辣小三', 'location': {'lat': 34.258158, 'lng': 108.944946}, 'address': '碑林区朱雀门里上岛咖啡旁边西顺城巷内20米第一户三楼(近朱雀门)', 'province': '陕西省', 'city': '西安市', 'area': '碑林区', 'street_id': '2594fa255986cbe113293537', 'telephone': '(029)81545460,13709223720', 'detail': 1, 'uid': '2594fa255986cbe113293537', 'detail_info': {'tag': '美食;中餐厅', 'navi_location': {'lng': 108.9449446161, 'lat': 34.258141876007}, 'type': 'cater', 'detail_url': 'http://api.map.baidu.com/place/detail?uid=2594fa255986cbe113293537&output=html&source=placeapi_v2', 'price': '85.0', 'overall_rating': '4.3', 'comment_num': '200', 'di_review_keyword': [], 'children': []}}"
"{'name': '麻辣小三', 'location': {'lat': 34.258158, 'lng': 108.944946}, 'address': '碑林区朱雀门里上岛咖啡旁边西顺城巷内20米第一户三楼(近朱雀门)', 'province': '陕西省', 'city': '西安市', 'area': '碑林区', 'street_id': '2594fa255986cbe113293537', 'telephone': '(029)81545460,13709223720', 'detail': 1, 'uid': '2594fa255986cbe113293537', 'detail_info': {'tag': '美食;中餐厅', 'navi_location': {'lng': 108.9449446161, 'lat': 34.258141876007}, 'type': 'cater', 'detail_url': 'http://api.map.baidu.com/place/detail?uid=2594fa255986cbe113293537&output=html&source=placeapi_v2', 'price': '85.0', 'overall_rating': '4.3', 'comment_num': '200', 'di_review_keyword': [], 'children': []}}"
苏浙会馆(大庆路店),108.88597209222017,34.27046068722587,aa40108b660b2e0cc5effbdb,"{'name': '苏浙会馆(大庆路店)', 'location': {'lat': 34.274552, 'lng': 108.897138}, 'address': '大庆路136号西二环立交西南角(大土门村56号)', 'province': '陕西省', 'city': '西安市', 'area': '莲湖区', 'street_id': 'aa40108b660b2e0cc5effbdb', 'telephone': '(029)84201111,(029)84202222', 'detail': 1, 'uid': 'aa40108b660b2e0cc5effbdb', 'detail_info': {'tag': '美食;中餐厅', 'navi_location': {'lng': 108.89712030846, 'lat': 34.274825709004}, 'type': 'cater', 'detail_url': 'http://api.map.baidu.com/place/detail?uid=aa40108b660b2e0cc5effbdb&output=html&source=placeapi_v2', 'price': '101.0', 'overall_rating': '4.3', 'comment_num': '200', 'di_review_keyword': [], 'children': []}}"
"{'name': '苏浙会馆(大庆路店)', 'location': {'lat': 34.274552, 'lng': 108.897138}, 'address': '大庆路136号西二环立交西南角(大土门村56号)', 'province': '陕西省', 'city': '西安市', 'area': '莲湖区', 'street_id': 'aa40108b660b2e0cc5effbdb', 'telephone': '(029)84201111,(029)84202222', 'detail': 1, 'uid': 'aa40108b660b2e0cc5effbdb', 'detail_info': {'tag': '美食;中餐厅', 'navi_location': {'lng': 108.89712030846, 'lat': 34.274825709004}, 'type': 'cater', 'detail_url': 'http://api.map.baidu.com/place/detail?uid=aa40108b660b2e0cc5effbdb&output=html&source=placeapi_v2', 'price': '101.0', 'overall_rating': '4.3', 'comment_num': '200', 'di_review_keyword': [], 'children': []}}"
北京老铺(高新店),108.87753020650625,34.24055545521976,680fb7036b2d02858ab988b6,"{'name': '北京老铺(高新店)', 'location': {'lat': 34.244742, 'lng': 108.888691}, 'address': '陕西省西安市雁塔区团结南路239号(紫薇臻品东门对面)', 'province': '陕西省', 'city': '西安市', 'area': '雁塔区', 'street_id': '680fb7036b2d02858ab988b6', 'telephone': '(029)68810888', 'detail': 1, 'uid': '680fb7036b2d02858ab988b6', 'detail_info': {'tag': '美食;中餐厅', 'navi_location': {'lng': 108.88850709921, 'lat': 34.244748360608}, 'type': 'cater', 'detail_url': 'http://api.map.baidu.com/place/detail?uid=680fb7036b2d02858ab988b6&output=html&source=placeapi_v2', 'price': '77.0', 'overall_rating': '4.4', 'comment_num': '200', 'di_review_keyword': [], 'children': []}}"
"{'name': '北京老铺(高新店)', 'location': {'lat': 34.244742, 'lng': 108.888691}, 'address': '陕西省西安市雁塔区团结南路239号(紫薇臻品东门对面)', 'province': '陕西省', 'city': '西安市', 'area': '雁塔区', 'street_id': '680fb7036b2d02858ab988b6', 'telephone': '(029)68810888', 'detail': 1, 'uid': '680fb7036b2d02858ab988b6', 'detail_info': {'tag': '美食;中餐厅', 'navi_location': {'lng': 108.88850709921, 'lat': 34.244748360608}, 'type': 'cater', 'detail_url': 'http://api.map.baidu.com/place/detail?uid=680fb7036b2d02858ab988b6&output=html&source=placeapi_v2', 'price': '77.0', 'overall_rating': '4.4', 'comment_num': '200', 'di_review_keyword': [], 'children': []}}"
纳家楼(习武园店),108.92622034635967,34.27491526164078,17b4802f7c1c5ae9081cc79c,"{'name': '纳家楼(习武园店)', 'location': {'lat': 34.279326, 'lng': 108.937332}, 'address': '西安市莲湖区习武园8', 'province': '陕西省', 'city': '西安市', 'area': '莲湖区', 'street_id': '17b4802f7c1c5ae9081cc79c', 'telephone': '(029)87332365', 'detail': 1, 'uid': '17b4802f7c1c5ae9081cc79c', 'detail_info': {'tag': '美食;中餐厅', 'type': 'cater', 'detail_url': 'http://api.map.baidu.com/place/detail?uid=17b4802f7c1c5ae9081cc79c&output=html&source=placeapi_v2', 'price': '48.0', 'overall_rating': '4.6', 'groupon_num': '1', 'comment_num': '170', 'di_review_keyword': [], 'children': []}}"
"{'name': '纳家楼(习武园店)', 'location': {'lat': 34.279326, 'lng': 108.937332}, 'address': '西安市莲湖区习武园8', 'province': '陕西省', 'city': '西安市', 'area': '莲湖区', 'street_id': '17b4802f7c1c5ae9081cc79c', 'telephone': '(029)87332365', 'detail': 1, 'uid': '17b4802f7c1c5ae9081cc79c', 'detail_info': {'tag': '美食;中餐厅', 'type': 'cater', 'detail_url': 'http://api.map.baidu.com/place/detail?uid=17b4802f7c1c5ae9081cc79c&output=html&source=placeapi_v2', 'price': '48.0', 'overall_rating': '4.6', 'groupon_num': '1', 'comment_num': '170', 'di_review_keyword': [], 'children': []}}"
春来和(团结南路店),108.87633491101529,34.26116662846788,923ffd00515273aed82f28ec,"{'name': '春来和(团结南路店)', 'location': {'lat': 34.265374, 'lng': 108.887476}, 'address': '丰镐西路55号(团结南路与丰镐西路交叉口西北角)', 'province': '陕西省', 'city': '西安市', 'area': '莲湖区', 'street_id': '923ffd00515273aed82f28ec', 'telephone': '(029)84296083', 'detail': 1, 'uid': '923ffd00515273aed82f28ec', 'detail_info': {'tag': '美食;中餐厅', 'navi_location': {'lng': 108.88758135496, 'lat': 34.265269128849}, 'type': 'cater', 'detail_url': 'http://api.map.baidu.com/place/detail?uid=923ffd00515273aed82f28ec&output=html&source=placeapi_v2', 'price': '45.0', 'overall_rating': '4.0', 'comment_num': '175', 'di_review_keyword': [], 'children': []}}"
"{'name': '春来和(团结南路店)', 'location': {'lat': 34.265374, 'lng': 108.887476}, 'address': '丰镐西路55号(团结南路与丰镐西路交叉口西北角)', 'province': '陕西省', 'city': '西安市', 'area': '莲湖区', 'street_id': '923ffd00515273aed82f28ec', 'telephone': '(029)84296083', 'detail': 1, 'uid': '923ffd00515273aed82f28ec', 'detail_info': {'tag': '美食;中餐厅', 'navi_location': {'lng': 108.88758135496, 'lat': 34.265269128849}, 'type': 'cater', 'detail_url': 'http://api.map.baidu.com/place/detail?uid=923ffd00515273aed82f28ec&output=html&source=placeapi_v2', 'price': '45.0', 'overall_rating': '4.0', 'comment_num': '175', 'di_review_keyword': [], 'children': []}}"
小白鲨(西安高新店),108.88613095149955,34.2486133702703,13961893e9bade9aa5c756ab,"{'name': '小白鲨(西安高新店)', 'location': {'lat': 34.252701, 'lng': 108.897316}, 'address': '高新区唐延路北1号莱安逸境北3楼', 'province': '陕西省', 'city': '西安市', 'area': '雁塔区', 'street_id': '13961893e9bade9aa5c756ab', 'telephone': '(029)88444777', 'detail': 1, 'uid': '13961893e9bade9aa5c756ab', 'detail_info': {'tag': '美食;中餐厅', 'navi_location': {'lng': 108.89713227838, 'lat': 34.252839449198}, 'type': 'cater', 'detail_url': 'http://api.map.baidu.com/place/detail?uid=13961893e9bade9aa5c756ab&output=html&source=placeapi_v2', 'price': '50.0', 'overall_rating': '4.3', 'comment_num': '104', 'di_review_keyword': [], 'children': []}}"
"{'name': '小白鲨(西安高新店)', 'location': {'lat': 34.252701, 'lng': 108.897316}, 'address': '高新区唐延路北1号莱安逸境北3楼', 'province': '陕西省', 'city': '西安市', 'area': '雁塔区', 'street_id': '13961893e9bade9aa5c756ab', 'telephone': '(029)88444777', 'detail': 1, 'uid': '13961893e9bade9aa5c756ab', 'detail_info': {'tag': '美食;中餐厅', 'navi_location': {'lng': 108.89713227838, 'lat': 34.252839449198}, 'type': 'cater', 'detail_url': 'http://api.map.baidu.com/place/detail?uid=13961893e9bade9aa5c756ab&output=html&source=placeapi_v2', 'price': '50.0', 'overall_rating': '4.3', 'comment_num': '104', 'di_review_keyword': [], 'children': []}}"
马洪小炒泡馍馆,108.93688569762243,34.26839735354673,4ce10ce67fa889b8441a3277,"{'name': '马洪小炒泡馍馆', 'location': {'lat': 34.272994, 'lng': 108.947975}, 'address': '西安莲湖区红埠街46号(近莲湖区区委)', 'province': '陕西省', 'city': '西安市', 'area': '莲湖区', 'street_id': '4ce10ce67fa889b8441a3277', 'telephone': '13359185583', 'detail': 1, 'uid': '4ce10ce67fa889b8441a3277', 'detail_info': {'tag': '美食;中餐厅', 'navi_location': {'lng': 108.94797479731, 'lat': 34.2731415707}, 'type': 'cater', 'detail_url': 'http://api.map.baidu.com/place/detail?uid=4ce10ce67fa889b8441a3277&output=html&source=placeapi_v2', 'price': '27.0', 'overall_rating': '4.5', 'comment_num': '200', 'di_review_keyword': [], 'children': []}}"
"{'name': '马洪小炒泡馍馆', 'location': {'lat': 34.272994, 'lng': 108.947975}, 'address': '西安莲湖区红埠街46号(近莲湖区区委)', 'province': '陕西省', 'city': '西安市', 'area': '莲湖区', 'street_id': '4ce10ce67fa889b8441a3277', 'telephone': '13359185583', 'detail': 1, 'uid': '4ce10ce67fa889b8441a3277', 'detail_info': {'tag': '美食;中餐厅', 'navi_location': {'lng': 108.94797479731, 'lat': 34.2731415707}, 'type': 'cater', 'detail_url': 'http://api.map.baidu.com/place/detail?uid=4ce10ce67fa889b8441a3277&output=html&source=placeapi_v2', 'price': '27.0', 'overall_rating': '4.5', 'comment_num': '200', 'di_review_keyword': [], 'children': []}}"
徐记海鲜(明德门店),108.93513495426842,34.20808299509372,a80278bf49f2685478f796cf,"{'name': '徐记海鲜(明德门店)', 'location': {'lat': 34.212633, 'lng': 108.946236}, 'address': '雁塔区朱雀大街19号南方星座D座(杨家村西口，北侧)', 'province': '陕西省', 'city': '西安市', 'area': '雁塔区', 'street_id': 'a80278bf49f2685478f796cf', 'telephone': '(029)85225599', 'detail': 1, 'uid': 'a80278bf49f2685478f796cf', 'detail_info': {'tag': '美食;中餐厅', 'navi_location': {'lng': 108.94571836347, 'lat': 34.212466303942}, 'type': 'cater', 'detail_url': 'http://api.map.baidu.com/place/detail?uid=a80278bf49f2685478f796cf&output=html&source=placeapi_v2', 'price': '238.0', 'overall_rating': '4.3', 'comment_num': '142', 'di_review_keyword': [], 'children': []}}"
"{'name': '徐记海鲜(明德门店)', 'location': {'lat': 34.212633, 'lng': 108.946236}, 'address': '雁塔区朱雀大街19号南方星座D座(杨家村西口，北侧)', 'province': '陕西省', 'city': '西安市', 'area': '雁塔区', 'street_id': 'a80278bf49f2685478f796cf', 'telephone': '(029)85225599', 'detail': 1, 'uid': 'a80278bf49f2685478f796cf', 'detail_info': {'tag': '美食;中餐厅', 'navi_location': {'lng': 108.94571836347, 'lat': 34.212466303942}, 'type': 'cater', 'detail_url': 'http://api.map.baidu.com/place/detail?uid=a80278bf49f2685478f796cf&output=html&source=placeapi_v2', 'price': '238.0', 'overall_rating': '4.3', 'comment_num': '142', 'di_review_keyword': [], 'children': []}}"
纸包鱼,108.91143951640258,34.209810464261984,fb22e98cbb858b60fbf0cb41,"{'name': '纸包鱼', 'location': {'lat': 34.213957, 'lng': 108.922612}, 'address': '电子三路中段106号（西京社区东区对面）', 'province': '陕西省', 'city': '西安市', 'area': '雁塔区', 'street_id': 'fb22e98cbb858b60fbf0cb41', 'telephone': '18066611103', 'detail': 1, 'uid': 'fb22e98cbb858b60fbf0cb41', 'detail_info': {'tag': '美食;中餐厅', 'type': 'cater', 'detail_url': 'http://api.map.baidu.com/place/detail?uid=fb22e98cbb858b60fbf0cb41&output=html&source=placeapi_v2', 'price': '42.0', 'overall_rating': '4.2', 'comment_num': '200', 'di_review_keyword': [], 'children': []}}"
"{'name': '纸包鱼', 'location': {'lat': 34.213957, 'lng': 108.922612}, 'address': '电子三路中段106号（西京社区东区对面）', 'province': '陕西省', 'city': '西安市', 'area': '雁塔区', 'street_id': 'fb22e98cbb858b60fbf0cb41', 'telephone': '18066611103', 'detail': 1, 'uid': 'fb22e98cbb858b60fbf0cb41', 'detail_info': {'tag': '美食;中餐厅', 'type': 'cater', 'detail_url': 'http://api.map.baidu.com/place/detail?uid=fb22e98cbb858b60fbf0cb41&output=html&source=placeapi_v2', 'price': '42.0', 'overall_rating': '4.2', 'comment_num': '200', 'di_review_keyword': [], 'children': []}}"
麻辣空间(西稍门店),108.90466340658338,34.26044716129937,0d32c15976e46aa04e6d46fd,"{'name': '麻辣空间(西稍门店)', 'location': {'lat': 34.264536, 'lng': 108.915848}, 'address': '西稍门十字西南角柠檬宫舍2层(开元商城西旺店)', 'province': '陕西省', 'city': '西安市', 'area': '莲湖区', 'street_id': '0d32c15976e46aa04e6d46fd', 'telephone': '(029)88777680', 'detail': 1, 'uid': '0d32c15976e46aa04e6d46fd', 'detail_info': {'tag': '美食;中餐厅', 'navi_location': {'lng': 108.91624628379, 'lat': 34.264679904597}, 'type': 'cater', 'detail_url': 'http://api.map.baidu.com/place/detail?uid=0d32c15976e46aa04e6d46fd&output=html&source=placeapi_v2', 'price': '104.0', 'overall_rating': '4.6', 'comment_num': '200', 'di_review_keyword': [], 'children': []}}"
"{'name': '麻辣空间(西稍门店)', 'location': {'lat': 34.264536, 'lng': 108.915848}, 'address': '西稍门十字西南角柠檬宫舍2层(开元商城西旺店)', 'province': '陕西省', 'city': '西安市', 'area': '莲湖区', 'street_id': '0d32c15976e46aa04e6d46fd', 'telephone': '(029)88777680', 'detail': 1, 'uid': '0d32c15976e46aa04e6d46fd', 'detail_info': {'tag': '美食;中餐厅', 'navi_location': {'lng': 108.91624628379, 'lat': 34.264679904597}, 'type': 'cater', 'detail_url': 'http://api.map.baidu.com/place/detail?uid=0d32c15976e46aa04e6d46fd&output=html&source=placeapi_v2', 'price': '104.0', 'overall_rating': '4.6', 'comment_num': '200', 'di_review_keyword': [], 'children': []}}"
豪客来(凯德广场店),108.93132569002366,34.230793394171705,a817bcb8ee1a5548081cc775,"{'name': '豪客来(凯德广场店)', 'location': {'lat': 34.23529, 'lng': 108.94245}, 'address': '西安市雁塔区二环南路西段64号凯德广场新地城F3', 'province': '陕西省', 'city': '西安市', 'area': '雁塔区', 'street_id': 'a817bcb8ee1a5548081cc775', 'telephone': '(029)88665141', 'detail': 1, 'uid': 'a817bcb8ee1a5548081cc775', 'detail_info': {'tag': '美食;外国餐厅', 'navi_location': {'lng': 108.94284448112, 'lat': 34.235823853554}, 'indoor_floor': 'F3', 'type': 'cater', 'detail_url': 'http://api.map.baidu.com/place/detail?uid=a817bcb8ee1a5548081cc775&output=html&source=placeapi_v2', 'price': '64.0', 'overall_rating': '4.5', 'comment_num': '200', 'di_review_keyword': [], 'children': []}}"
"{'name': '豪客来(凯德广场店)', 'location': {'lat': 34.23529, 'lng': 108.94245}, 'address': '西安市雁塔区二环南路西段64号凯德广场新地城F3', 'province': '陕西省', 'city': '西安市', 'area': '雁塔区', 'street_id': 'a817bcb8ee1a5548081cc775', 'telephone': '(029)88665141', 'detail': 1, 'uid': 'a817bcb8ee1a5548081cc775', 'detail_info': {'tag': '美食;外国餐厅', 'navi_location': {'lng': 108.94284448112, 'lat': 34.235823853554}, 'indoor_floor': 'F3', 'type': 'cater', 'detail_url': 'http://api.map.baidu.com/place/detail?uid=a817bcb8ee1a5548081cc775&output=html&source=placeapi_v2', 'price': '64.0', 'overall_rating': '4.5', 'comment_num': '200', 'di_review_keyword': [], 'children': []}}"
小六汤包(中贸店),108.94006859877062,34.243023083787946,4a991b71ace3fe9cacee7a9f,"{'name': '小六汤包(中贸店)', 'location': {'lat': 34.247665, 'lng': 108.951174}, 'address': '中贸广场6号楼1层', 'province': '陕西省', 'city': '西安市', 'area': '碑林区', 'street_id': '4a991b71ace3fe9cacee7a9f', 'telephone': '(029)63350064', 'detail': 1, 'uid': '4a991b71ace3fe9cacee7a9f', 'detail_info': {'tag': '美食;小吃快餐店', 'navi_location': {'lng': 108.95127121562, 'lat': 34.247583128976}, 'type': 'cater', 'detail_url': 'http://api.map.baidu.com/place/detail?uid=4a991b71ace3fe9cacee7a9f&output=html&source=placeapi_v2', 'price': '41.0', 'overall_rating': '4.5', 'comment_num': '200', 'di_review_keyword': [], 'children': []}}"
"{'name': '小六汤包(中贸店)', 'location': {'lat': 34.247665, 'lng': 108.951174}, 'address': '中贸广场6号楼1层', 'province': '陕西省', 'city': '西安市', 'area': '碑林区', 'street_id': '4a991b71ace3fe9cacee7a9f', 'telephone': '(029)63350064', 'detail': 1, 'uid': '4a991b71ace3fe9cacee7a9f', 'detail_info': {'tag': '美食;小吃快餐店', 'navi_location': {'lng': 108.95127121562, 'lat': 34.247583128976}, 'type': 'cater', 'detail_url': 'http://api.map.baidu.com/place/detail?uid=4a991b71ace3fe9cacee7a9f&output=html&source=placeapi_v2', 'price': '41.0', 'overall_rating': '4.5', 'comment_num': '200', 'di_review_keyword': [], 'children': []}}"
北京亚辰涮烤(电子正街店),108.91468164913482,34.208718608428704,cc9a7914d0a7387bd12dd65b,"{'name': '北京亚辰涮烤(电子正街店)', 'location': {'lat': 34.212911, 'lng': 108.925844}, 'address': '电子正街北山门凯悦华庭4号商铺二层', 'province': '陕西省', 'city': '西安市', 'area': '雁塔区', 'street_id': 'cc9a7914d0a7387bd12dd65b', 'telephone': '(029)88863639', 'detail': 1, 'uid': 'cc9a7914d0a7387bd12dd65b', 'detail_info': {'tag': '美食;中餐厅', 'type': 'cater', 'detail_url': 'http://api.map.baidu.com/place/detail?uid=cc9a7914d0a7387bd12dd65b&output=html&source=placeapi_v2', 'price': '39.0', 'overall_rating': '4.3', 'comment_num': '200', 'di_review_keyword': [], 'children': []}}"
"{'name': '北京亚辰涮烤(电子正街店)', 'location': {'lat': 34.212911, 'lng': 108.925844}, 'address': '电子正街北山门凯悦华庭4号商铺二层', 'province': '陕西省', 'city': '西安市', 'area': '雁塔区', 'street_id': 'cc9a7914d0a7387bd12dd65b', 'telephone': '(029)88863639', 'detail': 1, 'uid': 'cc9a7914d0a7387bd12dd65b', 'detail_info': {'tag': '美食;中餐厅', 'type': 'cater', 'detail_url': 'http://api.map.baidu.com/place/detail?uid=cc9a7914d0a7387bd12dd65b&output=html&source=placeapi_v2', 'price': '39.0', 'overall_rating': '4.3', 'comment_num': '200', 'di_review_keyword': [], 'children': []}}"
大自在火锅(丰登路店),108.88987721093754,34.249088687140706,5e9eedf9f0e4bb433a13fd93,"{'name': '大自在火锅(丰登路店)', 'location': {'lat': 34.253151, 'lng': 108.90107}, 'address': '西安市莲湖区丰登南路2号伟基大厦1层', 'province': '陕西省', 'city': '西安市', 'area': '莲湖区', 'street_id': '5e9eedf9f0e4bb433a13fd93', 'telephone': '(029)84222888', 'detail': 1, 'uid': '5e9eedf9f0e4bb433a13fd93', 'detail_info': {'tag': '美食;中餐厅', 'navi_location': {'lng': 108.901300442, 'lat': 34.253150555909}, 'type': 'cater', 'detail_url': 'http://api.map.baidu.com/place/detail?uid=5e9eedf9f0e4bb433a13fd93&output=html&source=placeapi_v2', 'price': '93.0', 'overall_rating': '4.1', 'comment_num': '200', 'di_review_keyword': [], 'children': []}}"
"{'name': '大自在火锅(丰登路店)', 'location': {'lat': 34.253151, 'lng': 108.90107}, 'address': '西安市莲湖区丰登南路2号伟基大厦1层', 'province': '陕西省', 'city': '西安市', 'area': '莲湖区', 'street_id': '5e9eedf9f0e4bb433a13fd93', 'telephone': '(029)84222888', 'detail': 1, 'uid': '5e9eedf9f0e4bb433a13fd93', 'detail_info': {'tag': '美食;中餐厅', 'navi_location': {'lng': 108.901300442, 'lat': 34.253150555909}, 'type': 'cater', 'detail_url': 'http://api.map.baidu.com/place/detail?uid=5e9eedf9f0e4bb433a13fd93&output=html&source=placeapi_v2', 'price': '93.0', 'overall_rating': '4.1', 'comment_num': '200', 'di_review_keyword': [], 'children': []}}"
必胜客(高新餐厅),108.89929497700946,34.23362028038037,befdb29277b478f886154199,"{'name': '必胜客(高新餐厅)', 'location': {'lat': 34.237672, 'lng': 108.9105}, 'address': '西安市雁塔区科技路33号世纪金花F1', 'province': '陕西省', 'city': '西安市', 'area': '雁塔区', 'street_id': 'befdb29277b478f886154199', 'telephone': '(029)62961181', 'detail': 1, 'uid': 'befdb29277b478f886154199', 'detail_info': {'tag': '美食;小吃快餐店', 'navi_location': {'lng': 108.91021889276, 'lat': 34.237239084437}, 'indoor_floor': 'F1', 'type': 'cater', 'detail_url': 'http://api.map.baidu.com/place/detail?uid=befdb29277b478f886154199&output=html&source=placeapi_v2', 'price': '66.0', 'overall_rating': '4.7', 'comment_num': '200', 'di_review_keyword': [], 'children': []}}"
"{'name': '必胜客(高新餐厅)', 'location': {'lat': 34.237672, 'lng': 108.9105}, 'address': '西安市雁塔区科技路33号世纪金花F1', 'province': '陕西省', 'city': '西安市', 'area': '雁塔区', 'street_id': 'befdb29277b478f886154199', 'telephone': '(029)62961181', 'detail': 1, 'uid': 'befdb29277b478f886154199', 'detail_info': {'tag': '美食;小吃快餐店', 'navi_location': {'lng': 108.91021889276, 'lat': 34.237239084437}, 'indoor_floor': 'F1', 'type': 'cater', 'detail_url': 'http://api.map.baidu.com/place/detail?uid=befdb29277b478f886154199&output=html&source=placeapi_v2', 'price': '66.0', 'overall_rating': '4.7', 'comment_num': '200', 'di_review_keyword': [], 'children': []}}"
顶顶香(桃园南路店),108.89675279792078,34.24946593568287,56f2f696bd5171990aa8d465,"{'name': '顶顶香(桃园南路店)', 'location': {'lat': 34.253515, 'lng': 108.907952}, 'address': '陕西省西安市莲湖区桃园南路19号西港国际花园(近丰庆公园)', 'province': '陕西省', 'city': '西安市', 'area': '莲湖区', 'street_id': '56f2f696bd5171990aa8d465', 'telephone': '(029)88890329', 'detail': 1, 'uid': '56f2f696bd5171990aa8d465', 'detail_info': {'tag': '美食;中餐厅', 'navi_location': {'lng': 108.90779992041, 'lat': 34.25347753556}, 'type': 'cater', 'detail_url': 'http://api.map.baidu.com/place/detail?uid=56f2f696bd5171990aa8d465&output=html&source=placeapi_v2', 'price': '44.0', 'overall_rating': '4.3', 'comment_num': '146', 'di_review_keyword': [], 'children': []}}"
"{'name': '顶顶香(桃园南路店)', 'location': {'lat': 34.253515, 'lng': 108.907952}, 'address': '陕西省西安市莲湖区桃园南路19号西港国际花园(近丰庆公园)', 'province': '陕西省', 'city': '西安市', 'area': '莲湖区', 'street_id': '56f2f696bd5171990aa8d465', 'telephone': '(029)88890329', 'detail': 1, 'uid': '56f2f696bd5171990aa8d465', 'detail_info': {'tag': '美食;中餐厅', 'navi_location': {'lng': 108.90779992041, 'lat': 34.25347753556}, 'type': 'cater', 'detail_url': 'http://api.map.baidu.com/place/detail?uid=56f2f696bd5171990aa8d465&output=html&source=placeapi_v2', 'price': '44.0', 'overall_rating': '4.3', 'comment_num': '146', 'di_review_keyword': [], 'children': []}}"
聚兴楼泡馍馆(朱雀大街店),108.93521386185263,34.21359018039065,29e5ad407ff15d68213bf234,"{'name': '聚兴楼泡馍馆(朱雀大街店)', 'location': {'lat': 34.218145, 'lng': 108.94632}, 'address': '青松路41E', 'province': '陕西省', 'city': '西安市', 'area': '雁塔区', 'street_id': '29e5ad407ff15d68213bf234', 'telephone': '15829614123', 'detail': 1, 'uid': '29e5ad407ff15d68213bf234', 'detail_info': {'tag': '美食;中餐厅', 'type': 'cater', 'detail_url': 'http://api.map.baidu.com/place/detail?uid=29e5ad407ff15d68213bf234&output=html&source=placeapi_v2', 'price': '20.0', 'overall_rating': '4.6', 'comment_num': '146', 'di_review_keyword': [], 'children': []}}"
"{'name': '聚兴楼泡馍馆(朱雀大街店)', 'location': {'lat': 34.218145, 'lng': 108.94632}, 'address': '青松路41E', 'province': '陕西省', 'city': '西安市', 'area': '雁塔区', 'street_id': '29e5ad407ff15d68213bf234', 'telephone': '15829614123', 'detail': 1, 'uid': '29e5ad407ff15d68213bf234', 'detail_info': {'tag': '美食;中餐厅', 'type': 'cater', 'detail_url': 'http://api.map.baidu.com/place/detail?uid=29e5ad407ff15d68213bf234&output=html&source=placeapi_v2', 'price': '20.0', 'overall_rating': '4.6', 'comment_num': '146', 'di_review_keyword': [], 'children': []}}"
竹园村火锅(电子城店),108.91542585981803,34.20583500933746,3f9337d61caee6aaf72310d0,"{'name': '竹园村火锅(电子城店)', 'location': {'lat': 34.210037, 'lng': 108.926583}, 'address': '西安雁塔区电子正街229号', 'province': '陕西省', 'city': '西安市', 'area': '雁塔区', 'street_id': '3f9337d61caee6aaf72310d0', 'telephone': '(029)88233300,(029)88218532', 'detail': 1, 'uid': '3f9337d61caee6aaf72310d0', 'detail_info': {'tag': '美食;中餐厅', 'navi_location': {'lng': 108.92622302378, 'lat': 34.210042294015}, 'type': 'cater', 'detail_url': 'http://api.map.baidu.com/place/detail?uid=3f9337d61caee6aaf72310d0&output=html&source=placeapi_v2', 'price': '75.0', 'overall_rating': '4.5', 'comment_num': '200', 'di_review_keyword': [], 'children': []}}"
"{'name': '竹园村火锅(电子城店)', 'location': {'lat': 34.210037, 'lng': 108.926583}, 'address': '西安雁塔区电子正街229号', 'province': '陕西省', 'city': '西安市', 'area': '雁塔区', 'street_id': '3f9337d61caee6aaf72310d0', 'telephone': '(029)88233300,(029)88218532', 'detail': 1, 'uid': '3f9337d61caee6aaf72310d0', 'detail_info': {'tag': '美食;中餐厅', 'navi_location': {'lng': 108.92622302378, 'lat': 34.210042294015}, 'type': 'cater', 'detail_url': 'http://api.map.baidu.com/place/detail?uid=3f9337d61caee6aaf72310d0&output=html&source=placeapi_v2', 'price': '75.0', 'overall_rating': '4.5', 'comment_num': '200', 'di_review_keyword': [], 'children': []}}"
斗牛士牛排馆(高新店),108.89859278455842,34.23452331508493,c879fa019c525a53c909f057,"{'name': '斗牛士牛排馆(高新店)', 'location': {'lat': 34.238573, 'lng': 108.909798}, 'address': '西安市雁塔区科技路33号世纪金花F3', 'province': '陕西省', 'city': '西安市', 'area': '雁塔区', 'street_id': 'c879fa019c525a53c909f057', 'telephone': '(029)62962626', 'detail': 1, 'uid': 'c879fa019c525a53c909f057', 'detail_info': {'tag': '美食;外国餐厅', 'navi_location': {'lng': 108.90984404604, 'lat': 34.238916879973}, 'indoor_floor': 'F3', 'type': 'cater', 'detail_url': 'http://api.map.baidu.com/place/detail?uid=c879fa019c525a53c909f057&output=html&source=placeapi_v2', 'price': '107.0', 'overall_rating': '4.0', 'comment_num': '197', 'di_review_keyword': [], 'children': []}}"
"{'name': '斗牛士牛排馆(高新店)', 'location': {'lat': 34.238573, 'lng': 108.909798}, 'address': '西安市雁塔区科技路33号世纪金花F3', 'province': '陕西省', 'city': '西安市', 'area': '雁塔区', 'street_id': 'c879fa019c525a53c909f057', 'telephone': '(029)62962626', 'detail': 1, 'uid': 'c879fa019c525a53c909f057', 'detail_info': {'tag': '美食;外国餐厅', 'navi_location': {'lng': 108.90984404604, 'lat': 34.238916879973}, 'indoor_floor': 'F3', 'type': 'cater', 'detail_url': 'http://api.map.baidu.com/place/detail?uid=c879fa019c525a53c909f057&output=html&source=placeapi_v2', 'price': '107.0', 'overall_rating': '4.0', 'comment_num': '197', 'di_review_keyword': [], 'children': []}}"
俏江南(西安林凯店),108.89553811353325,34.234087284339,3f826ed3994f1c5fd1f49e47,"{'name': '俏江南(西安林凯店)', 'location': {'lat': 34.238132, 'lng': 108.906743}, 'address': '高新区科技路38号林凯国际大厦3-5楼', 'province': '陕西省', 'city': '西安市', 'area': '雁塔区', 'street_id': '3f826ed3994f1c5fd1f49e47', 'telephone': '(029)88855757', 'detail': 1, 'uid': '3f826ed3994f1c5fd1f49e47', 'detail_info': {'tag': '美食;中餐厅', 'navi_location': {'lng': 108.90658949955, 'lat': 34.237929212321}, 'type': 'cater', 'detail_url': 'http://api.map.baidu.com/place/detail?uid=3f826ed3994f1c5fd1f49e47&output=html&source=placeapi_v2', 'price': '142.5', 'overall_rating': '4.9', 'comment_num': '200', 'di_review_keyword': [], 'children': []}}"
"{'name': '俏江南(西安林凯店)', 'location': {'lat': 34.238132, 'lng': 108.906743}, 'address': '高新区科技路38号林凯国际大厦3-5楼', 'province': '陕西省', 'city': '西安市', 'area': '雁塔区', 'street_id': '3f826ed3994f1c5fd1f49e47', 'telephone': '(029)88855757', 'detail': 1, 'uid': '3f826ed3994f1c5fd1f49e47', 'detail_info': {'tag': '美食;中餐厅', 'navi_location': {'lng': 108.90658949955, 'lat': 34.237929212321}, 'type': 'cater', 'detail_url': 'http://api.map.baidu.com/place/detail?uid=3f826ed3994f1c5fd1f49e47&output=html&source=placeapi_v2', 'price': '142.5', 'overall_rating': '4.9', 'comment_num': '200', 'di_review_keyword': [], 'children': []}}"
小杨烤肉(西荷店),108.9233105413715,34.236907221893865,37d60a46de0447791f1d11ed,"{'name': '小杨烤肉(西荷店)', 'location': {'lat': 34.24126, 'lng': 108.934459}, 'address': '陕西省西安市碑林区劳卫路西荷美食商业街3-4-5号楼二层2004号商铺', 'province': '陕西省', 'city': '西安市', 'area': '碑林区', 'street_id': '37d60a46de0447791f1d11ed', 'telephone': '(029)68886035', 'detail': 1, 'uid': '37d60a46de0447791f1d11ed', 'detail_info': {'tag': '美食;其他', 'navi_location': {'lng': 108.93464439539, 'lat': 34.241521595394}, 'type': 'cater', 'detail_url': 'http://api.map.baidu.com/place/detail?uid=37d60a46de0447791f1d11ed&output=html&source=placeapi_v2', 'price': '51.0', 'overall_rating': '4.6', 'comment_num': '200', 'di_review_keyword': [], 'children': []}}"
"{'name': '小杨烤肉(西荷店)', 'location': {'lat': 34.24126, 'lng': 108.934459}, 'address': '陕西省西安市碑林区劳卫路西荷美食商业街3-4-5号楼二层2004号商铺', 'province': '陕西省', 'city': '西安市', 'area': '碑林区', 'street_id': '37d60a46de0447791f1d11ed', 'telephone': '(029)68886035', 'detail': 1, 'uid': '37d60a46de0447791f1d11ed', 'detail_info': {'tag': '美食;其他', 'navi_location': {'lng': 108.93464439539, 'lat': 34.241521595394}, 'type': 'cater', 'detail_url': 'http://api.map.baidu.com/place/detail?uid=37d60a46de0447791f1d11ed&output=html&source=placeapi_v2', 'price': '51.0', 'overall_rating': '4.6', 'comment_num': '200', 'di_review_keyword': [], 'children': []}}"
沸腾鱼庄,108.86868252382533,34.23457829939743,5b99bcbd57b35edc471a326e,"{'name': '沸腾鱼庄', 'location': {'lat': 34.23891, 'lng': 108.879806}, 'address': '高新区丈八北路和唐兴路交汇处城市风景都市印象16号楼601室', 'province': '陕西省', 'city': '西安市', 'area': '雁塔区', 'street_id': '5b99bcbd57b35edc471a326e', 'telephone': '(029)89587599', 'detail': 1, 'uid': '5b99bcbd57b35edc471a326e', 'detail_info': {'tag': '美食;中餐厅', 'navi_location': {'lng': 108.88004866441, 'lat': 34.238632267057}, 'type': 'cater', 'detail_url': 'http://api.map.baidu.com/place/detail?uid=5b99bcbd57b35edc471a326e&output=html&source=placeapi_v2', 'price': '68.0', 'overall_rating': '4.0', 'comment_num': '103', 'di_review_keyword': [], 'children': []}}"
"{'name': '沸腾鱼庄', 'location': {'lat': 34.23891, 'lng': 108.879806}, 'address': '高新区丈八北路和唐兴路交汇处城市风景都市印象16号楼601室', 'province': '陕西省', 'city': '西安市', 'area': '雁塔区', 'street_id': '5b99bcbd57b35edc471a326e', 'telephone': '(029)89587599', 'detail': 1, 'uid': '5b99bcbd57b35edc471a326e', 'detail_info': {'tag': '美食;中餐厅', 'navi_location': {'lng': 108.88004866441, 'lat': 34.238632267057}, 'type': 'cater', 'detail_url': 'http://api.map.baidu.com/place/detail?uid=5b99bcbd57b35edc471a326e&output=html&source=placeapi_v2', 'price': '68.0', 'overall_rating': '4.0', 'comment_num': '103', 'di_review_keyword': [], 'children': []}}"
克拉拉(阳光城店),108.8642010200613,34.17256558878939,d68d0392b6792f6f077ce8b0,"{'name': '克拉拉(阳光城店)', 'location': {'lat': 34.176947, 'lng': 108.875261}, 'address': '西部大道与博士路十字西南角阳光城一楼', 'province': '陕西省', 'city': '西安市', 'area': '长安区', 'street_id': 'd68d0392b6792f6f077ce8b0', 'telephone': '(029)81025600', 'detail': 1, 'uid': 'd68d0392b6792f6f077ce8b0', 'detail_info': {'tag': '美食;外国餐厅', 'type': 'cater', 'detail_url': 'http://api.map.baidu.com/place/detail?uid=d68d0392b6792f6f077ce8b0&output=html&source=placeapi_v2', 'price': '79.0', 'overall_rating': '4.4', 'groupon_num': '2', 'comment_num': '123', 'di_review_keyword': [], 'children': []}}"
"{'name': '克拉拉(阳光城店)', 'location': {'lat': 34.176947, 'lng': 108.875261}, 'address': '西部大道与博士路十字西南角阳光城一楼', 'province': '陕西省', 'city': '西安市', 'area': '长安区', 'street_id': 'd68d0392b6792f6f077ce8b0', 'telephone': '(029)81025600', 'detail': 1, 'uid': 'd68d0392b6792f6f077ce8b0', 'detail_info': {'tag': '美食;外国餐厅', 'type': 'cater', 'detail_url': 'http://api.map.baidu.com/place/detail?uid=d68d0392b6792f6f077ce8b0&output=html&source=placeapi_v2', 'price': '79.0', 'overall_rating': '4.4', 'groupon_num': '2', 'comment_num': '123', 'di_review_keyword': [], 'children': []}}"
吴铭火锅(科技路西口店),108.86912737607348,34.239249945171125,d4a9a038eef4f51fe8e582fb,"{'name': '吴铭火锅(科技路西口店)', 'location': {'lat': 34.243575, 'lng': 108.880252}, 'address': '陕西省西安市雁塔区华润万家科技路店3层', 'province': '陕西省', 'city': '西安市', 'area': '雁塔区', 'street_id': 'd4a9a038eef4f51fe8e582fb', 'telephone': '(029)82225225', 'detail': 1, 'uid': 'd4a9a038eef4f51fe8e582fb', 'detail_info': {'tag': '美食;中餐厅', 'navi_location': {'lng': 108.88064348998, 'lat': 34.243534917236}, 'type': 'cater', 'detail_url': 'http://api.map.baidu.com/place/detail?uid=d4a9a038eef4f51fe8e582fb&output=html&source=placeapi_v2', 'price': '60.0', 'overall_rating': '4.4', 'comment_num': '200', 'di_review_keyword': [], 'children': []}}"
"{'name': '吴铭火锅(科技路西口店)', 'location': {'lat': 34.243575, 'lng': 108.880252}, 'address': '陕西省西安市雁塔区华润万家科技路店3层', 'province': '陕西省', 'city': '西安市', 'area': '雁塔区', 'street_id': 'd4a9a038eef4f51fe8e582fb', 'telephone': '(029)82225225', 'detail': 1, 'uid': 'd4a9a038eef4f51fe8e582fb', 'detail_info': {'tag': '美食;中餐厅', 'navi_location': {'lng': 108.88064348998, 'lat': 34.243534917236}, 'type': 'cater', 'detail_url': 'http://api.map.baidu.com/place/detail?uid=d4a9a038eef4f51fe8e582fb&output=html&source=placeapi_v2', 'price': '60.0', 'overall_rating': '4.4', 'comment_num': '200', 'di_review_keyword': [], 'children': []}}"
众家灯火煎饼庄(科技路店),108.90597389796174,34.22856302008502,86955a858b52831ce31103ae,"{'name': '众家灯火煎饼庄(科技路店)', 'location': {'lat': 34.232657, 'lng': 108.917171}, 'address': '雁塔区科技路10号', 'province': '陕西省', 'city': '西安市', 'area': '雁塔区', 'street_id': '86955a858b52831ce31103ae', 'telephone': '(029)88240699', 'detail': 1, 'uid': '86955a858b52831ce31103ae', 'detail_info': {'tag': '美食;中餐厅', 'navi_location': {'lng': 108.91709742646, 'lat': 34.232770294303}, 'type': 'cater', 'detail_url': 'http://api.map.baidu.com/place/detail?uid=86955a858b52831ce31103ae&output=html&source=placeapi_v2', 'price': '37.0', 'overall_rating': '4.6', 'comment_num': '112', 'di_review_keyword': [], 'children': []}}"
"{'name': '众家灯火煎饼庄(科技路店)', 'location': {'lat': 34.232657, 'lng': 108.917171}, 'address': '雁塔区科技路10号', 'province': '陕西省', 'city': '西安市', 'area': '雁塔区', 'street_id': '86955a858b52831ce31103ae', 'telephone': '(029)88240699', 'detail': 1, 'uid': '86955a858b52831ce31103ae', 'detail_info': {'tag': '美食;中餐厅', 'navi_location': {'lng': 108.91709742646, 'lat': 34.232770294303}, 'type': 'cater', 'detail_url': 'http://api.map.baidu.com/place/detail?uid=86955a858b52831ce31103ae&output=html&source=placeapi_v2', 'price': '37.0', 'overall_rating': '4.6', 'comment_num': '112', 'di_review_keyword': [], 'children': []}}"
彤德莱火锅(立新店),108.93800328785831,34.271867550693756,637df60a4c671a6b40afe672,"{'name': '彤德莱火锅(立新店)', 'location': {'lat': 34.276482, 'lng': 108.949088}, 'address': '西安市莲湖区愉景华庭1022号', 'province': '陕西省', 'city': '西安市', 'area': '莲湖区', 'street_id': '637df60a4c671a6b40afe672', 'telephone': '18729084575', 'detail': 1, 'uid': '637df60a4c671a6b40afe672', 'detail_info': {'tag': '美食;中餐厅', 'navi_location': {'lng': 108.94920454073, 'lat': 34.276492022118}, 'type': 'cater', 'detail_url': 'http://api.map.baidu.com/place/detail?uid=637df60a4c671a6b40afe672&output=html&source=placeapi_v2', 'price': '51.0', 'overall_rating': '4.6', 'comment_num': '156', 'di_review_keyword': [], 'children': []}}"
"{'name': '彤德莱火锅(立新店)', 'location': {'lat': 34.276482, 'lng': 108.949088}, 'address': '西安市莲湖区愉景华庭1022号', 'province': '陕西省', 'city': '西安市', 'area': '莲湖区', 'street_id': '637df60a4c671a6b40afe672', 'telephone': '18729084575', 'detail': 1, 'uid': '637df60a4c671a6b40afe672', 'detail_info': {'tag': '美食;中餐厅', 'navi_location': {'lng': 108.94920454073, 'lat': 34.276492022118},