[{"name": "\u9753\u4e3d\u6c7d\u8f66\u670d\u52a1\u90e8", "location": {"lat": 34.201045, "lng": 108.87622}, "address": "\u4e08\u516b\u56db\u8def\u7eff\u5730\u4e16\u7eaa\u57ce\u897f\u95e8\u5411\u5357400\u7c73\u8def\u4e1c", "province": "\u9655\u897f\u7701", "city": "\u897f\u5b89\u5e02", "area": "\u96c1\u5854\u533a", "street_id": "f209068af4bff6c510882478", "detail": 1, "uid": "f209068af4bff6c510882478", "detail_info": {"tag": "\u6c7d\u8f66\u670d\u52a1;\u6c7d\u8f66\u7f8e\u5bb9", "type": "life", "detail_url": "http://api.map.baidu.com/place/detail?uid=f209068af4bff6c510882478&output=html&source=placeapi_v2", "image_num": "9", "comment_num": "2", "children": []}}, {"name": "\u65b0\u7535\u7535\u55b7\u6c7d\u8f66\u7535\u5668\u7535\u74f6\u7ef4\u4fee\u4e2d\u5fc3", "location": {"lat": 34.211342, "lng": 108.937052}, "address": "\u9655\u897f\u7701\u897f\u5b89\u5e02\u96c1\u5854\u533a\u660e\u5fb7\u4e8c\u8def\u897f\u5b89\u5e02\u4ea4\u901a\u5b89\u5168\u6559\u80b2\u804c\u4e1a\u5b66\u6821", "province": "\u9655\u897f\u7701", "city": "\u897f\u5b89\u5e02", "area": "\u96c1\u5854\u533a", "street_id": "530bf0bda9c50e939fe3218b", "telephone": "13689296499,18710898726", "detail": 1, "uid": "530bf0bda9c50e939fe3218b", "detail_info": {"tag": "\u6c7d\u8f66\u670d\u52a1;\u6c7d\u8f66\u7ef4\u4fee", "type": "life", "detail_url": "http://api.map.baidu.com/place/detail?uid=530bf0bda9c50e939fe3218b&output=html&source=placeapi_v2", "image_num": "8", "children": []}}, {"name": "\u77f3\u6865\u6c7d\u8f66\u57ce-F\u533a", "location": {"lat": 34.259682, "lng": 108.850625}, "address": "\u9655\u897f\u7701\u897f\u5b89\u5e02\u672a\u592e\u533a\u9c7c\u5316\u5be8\u8857\u9053\u897f\u4e09\u73af\u76db\u8c6a\u5c0f\u533a\u4e1c100\u7c73", "province": "\u9655\u897f\u7701", "city": "\u897f\u5b89\u5e02", "area": "\u672a\u592e\u533a", "street_id": "336ff4421ffbddc7b320a8b3", "detail": 1, "uid": "336ff4421ffbddc7b320a8b3", "detail_info": {"tag": "\u6c7d\u8f66\u670d\u52a1;\u6c7d\u8f66\u9500\u552e", "navi_location": {"lng": 108.84976766871, "lat": 34.259319668011}, "type": "life", "detail_url": "http://api.map.baidu.com/place/detail?uid=336ff4421ffbddc7b320a8b3&output=html&source=placeapi_v2", "image_num": "1", "children": []}}, {"name": "\u4e00\u6c7d\u5927\u4f17\u7279\u7ea6\u7ecf\u9500\u5546\u6052\u4e30\u56db\u7ad9\u6c7d\u8f66\u9500\u552e\u516c\u53f8", "location": {"lat": 34.257803, "lng": 108.899062}, "address": "\u9655\u897f\u7701\u897f\u5b89\u5e02\u83b2\u6e56\u533a\u4e30\u767b\u5357\u8def36\u53f7", "province": "\u9655\u897f\u7701", "city": "\u897f\u5b89\u5e02", "area": "\u83b2\u6e56\u533a", "street_id": "ee332e56dc77df0ac9fa5f2a", "detail": 1, "uid": "ee332e56dc77df0ac9fa5f2a", "detail_info": {"tag": "\u6c7d\u8f66\u670d\u52a1;\u6c7d\u8f66\u9500\u552e", "navi_location": {"lng": 108.89906348072, "lat": 34.257845876191}, "type": "life", "detail_url": "http://api.map.baidu.com/place/detail?uid=ee332e56dc77df0ac9fa5f2a&output=html&source=placeapi_v2", "image_num": "2", "comment_num": "0", "children": []}}, {"name": "\u897f\u5b89\u665f\u8000\u884c\u4e8c\u624b\u8f66\u7ecf\u9500\u6709\u9650\u516c\u53f8", "location": {"lat": 34.234982, "lng": 108.938955}, "address": "\u542b\u5149\u8def261\u53f7\u9e4f\u8c6a\u5546\u52a1\u533a2\u5355\u51431802\u5ba4", "province": "\u9655\u897f\u7701", "city": "\u897f\u5b89\u5e02", "area": "\u96c1\u5854\u533a", "street_id": "8c759d6a79351485c809f0b0", "detail": 1, "uid": "8c759d6a79351485c809f0b0", "detail_info": {"tag": "\u6c7d\u8f66\u670d\u52a1;\u6c7d\u8f66\u9500\u552e", "type": "life", "detail_url": "http://api.map.baidu.com/place/detail?uid=8c759d6a79351485c809f0b0&output=html&source=placeapi_v2", "image_num": "1", "children": []}}, {"name": "\u535a\u5357\u6c7d\u914d", "location": {"lat": 34.277109, "lng": 108.919512}, "address": "\u9655\u897f\u7701\u897f\u5b89\u5e02\u83b2\u6e56\u533a\u52b3\u52a8\u5317\u8def15\u53f7\u7389\u6797\u56fd\u9645\u6c7d\u914d\u57ceA1-1-10\u53f7(\u897f\u5b89\u7406\u5de5\u5927\u5b66\u9ad8\u7b49\u6280\u672f\u5b66\u9662\u65c1)", "province": "\u9655\u897f\u7701", "city": "\u897f\u5b89\u5e02", "area": "\u83b2\u6e56\u533a", "street_id": "f9913e583c5e49af8e772756", "detail": 1, "uid": "f9913e583c5e49af8e772756", "detail_info": {"tag": "\u6c7d\u8f66\u670d\u52a1;\u6c7d\u8f66\u914d\u4ef6", "type": "life", "detail_url": "http://api.map.baidu.com/place/detail?uid=f9913e583c5e49af8e772756&output=html&source=placeapi_v2", "image_num": "9", "children": []}}, {"name": "\u4e07\u6d32\u79df\u8f66", "location": {"lat": 34.254745, "lng": 108.916955}, "address": "\u52b3\u52a8\u5357\u8def173\u53f7(\u5e02\u89c4\u5212\u5c40\u5bf9\u9762)", "province": "\u9655\u897f\u7701", "city": "\u897f\u5b89\u5e02", "area": "\u83b2\u6e56\u533a", "street_id": "1d6818271bffad1b3686f44c", "telephone": "(029)89308058", "detail": 1, "uid": "1d6818271bffad1b3686f44c", "detail_info": {"tag": "\u6c7d\u8f66\u670d\u52a1;\u6c7d\u8f66\u79df\u8d41", "type": "life", "detail_url": "http://api.map.baidu.com/place/detail?uid=1d6818271bffad1b3686f44c&output=html&source=placeapi_v2", "image_num": "5", "children": []}}, {"name": "\u77f3\u6865\u6c7d\u8f66\u57ce-B\u533a", "location": {"lat": 34.259219, "lng": 108.851935}, "address": "\u9655\u897f\u7701\u897f\u5b89\u5e02\u672a\u592e\u533a\u77f3\u6865\u6c7d\u8f66\u57ce(\u6606\u660e\u8def\u5317)", "province": "\u9655\u897f\u7701", "city": "\u897f\u5b89\u5e02", "area": "\u672a\u592e\u533a", "detail": 1, "uid": "570754974c6df4673686f418", "detail_info": {"tag": "\u6c7d\u8f66\u670d\u52a1;\u6c7d\u8f66\u9500\u552e", "navi_location": {"lng": 108.85217958397, "lat": 34.258823087371}, "type": "life", "detail_url": "http://api.map.baidu.com/place/detail?uid=570754974c6df4673686f418&output=html&source=placeapi_v2", "image_num": "1", "children": []}}, {"name": "\u5353\u8d8a\u4e94\u83f1", "location": {"lat": 34.279007, "lng": 108.91992}, "address": "\u73af\u57ce\u897f\u8def\u8857\u9053\u897f\u7ad9\u8def\u57ce\u897f\u4eba\u5bb61-103\u53f7", "province": "\u9655\u897f\u7701", "city": "\u897f\u5b89\u5e02", "area": "\u83b2\u6e56\u533a", "street_id": "894006b3987cd83aae080fd5", "telephone": "(029)84580289,13022991833", "detail": 1, "uid": "894006b3987cd83aae080fd5", "detail_info": {"tag": "\u6c7d\u8f66\u670d\u52a1;\u6c7d\u8f66\u914d\u4ef6", "type": "life", "detail_url": "http://api.map.baidu.com/place/detail?uid=894006b3987cd83aae080fd5&output=html&source=placeapi_v2", "image_num": "5", "children": []}}, {"name": "\u5b8c\u7f8e\u670d\u52a1\u4e2d\u5fc3\u76db\u6966\u670d\u52a1\u90e8", "location": {"lat": 34.274921, "lng": 108.929886}, "address": "\u9655\u897f\u7701\u897f\u5b89\u5e02\u83b2\u6e56\u533a\u79e6\u90fd\u9152\u5e97(\u73af\u57ce\u897f\u8def\u5e97)\u4e1c\u531790\u7c73", "province": "\u9655\u897f\u7701", "city": "\u897f\u5b89\u5e02", "area": "\u83b2\u6e56\u533a", "street_id": "9e82fbc77a382ba7be48426d", "detail": 1, "uid": "9e82fbc77a382ba7be48426d", "detail_info": {"tag": "\u6c7d\u8f66\u670d\u52a1;\u6c7d\u8f66\u7f8e\u5bb9", "type": "life", "detail_url": "http://api.map.baidu.com/place/detail?uid=9e82fbc77a382ba7be48426d&output=html&source=placeapi_v2", "image_num": "4", "children": []}}, {"name": "\u58f3\u724c\u559c\u529b", "location": {"lat": 34.214235, "lng": 108.913126}, "address": "\u592a\u767d\u5357\u8def53\u53f7\u9644\u8fd1", "province": "\u9655\u897f\u7701", "city": "\u897f\u5b89\u5e02", "area": "\u96c1\u5854\u533a", "street_id": "311d5870dcb814efe5073873", "detail": 1, "uid": "311d5870dcb814efe5073873", "detail_info": {"tag": "\u6c7d\u8f66\u670d\u52a1;\u5176\u4ed6", "type": "life", "detail_url": "http://api.map.baidu.com/place/detail?uid=311d5870dcb814efe5073873&output=html&source=placeapi_v2", "image_num": "1", "comment_num": "1", "children": []}}, {"name": "\u51ef\u745e\u6c7d\u8f66\u9655\u897f\u6c34\u7535\u670d\u52a1\u7ad9", "location": {"lat": 34.273847, "lng": 108.894297}, "address": "\u571f\u95e8\u8857\u9053\u4ed8\u8bb0\u83dc\u9986\u5927\u5e86\u8def618\u53f7", "province": "\u9655\u897f\u7701", "city": "\u897f\u5b89\u5e02", "area": "\u83b2\u6e56\u533a", "detail": 1, "uid": "43d9250e2b77a585d2f49e58", "detail_info": {"tag": "\u6c7d\u8f66\u670d\u52a1", "type": "life", "detail_url": "http://api.map.baidu.com/place/detail?uid=43d9250e2b77a585d2f49e58&output=html&source=placeapi_v2", "image_num": "2", "children": []}}, {"name": "\u9a70\u52a0\u8f6e\u80ce\u6c7d\u8f66\u670d\u52a1", "location": {"lat": 34.256399, "lng": 108.930641}, "address": "\u9655\u897f\u7701\u897f\u5b89\u5e02\u7891\u6797\u533a\u73af\u57ce\u5357\u8def\u897f\u6bb5216\u53f7-3\u9644\u8fd1", "province": "\u9655\u897f\u7701", "city": "\u897f\u5b89\u5e02", "area": "\u7891\u6797\u533a", "street_id": "fec740227fab2ee2f7b91635", "detail": 1, "uid": "fec740227fab2ee2f7b91635", "detail_info": {"tag": "\u6c7d\u8f66\u670d\u52a1;\u6c7d\u8f66\u7f8e\u5bb9", "type": "life", "detail_url": "http://api.map.baidu.com/place/detail?uid=fec740227fab2ee2f7b91635&output=html&source=placeapi_v2", "image_num": "5", "children": []}}, {"name": "\u897f\u5b89\u9038\u5c71\u6c7d\u914d", "location": {"lat": 34.27835, "lng": 108.928402}, "address": "\u9655\u897f\u7701\u897f\u5b89\u5e02\u83b2\u6e56\u533a\u6d77\u7eb3\u89c2\u666f\u56ed\u4e8c\u671f(\u73af\u57ce\u897f\u8def\u897f)", "province": "\u9655\u897f\u7701", "city": "\u897f\u5b89\u5e02", "area": "\u83b2\u6e56\u533a", "street_id": "aa45f8c9e30b4bd00a5cb365", "detail": 1, "uid": "aa45f8c9e30b4bd00a5cb365", "detail_info": {"tag": "\u6c7d\u8f66\u670d\u52a1;\u6c7d\u8f66\u914d\u4ef6", "type": "life", "detail_url": "http://api.map.baidu.com/place/detail?uid=aa45f8c9e30b4bd00a5cb365&output=html&source=placeapi_v2", "image_num": "3", "children": []}}, {"name": "\u4f17\u946b\u8d34\u819c\u706f\u5149", "location": {"lat": 34.273454, "lng": 108.843951}, "address": "\u963f\u623f\u4e00\u8def\u4e0e\u897f\u4e09\u73af\u5341\u5b57\u7965\u745e\u5e02\u573aB1-101", "province": "\u9655\u897f\u7701", "city": "\u897f\u5b89\u5e02", "area": "\u672a\u592e\u533a", "street_id": "ab81c38c1238e2a74054d7b8", "telephone": "13363915963", "detail": 1, "uid": "ab81c38c1238e2a74054d7b8", "detail_info": {"tag": "\u6c7d\u8f66\u670d\u52a1", "type": "life", "detail_url": "http://api.map.baidu.com/place/detail?uid=ab81c38c1238e2a74054d7b8&output=html&source=placeapi_v2", "image_num": "3", "children": []}}, {"name": "\u9655\u897f\u4e94\u83f1\u83b2\u6e56\u5206\u516c\u53f8\u552e\u540e\u670d\u52a1\u7ad9", "location": {"lat": 34.273807, "lng": 108.894091}, "address": "\u5927\u5e86\u8def618", "province": "\u9655\u897f\u7701", "city": "\u897f\u5b89\u5e02", "area": "\u83b2\u6e56\u533a", "street_id": "972c2947b8d1826f0a5cb323", "detail": 1, "uid": "972c2947b8d1826f0a5cb323", "detail_info": {"tag": "\u6c7d\u8f66\u670d\u52a1;\u6c7d\u8f66\u7ef4\u4fee", "type": "life", "detail_url": "http://api.map.baidu.com/place/detail?uid=972c2947b8d1826f0a5cb323&output=html&source=placeapi_v2", "image_num": "1", "children": []}}, {"name": "\u91d1\u5fb7\u7ba1\u4e1a\u7ba1\u4e1a\u65b0\u4e16\u7eaa\u9500\u552e\u4e2d\u5fc3(no.036)", "location": {"lat": 34.257774, "lng": 108.89134}, "address": "\u6606\u660e\u8def18\u53f7\u4e1c\u4fa7", "province": "\u9655\u897f\u7701", "city": "\u897f\u5b89\u5e02", "area": "\u96c1\u5854\u533a", "street_id": "ddda95cd0d21a97c100daa0f", "telephone": "15291570653", "detail": 1, "uid": "ddda95cd0d21a97c100daa0f", "detail_info": {"tag": "\u6c7d\u8f66\u670d\u52a1;\u6c7d\u8f66\u9500\u552e", "navi_location": {"lng": 108.8911682161, "lat": 34.257912871993}, "type": "life", "detail_url": "http://api.map.baidu.com/place/detail?uid=ddda95cd0d21a97c100daa0f&output=html&source=placeapi_v2", "image_num": "4", "comment_num": "2", "children": []}}, {"name": "\u65b0\u660c\u6c7d\u4fee", "location": {"lat": 34.191473, "lng": 108.914793}, "address": "\u9655\u897f\u7701\u897f\u5b89\u5e02\u96c1\u5854\u533a\u96c1\u73af\u4e2d\u8def\u5b50\u5348\u5efa\u6750\u5546\u57ce(\u5bcc\u6625\u5c71\u5c45\u4e1c\u5357)", "province": "\u9655\u897f\u7701", "city": "\u897f\u5b89\u5e02", "area": "\u96c1\u5854\u533a", "street_id": "b66919a0284825be81a12e86", "detail": 1, "uid": "b66919a0284825be81a12e86", "detail_info": {"tag": "\u6c7d\u8f66\u670d\u52a1;\u6c7d\u8f66\u7ef4\u4fee", "type": "life", "detail_url": "http://api.map.baidu.com/place/detail?uid=b66919a0284825be81a12e86&output=html&source=placeapi_v2", "image_num": "3", "children": []}}, {"name": "\u7115\u7136\u4e00\u65b0\u6d17\u8f66\u884c", "location": {"lat": 34.229587, "lng": 108.863534}, "address": "\u9655\u897f\u7701\u897f\u5b89\u5e02\u96c1\u5854\u533a\u9c7c\u4e01\u8def", "province": "\u9655\u897f\u7701", "city": "\u897f\u5b89\u5e02", "area": "\u96c1\u5854\u533a", "detail": 1, "uid": "f048a4c345f869e145572609", "detail_info": {"tag": "\u6c7d\u8f66\u670d\u52a1;\u6c7d\u8f66\u7f8e\u5bb9", "type": "life", "detail_url": "http://api.map.baidu.com/place/detail?uid=f048a4c345f869e145572609&output=html&source=placeapi_v2", "image_num": "4", "children": []}}, {"name": "\u65fa\u53d1\u6c7d\u79df", "location": {"lat": 34.2045, "lng": 108.92806}, "address": "\u4e08\u516b\u4e1c\u8def12\u53f7\u659c\u5bf9\u9762", "province": "\u9655\u897f\u7701", "city": "\u897f\u5b89\u5e02", "area": "\u96c1\u5854\u533a", "street_id": "86613cbb32576accdbecedc5", "telephone": "(029)88294597,18710761110", "detail": 1, "uid": "86613cbb32576accdbecedc5", "detail_info": {"tag": "\u6c7d\u8f66\u670d\u52a1;\u6c7d\u8f66\u79df\u8d41", "navi_location": {"lng": 108.92808355463, "lat": 34.204342321909}, "type": "life", "detail_url": "http://api.map.baidu.com/place/detail?uid=86613cbb32576accdbecedc5&output=html&source=placeapi_v2", "image_num": "11", "comment_num": "2", "children": []}}, {"name": "\u897f\u5b89\u5e02\u83b2\u6e56\u533a\u745e\u7acb\u6c7d\u914d\u7ecf\u9500\u90e8", "location": {"lat": 34.279106, "lng": 108.926609}, "address": "\u897f\u7ad9\u8def10\u53f7", "province": "\u9655\u897f\u7701", "city": "\u897f\u5b89\u5e02", "area": "\u83b2\u6e56\u533a", "street_id": "64b6f019b61285116e3e1b22", "detail": 1, "uid": "64b6f019b61285116e3e1b22", "detail_info": {"tag": "\u6c7d\u8f66\u670d\u52a1;\u6c7d\u8f66\u914d\u4ef6", "type": "life", "detail_url": "http://api.map.baidu.com/place/detail?uid=64b6f019b61285116e3e1b22&output=html&source=placeapi_v2", "image_num": "10", "children": []}}, {"name": "\u53cb\u5bb6\u6c7d\u8f66\u670d\u52a1\u4e2d\u5fc3", "location": {"lat": 34.277273, "lng": 108.939115}, "address": "\u897f\u5317\u4e09\u8def22\u53f7", "province": "\u9655\u897f\u7701", "city": "\u897f\u5b89\u5e02", "area": "\u83b2\u6e56\u533a", "street_id": "f22feb8b09c7d82bbadf8f14", "detail": 1, "uid": "f22feb8b09c7d82bbadf8f14", "detail_info": {"tag": "\u6c7d\u8f66\u670d\u52a1;\u6c7d\u8f66\u7f8e\u5bb9", "type": "life", "detail_url": "http://api.map.baidu.com/place/detail?uid=f22feb8b09c7d82bbadf8f14&output=html&source=placeapi_v2", "image_num": "12", "comment_num": "2", "children": []}}, {"name": "\u5b8c\u7f8e\u670d\u52a1\u4e2d\u5fc3", "location": {"lat": 34.2004, "lng": 108.946187}, "address": "\u6731\u96c0\u5927\u8857\u5357\u6bb5\u534e\u57ce\u4e07\u8c61\u4e8c\u671f1", "province": "\u9655\u897f\u7701", "city": "\u897f\u5b89\u5e02", "area": "\u96c1\u5854\u533a", "street_id": "9b687e0f08c49b78abf7296c", "detail": 1, "uid": "9b687e0f08c49b78abf7296c", "detail_info": {"tag": "\u6c7d\u8f66\u670d\u52a1;\u6c7d\u8f66\u7f8e\u5bb9", "type": "life", "detail_url": "http://api.map.baidu.com/place/detail?uid=9b687e0f08c49b78abf7296c&output=html&source=placeapi_v2", "image_num": "1", "children": []}}, {"name": "\u4fe1\u548c\u4e49\u6c7d\u8f66\u670d\u52a1\u516c\u53f8", "location": {"lat": 34.257828, "lng": 108.825087}, "address": "\u897f\u56f4\u5899\u5de5\u4e1a\u56ed\u5357\u73af\u4e8c\u8def2\u53f7", "province": "\u9655\u897f\u7701", "city": "\u897f\u5b89\u5e02", "area": "\u672a\u592e\u533a", "street_id": "6b1f72527e492a5f246e98f7", "detail": 1, "uid": "6b1f72527e492a5f246e98f7", "detail_info": {"tag": "\u6c7d\u8f66\u670d\u52a1;\u6c7d\u8f66\u9500\u552e", "type": "life", "detail_url": "http://api.map.baidu.com/place/detail?uid=6b1f72527e492a5f246e98f7&output=html&source=placeapi_v2", "image_num": "1", "children": []}}, {"name": "\u65ed\u4ebf\u6c7d\u914d", "location": {"lat": 34.278178, "lng": 108.927754}, "address": "\u73af\u57ce\u897f\u8def\u6d77\u7eb3\u89c2\u666f\u56ed\u65c1", "province": "\u9655\u897f\u7701", "city": "\u897f\u5b89\u5e02", "area": "\u83b2\u6e56\u533a", "street_id": "3bdf5a2b1073c3d497ec848c", "detail": 1, "uid": "3bdf5a2b1073c3d497ec848c", "detail_info": {"tag": "\u6c7d\u8f66\u670d\u52a1;\u6c7d\u8f66\u914d\u4ef6", "type": "life", "detail_url": "http://api.map.baidu.com/place/detail?uid=3bdf5a2b1073c3d497ec848c&output=html&source=placeapi_v2", "image_num": "2", "children": []}}, {"name": "\u897f\u5b89\u5353\u7fa4\u6c7d\u8f66\u4e13\u5bb6", "location": {"lat": 34.273095, "lng": 108.843741}, "address": "\u9655\u897f\u7701\u897f\u5b89\u5e02\u672a\u592e\u533a\u7965\u745e\u7cbe\u54c1\u6c7d\u8f66\u88c5\u9970\u57ceB7-108", "province": "\u9655\u897f\u7701", "city": "\u897f\u5b89\u5e02", "area": "\u672a\u592e\u533a", "street_id": "9b4bf6c9d2e697d804fef5c7", "detail": 1, "uid": "9b4bf6c9d2e697d804fef5c7", "detail_info": {"tag": "\u6c7d\u8f66\u670d\u52a1;\u6c7d\u8f66\u7f8e\u5bb9", "type": "life", "detail_url": "http://api.map.baidu.com/place/detail?uid=9b4bf6c9d2e697d804fef5c7&output=html&source=placeapi_v2", "overall_rating": "5.0", "image_num": "7", "comment_num": "4", "children": []}}, {"name": "\u660e\u5fd7\u5f3a\u6c7d\u8f66\u5185\u9970\u4e13\u5bb6(\u7965\u745e\u5206\u5e97)", "location": {"lat": 34.272776, "lng": 108.844642}, "address": "\u9655\u897f\u7701\u897f\u5b89\u5e02\u672a\u592e\u533a\u7965\u745e\u7cbe\u54c1\u6c7d\u8f66\u88c5\u9970\u57ceB5-113", "province": "\u9655\u897f\u7701", "city": "\u897f\u5b89\u5e02", "area": "\u672a\u592e\u533a", "street_id": "8cb646d4965fdb1930169b12", "detail": 1, "uid": "8cb646d4965fdb1930169b12", "detail_info": {"tag": "\u6c7d\u8f66\u670d\u52a1;\u6c7d\u8f66\u7f8e\u5bb9", "type": "life", "detail_url": "http://api.map.baidu.com/place/detail?uid=8cb646d4965fdb1930169b12&output=html&source=placeapi_v2", "image_num": "1", "children": []}}, {"name": "\u6c7d\u8f66\u6c22\u52a8\u529b\u63d0\u5347\u4e13\u5bb6", "location": {"lat": 34.274595, "lng": 108.895656}, "address": "\u9655\u897f\u7701\u897f\u5b89\u5e02\u83b2\u6e56\u533a\u5927\u5e86\u8def598\u53f7\u526f3\u53f7", "province": "\u9655\u897f\u7701", "city": "\u897f\u5b89\u5e02", "area": "\u83b2\u6e56\u533a", "street_id": "63f39067fd1a585c364aae28", "telephone": "(029)88631077,17791686806", "detail": 1, "uid": "63f39067fd1a585c364aae28", "detail_info": {"tag": "\u6c7d\u8f66\u670d\u52a1", "type": "life", "detail_url": "http://api.map.baidu.com/place/detail?uid=63f39067fd1a585c364aae28&output=html&source=placeapi_v2", "image_num": "3", "children": []}}, {"name": "\u897f\u5b89\u5e02\u65b9\u8fbe\u6c7d\u914d\u7ecf\u9500\u90e8", "location": {"lat": 34.2791, "lng": 108.926181}, "address": "\u7389\u7965\u95e8\u897f\u7ad9\u885722\u53f7", "province": "\u9655\u897f\u7701", "city": "\u897f\u5b89\u5e02", "area": "\u83b2\u6e56\u533a", "street_id": "69b552bab8c1015f9e9d68be", "detail": 1, "uid": "69b552bab8c1015f9e9d68be", "detail_info": {"tag": "\u6c7d\u8f66\u670d\u52a1;\u6c7d\u8f66\u914d\u4ef6", "type": "life", "detail_url": "http://api.map.baidu.com/place/detail?uid=69b552bab8c1015f9e9d68be&output=html&source=placeapi_v2", "image_num": "7", "comment_num": "0", "children": []}}, {"name": "\u6c38\u65b0\u6c7d\u8f66\u7528\u54c1", "location": {"lat": 34.273462, "lng": 108.844644}, "address": "\u9655\u897f\u7701\u897f\u5b89\u5e02\u672a\u592e\u533a\u6ca3\u60e0\u8def1\u53f7", "province": "\u9655\u897f\u7701", "city": "\u897f\u5b89\u5e02", "area": "\u672a\u592e\u533a", "street_id": "18cdff2915de7a4ef82d6170", "telephone": "13720544782", "detail": 1, "uid": "18cdff2915de7a4ef82d6170", "detail_info": {"tag": "\u6c7d\u8f66\u670d\u52a1;\u6c7d\u8f66\u7f8e\u5bb9", "type": "life", "detail_url": "http://api.map.baidu.com/place/detail?uid=18cdff2915de7a4ef82d6170&output=html&source=placeapi_v2", "image_num": "10", "comment_num": "2", "children": []}}, {"name": "\u5f00\u745e\u6c7d\u8f66", "location": {"lat": 34.274123, "lng": 108.833831}, "address": "\u9655\u897f\u7701\u897f\u5b89\u5e02\u672a\u592e\u533a\u963f\u623f\u4e00\u8def51\u53f7\u9644\u8fd1", "province": "\u9655\u897f\u7701", "city": "\u897f\u5b89\u5e02", "area": "\u672a\u592e\u533a", "street_id": "b550fc7556d1a7f772210bfc", "detail": 1, "uid": "b550fc7556d1a7f772210bfc", "detail_info": {"tag": "\u6c7d\u8f66\u670d\u52a1;\u6c7d\u8f66\u7f8e\u5bb9", "type": "life", "detail_url": "http://api.map.baidu.com/place/detail?uid=b550fc7556d1a7f772210bfc&output=html&source=placeapi_v2", "image_num": "3", "children": []}}, {"name": "\u897f\u5b89\u7126\u70b9\u6c7d\u8f66\u670d\u52a1\u6709\u9650\u516c\u53f8", "location": {"lat": 34.237529, "lng": 108.919965}, "address": "\u767d\u6c99\u8def\u5317\u6bb52\u53f7", "province": "\u9655\u897f\u7701", "city": "\u897f\u5b89\u5e02", "area": "\u96c1\u5854\u533a", "street_id": "269a5a3a523268a5a8f729f0", "detail": 1, "uid": "269a5a3a523268a5a8f729f0", "detail_info": {"tag": "\u6c7d\u8f66\u670d\u52a1;\u6c7d\u8f66\u9500\u552e", "type": "life", "detail_url": "http://api.map.baidu.com/place/detail?uid=269a5a3a523268a5a8f729f0&output=html&source=placeapi_v2", "image_num": "1", "comment_num": "1", "children": []}}, {"name": "\u76db\u8fbe\u6c7d\u8f66\u670d\u52a1\u4e2d\u5fc3", "location": {"lat": 34.234802, "lng": 108.916142}, "address": "\u9655\u897f\u7701\u897f\u5b89\u5e02\u96c1\u5854\u533a\u79d1\u6280\u8def181\u53f7\u9644\u8fd1", "province": "\u9655\u897f\u7701", "city": "\u897f\u5b89\u5e02", "area": "\u96c1\u5854\u533a", "street_id": "4eeed256b2776d7aa10464c5", "detail": 1, "uid": "4eeed256b2776d7aa10464c5", "detail_info": {"tag": "\u6c7d\u8f66\u670d\u52a1;\u6c7d\u8f66\u7f8e\u5bb9", "type": "life", "detail_url": "http://api.map.baidu.com/place/detail?uid=4eeed256b2776d7aa10464c5&output=html&source=placeapi_v2", "image_num": "6", "children": []}}, {"name": "\u4e1c\u65b9\u7535\u673a\u4fee\u7406", "location": {"lat": 34.2284, "lng": 108.922445}, "address": "\u592a\u767d\u5357\u8def213\u53f7", "province": "\u9655\u897f\u7701", "city": "\u897f\u5b89\u5e02", "area": "\u96c1\u5854\u533a", "street_id": "cb476656cd002b61902ca31e", "detail": 1, "uid": "cb476656cd002b61902ca31e", "detail_info": {"tag": "\u6c7d\u8f66\u670d\u52a1;\u6c7d\u8f66\u7ef4\u4fee", "type": "life", "detail_url": "http://api.map.baidu.com/place/detail?uid=cb476656cd002b61902ca31e&output=html&source=placeapi_v2", "image_num": "12", "comment_num": "3", "children": []}}, {"name": "\u946b\u8d77\u70b9\u6c7d\u8f66\u751f\u6d3b\u9986", "location": {"lat": 34.272929, "lng": 108.844199}, "address": "\u897f\u4e09\u73af\u4e0e\u963f\u623f\u4e00\u8def\u5341\u5b57\u897f\u5357\u89d2\u7965\u745e\u6c7d\u8f66\u88c5\u9970\u57ceB4-102", "province": "\u9655\u897f\u7701", "city": "\u897f\u5b89\u5e02", "area": "\u672a\u592e\u533a", "street_id": "11ec6fdc9edd40a1d1f49ee2", "detail": 1, "uid": "11ec6fdc9edd40a1d1f49ee2", "detail_info": {"tag": "\u6c7d\u8f66\u670d\u52a1;\u6c7d\u8f66\u7f8e\u5bb9", "type": "life", "detail_url": "http://api.map.baidu.com/place/detail?uid=11ec6fdc9edd40a1d1f49ee2&output=html&source=placeapi_v2", "image_num": "1", "children": []}}, {"name": "\u8def\u7545\u897f\u5b89\u8f66\u5b9d\u6280\u670d\u4f73\u4f1a\u5458\u5e97", "location": {"lat": 34.27832, "lng": 108.921633}, "address": "\u5927\u5e86\u8def213\u53f7\u7389\u6797\u6c7d\u914d\u57ce2\u5c422-41", "province": "\u9655\u897f\u7701", "city": "\u897f\u5b89\u5e02", "area": "\u83b2\u6e56\u533a", "street_id": "84d17960541074a72bd7ab5f", "detail": 1, "uid": "84d17960541074a72bd7ab5f", "detail_info": {"tag": "\u6c7d\u8f66\u670d\u52a1;\u6c7d\u8f66\u914d\u4ef6", "type": "life", "detail_url": "http://api.map.baidu.com/place/detail?uid=84d17960541074a72bd7ab5f&output=html&source=placeapi_v2", "image_num": "1", "children": []}}, {"name": "\u4e07\u8fbe\u6c7d\u4fee", "location": {"lat": 34.259125, "lng": 108.862304}, "address": "\u6606\u660e\u8def\u5317100\u7c73", "province": "\u9655\u897f\u7701", "city": "\u897f\u5b89\u5e02", "area": "\u83b2\u6e56\u533a", "street_id": "95bfc71375f270cc29fc481f", "detail": 1, "uid": "95bfc71375f270cc29fc481f", "detail_info": {"tag": "\u6c7d\u8f66\u670d\u52a1;\u6c7d\u8f66\u7ef4\u4fee", "type": "life", "detail_url": "http://api.map.baidu.com/place/detail?uid=95bfc71375f270cc29fc481f&output=html&source=placeapi_v2", "image_num": "1", "children": []}}, {"name": "\u5fb7\u745e\u6c7d\u8f66\u670d\u52a1\u7ad9", "location": {"lat": 34.2369, "lng": 108.85796}, "address": "\u9c7c\u6597\u8def3\u53f7", "province": "\u9655\u897f\u7701", "city": "\u897f\u5b89\u5e02", "area": "\u96c1\u5854\u533a", "street_id": "ef24db9e06be4b5fadb22a88", "telephone": "15129041444", "detail": 1, "uid": "ef24db9e06be4b5fadb22a88", "detail_info": {"tag": "\u6c7d\u8f66\u670d\u52a1;\u6c7d\u8f66\u7ef4\u4fee", "type": "life", "detail_url": "http://api.map.baidu.com/place/detail?uid=ef24db9e06be4b5fadb22a88&output=html&source=placeapi_v2", "overall_rating": "2.5", "image_num": "9", "comment_num": "1", "children": []}}, {"name": "\u7cbe\u9e70\u4e8c\u624b\u8f66\u884c", "location": {"lat": 34.264838, "lng": 108.844641}, "address": "\u7ea2\u5149\u6865\u4e0e\u7ea2\u5149\u8def\u4ea4\u53c9\u53e3\u897f\u531750\u7c73", "province": "\u9655\u897f\u7701", "city": "\u897f\u5b89\u5e02", "area": "\u672a\u592e\u533a", "street_id": "759fe2564bf54733f32d83df", "detail": 1, "uid": "759fe2564bf54733f32d83df", "detail_info": {"tag": "\u6c7d\u8f66\u670d\u52a1;\u6c7d\u8f66\u9500\u552e", "type": "life", "detail_url": "http://api.map.baidu.com/place/detail?uid=759fe2564bf54733f32d83df&output=html&source=placeapi_v2", "image_num": "1", "children": []}}, {"name": "\u901a\u987a\u6c7d\u8f66\u670d\u52a1", "location": {"lat": 34.217196, "lng": 108.886005}, "address": "\u897f\u5b89\u5e02\u96c1\u5854\u533a\u67ab\u6797\u610f\u6811\u5317\u95e8200\u53f7", "province": "\u9655\u897f\u7701", "city": "\u897f\u5b89\u5e02", "area": "\u96c1\u5854\u533a", "street_id": "a96ce87037f5e3b240e1926a", "telephone": "(029)89184400,(029)89184545,13347433668", "detail": 1, "uid": "a96ce87037f5e3b240e1926a", "detail_info": {"tag": "\u6c7d\u8f66\u670d\u52a1;\u6c7d\u8f66\u9500\u552e", "type": "life", "detail_url": "http://api.map.baidu.com/place/detail?uid=a96ce87037f5e3b240e1926a&output=html&source=placeapi_v2", "image_num": "5", "comment_num": "2", "children": []}}, {"name": "\u9655\u6c7d\u91cd\u914d", "location": {"lat": 34.279185, "lng": 108.928247}, "address": "\u73af\u57ce\u897f\u8def\u5317\u6bb5370\u53f7\u9644\u8fd1", "province": "\u9655\u897f\u7701", "city": "\u897f\u5b89\u5e02", "area": "\u83b2\u6e56\u533a", "street_id": "a610d07d44e1e7fa51e5c5bb", "detail": 1, "uid": "a610d07d44e1e7fa51e5c5bb", "detail_info": {"tag": "\u6c7d\u8f66\u670d\u52a1", "type": "life", "detail_url": "http://api.map.baidu.com/place/detail?uid=a610d07d44e1e7fa51e5c5bb&output=html&source=placeapi_v2", "image_num": "2", "children": []}}, {"name": "\u60e0\u5bbe\u6c7d\u79df", "location": {"lat": 34.27925, "lng": 108.90738}, "address": "\u6843\u56ed\u5317\u8def18\u53f7(\u8fd1\u52a0\u6c14\u7ad9)", "province": "\u9655\u897f\u7701", "city": "\u897f\u5b89\u5e02", "area": "\u83b2\u6e56\u533a", "street_id": "ab9e451dc3184895eb1e97b1", "telephone": "(029)84246621", "detail": 1, "uid": "ab9e451dc3184895eb1e97b1", "detail_info": {"tag": "\u6c7d\u8f66\u670d\u52a1;\u6c7d\u8f66\u79df\u8d41", "type": "life", "detail_url": "http://api.map.baidu.com/place/detail?uid=ab9e451dc3184895eb1e97b1&output=html&source=placeapi_v2", "image_num": "13", "comment_num": "1", "children": []}}, {"name": "\u5218\u5e08\u6c7d\u8f66\u4fee\u7406\u90e8", "location": {"lat": 34.190159, "lng": 108.915634}, "address": "\u9655\u897f\u7701\u897f\u5b89\u5e02\u96c1\u5854\u533a\u96c1\u73af\u4e2d\u8def\u535750\u7c73", "province": "\u9655\u897f\u7701", "city": "\u897f\u5b89\u5e02", "area": "\u96c1\u5854\u533a", "street_id": "9e982b96688fc976d518b7dc", "detail": 1, "uid": "9e982b96688fc976d518b7dc", "detail_info": {"tag": "\u6c7d\u8f66\u670d\u52a1;\u6c7d\u8f66\u7ef4\u4fee", "type": "life", "detail_url": "http://api.map.baidu.com/place/detail?uid=9e982b96688fc976d518b7dc&output=html&source=placeapi_v2", "image_num": "5", "children": []}}, {"name": "\u5b89\u987a\u8bda\u548c\u6c7d\u8f66\u670d\u52a1\u6709\u9650\u516c\u53f8", "location": {"lat": 34.257217, "lng": 108.921268}, "address": "\u4e30\u5e86\u8def91\u53f7", "province": "\u9655\u897f\u7701", "city": "\u897f\u5b89\u5e02", "area": "\u83b2\u6e56\u533a", "street_id": "68bb28a1629ef193a2a93471", "telephone": "13488226360,18089298233,18182684766", "detail": 1, "uid": "b323f1ba1b96b4294e2fdf41", "detail_info": {"tag": "\u6c7d\u8f66\u670d\u52a1;\u6c7d\u8f66\u9500\u552e", "navi_location": {"lng": 108.92156602207, "lat": 34.257167419218}, "type": "life", "detail_url": "http://api.map.baidu.com/place/detail?uid=b323f1ba1b96b4294e2fdf41&output=html&source=placeapi_v2", "image_num": "1", "children": []}}, {"name": "\u8001\u90ed\u6d17\u8f66\u884c(\u7ea2\u5149\u8def)", "location": {"lat": 34.265578, "lng": 108.848784}, "address": "\u7ea2\u5149\u6865\u4e0e\u7ea2\u5149\u8def\u4ea4\u53c9\u53e3\u897f\u531750\u7c73", "province": "\u9655\u897f\u7701", "city": "\u897f\u5b89\u5e02", "area": "\u672a\u592e\u533a", "street_id": "44aa0729536c787e8a36ee1c", "detail": 1, "uid": "44aa0729536c787e8a36ee1c", "detail_info": {"tag": "\u6c7d\u8f66\u670d\u52a1;\u6c7d\u8f66\u7f8e\u5bb9", "type": "life", "detail_url": "http://api.map.baidu.com/place/detail?uid=44aa0729536c787e8a36ee1c&output=html&source=placeapi_v2", "image_num": "4", "children": []}}, {"name": "\u73af\u5c9b\u6c7d\u8f66\u670d\u52a1\u90e8", "location": {"lat": 34.235746, "lng": 108.944905}, "address": "\u5357\u4e8c\u73af\u6731\u96c0\u8def\u4ec0\u5b57\u526f162\u53f7\u4e1c\u4fa7", "province": "\u9655\u897f\u7701", "city": "\u897f\u5b89\u5e02", "area": "\u96c1\u5854\u533a", "street_id": "7aa4856ba22c49c85fbe8645", "detail": 1, "uid": "a1400e4e6c43632f2fe67b16", "detail_info": {"tag": "\u6c7d\u8f66\u670d\u52a1;\u6c7d\u8f66\u7ef4\u4fee", "type": "life", "detail_url": "http://api.map.baidu.com/place/detail?uid=a1400e4e6c43632f2fe67b16&output=html&source=placeapi_v2", "overall_rating": "0.0", "image_num": "1", "comment_num": "0", "children": []}}, {"name": "\u8f66\u9014\u798f\u6da6\u8d34\u819c\u57fa\u5730", "location": {"lat": 34.274068, "lng": 108.844447}, "address": "\u6b66\u8b66\u8def\u4e0e\u963f\u623f\u4e00\u8def\u4ea4\u53c9\u53e3\u897f\u5357200\u7c73", "province": "\u9655\u897f\u7701", "city": "\u897f\u5b89\u5e02", "area": "\u672a\u592e\u533a", "street_id": "0b9d936ff748c26d95ca0789", "detail": 1, "uid": "0b9d936ff748c26d95ca0789", "detail_info": {"tag": "\u6c7d\u8f66\u670d\u52a1;\u6c7d\u8f66\u7f8e\u5bb9", "type": "life", "detail_url": "http://api.map.baidu.com/place/detail?uid=0b9d936ff748c26d95ca0789&output=html&source=placeapi_v2", "image_num": "4", "children": []}}, {"name": "\u8bda\u8f89\u6c7d\u79df", "location": {"lat": 34.249385, "lng": 108.881037}, "address": "\u5927\u5be8\u8def8\u53f7", "province": "\u9655\u897f\u7701", "city": "\u897f\u5b89\u5e02", "area": "\u96c1\u5854\u533a", "street_id": "7d8ed7f86dec1a5aafee7a86", "detail": 1, "uid": "7d8ed7f86dec1a5aafee7a86", "detail_info": {"tag": "\u6c7d\u8f66\u670d\u52a1;\u6c7d\u8f66\u79df\u8d41", "type": "life", "detail_url": "http://api.map.baidu.com/place/detail?uid=7d8ed7f86dec1a5aafee7a86&output=html&source=placeapi_v2", "image_num": "5", "children": []}}, {"name": "\u5a01\u822a\u6c7d\u8f66\u517b\u62a4\u4e2d\u5fc3(\u65d7\u8230\u5e97)", "location": {"lat": 34.232207, "lng": 108.930153}, "address": "\u9ad8\u65b0\u533a\u5149\u534e\u8def\u4e1c\u6bb5\u8def\u5357\u66fc\u54c8\u987f\u6d0b\u623f\u4e00\u5c42", "province": "\u9655\u897f\u7701", "city": "\u897f\u5b89\u5e02", "area": "\u96c1\u5854\u533a", "street_id": "34b8cd8af4b843436e20b9ae", "detail": 1, "uid": "34b8cd8af4b843436e20b9ae", "detail_info": {"tag": "\u6c7d\u8f66\u670d\u52a1;\u6c7d\u8f66\u7f8e\u5bb9", "navi_location": {"lng": 108.93021420684, "lat": 34.232360465839}, "type": "life", "detail_url": "http://api.map.baidu.com/place/detail?uid=34b8cd8af4b843436e20b9ae&output=html&source=placeapi_v2", "overall_rating": "3.0", "image_num": "29", "comment_num": "3", "children": []}}, {"name": "\u5de5\u5927\u6b63\u4e50\u7535\u8111\u6d17\u8f66", "location": {"lat": 34.252028, "lng": 108.926636}, "address": "\u9655\u897f\u7701\u897f\u5b89\u5e02\u7891\u6797\u533a\u897f\u5de5\u5927\u4e1c\u95e8\u5411\u5317200\u7c73", "province": "\u9655\u897f\u7701", "city": "\u897f\u5b89\u5e02", "area": "\u7891\u6797\u533a", "street_id": "a0c20817652911ba41d63e05", "detail": 1, "uid": "a0c20817652911ba41d63e05", "detail_info": {"tag": "\u6c7d\u8f66\u670d\u52a1;\u6c7d\u8f66\u7f8e\u5bb9", "type": "life", "detail_url": "http://api.map.baidu.com/place/detail?uid=a0c20817652911ba41d63e05&output=html&source=placeapi_v2", "image_num": "1", "children": []}}, {"name": "\u67cf\u83f2\u7279\u6c7d\u8f66\u4e13\u4e1a\u7ef4\u4fee", "location": {"lat": 34.277798, "lng": 108.819593}, "address": "\u738b\u5bfa\u8857\u9053\u5929\u53f0\u4e94\u8def\u738b\u5bfa\u7efc\u5408\u5e02\u573a", "province": "\u9655\u897f\u7701", "city": "\u897f\u5b89\u5e02", "area": "\u672a\u592e\u533a", "street_id": "c7ff0a539dc1434080a00c92", "detail": 1, "uid": "c7ff0a539dc1434080a00c92", "detail_info": {"tag": "\u6c7d\u8f66\u670d\u52a1;\u6c7d\u8f66\u7ef4\u4fee", "type": "life", "detail_url": "http://api.map.baidu.com/place/detail?uid=c7ff0a539dc1434080a00c92&output=html&source=placeapi_v2", "image_num": "1", "children": []}}, {"name": "\u897f\u5b89\u805a\u7396\u9f0e\u6c7d\u8f66\u8d38\u6613\u6709\u9650\u8d23\u4efb\u516c\u53f8", "location": {"lat": 34.274158, "lng": 108.83407}, "address": "\u9655\u897f\u7701\u897f\u5b89\u5e02\u672a\u592e\u533a\u963f\u623f\u4e00\u8def51\u53f7", "province": "\u9655\u897f\u7701", "city": "\u897f\u5b89\u5e02", "area": "\u672a\u592e\u533a", "street_id": "b73273bc8aadad98d72ce2d1", "detail": 1, "uid": "b73273bc8aadad98d72ce2d1", "detail_info": {"tag": "\u6c7d\u8f66\u670d\u52a1;\u6c7d\u8f66\u9500\u552e", "type": "life", "detail_url": "http://api.map.baidu.com/place/detail?uid=b73273bc8aadad98d72ce2d1&output=html&source=placeapi_v2", "image_num": "1", "children": []}}, {"name": "\u5e78\u798f\u6c7d\u8f66\u8d85\u5e02", "location": {"lat": 34.274866, "lng": 108.83568}, "address": "\u963f\u623f\u4e00\u8def89\u53f7", "province": "\u9655\u897f\u7701", "city": "\u897f\u5b89\u5e02", "area": "\u672a\u592e\u533a", "street_id": "1c3cd73022cc706df32d83fd", "detail": 1, "uid": "1c3cd73022cc706df32d83fd", "detail_info": {"tag": "\u6c7d\u8f66\u670d\u52a1;\u6c7d\u8f66\u9500\u552e", "type": "life", "detail_url": "http://api.map.baidu.com/place/detail?uid=1c3cd73022cc706df32d83fd&output=html&source=placeapi_v2", "image_num": "1", "children": []}}, {"name": "\u6052\u8fbe\u6c7d\u914d", "location": {"lat": 34.279251, "lng": 108.922369}, "address": "\u9655\u897f\u7701\u897f\u5b89\u5e02\u83b2\u6e56\u533a\u897f\u7ad9\u8def140\u53f7", "province": "\u9655\u897f\u7701", "city": "\u897f\u5b89\u5e02", "area": "\u83b2\u6e56\u533a", "street_id": "46bcf5cd5cd4601bae080f25", "detail": 1, "uid": "46bcf5cd5cd4601bae080f25", "detail_info": {"tag": "\u6c7d\u8f66\u670d\u52a1;\u6c7d\u8f66\u914d\u4ef6", "type": "life", "detail_url": "http://api.map.baidu.com/place/detail?uid=46bcf5cd5cd4601bae080f25&output=html&source=placeapi_v2", "image_num": "5", "children": []}}, {"name": "\u5ba2\u662f\u8f66\u6c7d\u8f66\u670d\u52a1\u6709\u9650\u516c\u53f8", "location": {"lat": 34.260041, "lng": 108.923181}, "address": "\u897f\u5b89\u5e02\u83b2\u6e56\u533a\u5357\u5c0f\u5df729\u53f7", "province": "\u9655\u897f\u7701", "city": "\u897f\u5b89\u5e02", "area": "\u83b2\u6e56\u533a", "street_id": "2ca81edb27be991c14948ee6", "detail": 1, "uid": "2ca81edb27be991c14948ee6", "detail_info": {"tag": "\u6c7d\u8f66\u670d\u52a1;\u6c7d\u8f66\u9500\u552e", "type": "life", "detail_url": "http://api.map.baidu.com/place/detail?uid=2ca81edb27be991c14948ee6&output=html&source=placeapi_v2", "overall_rating": "4.9", "image_num": "19", "comment_num": "17", "children": []}}, {"name": "\u548c\u7c73\u7f51\u7ea6\u8f66\u4ff1\u4e50\u90e8", "location": {"lat": 34.265362, "lng": 108.863426}, "address": "\u7ea2\u5149\u8def\u535750\u7c73", "province": "\u9655\u897f\u7701", "city": "\u897f\u5b89\u5e02", "area": "\u83b2\u6e56\u533a", "street_id": "f2b9821e28739ae80ab93a58", "detail": 1, "uid": "f2b9821e28739ae80ab93a58", "detail_info": {"tag": "\u6c7d\u8f66\u670d\u52a1;\u5176\u4ed6", "type": "life", "detail_url": "http://api.map.baidu.com/place/detail?uid=f2b9821e28739ae80ab93a58&output=html&source=placeapi_v2", "image_num": "4", "children": []}}, {"name": "\u5927\u79e6\u901a\u6c7d\u8f66\u79df\u8d41", "location": {"lat": 34.249109, "lng": 108.880759}, "address": "\u5927\u5be8\u8def8\u53f7\u6c7d\u8f66\u79df\u8d41\u5e7f\u573a", "province": "\u9655\u897f\u7701", "city": "\u897f\u5b89\u5e02", "area": "\u96c1\u5854\u533a", "detail": 1, "uid": "7a2d8693804837d7ad31e567", "detail_info": {"tag": "\u6c7d\u8f66\u670d\u52a1;\u6c7d\u8f66\u79df\u8d41", "type": "life", "detail_url": "http://api.map.baidu.com/place/detail?uid=7a2d8693804837d7ad31e567&output=html&source=placeapi_v2", "image_num": "3", "children": []}}, {"name": "\u9a70\u8fbe\u4e13\u4e1a\u94a3\u91d1\u70e4\u6f06", "location": {"lat": 34.192565, "lng": 108.918182}, "address": "\u5357\u4e09\u73af\u675c\u57ce\u6751\u5317\u53e3\u52a0\u6cb9\u7ad9\u5411\u5317200\u7c73(\u6052\u5174\u5e9f\u7eb8\u56de\u6536\u531720\u7c73)\u9644\u8fd1", "province": "\u9655\u897f\u7701", "city": "\u897f\u5b89\u5e02", "area": "\u96c1\u5854\u533a", "street_id": "7a69055b83392c63343a7104", "detail": 1, "uid": "7a69055b83392c63343a7104", "detail_info": {"tag": "\u6c7d\u8f66\u670d\u52a1;\u6c7d\u8f66\u7ef4\u4fee", "type": "life", "detail_url": "http://api.map.baidu.com/place/detail?uid=7a69055b83392c63343a7104&output=html&source=placeapi_v2", "image_num": "1", "children": []}}, {"name": "\u946b\u4ebf\u6c7d\u8f66\u670d\u52a1", "location": {"lat": 34.27592, "lng": 108.830181}, "address": "\u5929\u53f0\u56db\u8def\u4e0e\u5929\u53f0\u8def\u4ea4\u53c9\u53e3\u897f150\u7c73", "province": "\u9655\u897f\u7701", "city": "\u897f\u5b89\u5e02", "area": "\u672a\u592e\u533a", "street_id": "73bd903cdab3fcd9e856fa22", "detail": 1, "uid": "73bd903cdab3fcd9e856fa22", "detail_info": {"tag": "\u6c7d\u8f66\u670d\u52a1;\u6c7d\u8f66\u9500\u552e", "type": "life", "detail_url": "http://api.map.baidu.com/place/detail?uid=73bd903cdab3fcd9e856fa22&output=html&source=placeapi_v2", "image_num": "1", "children": []}}, {"name": "\u897f\u5b89\u5e02\u535a\u9686\u6c7d\u8f66\u670d\u52a1\u6709\u9650\u516c\u53f8", "location": {"lat": 34.218971, "lng": 108.903921}, "address": "\u79d1\u6280\u516d\u8def2\u53f7", "province": "\u9655\u897f\u7701", "city": "\u897f\u5b89\u5e02", "area": "\u96c1\u5854\u533a", "detail": 1, "uid": "d94278b700d17db39d95de9d", "detail_info": {"tag": "\u6c7d\u8f66\u670d\u52a1;\u6c7d\u8f66\u9500\u552e", "type": "life", "detail_url": "http://api.map.baidu.com/place/detail?uid=d94278b700d17db39d95de9d&output=html&source=placeapi_v2", "image_num": "1", "comment_num": "0", "children": []}}, {"name": "\u9655\u897f\u5fb7\u4f17\u6c7d\u8f66\u8d38\u6613\u6709\u9650\u516c\u53f8", "location": {"lat": 34.275586, "lng": 108.942567}, "address": "\u83b2\u6e56\u8def128\u53f7", "province": "\u9655\u897f\u7701", "city": "\u897f\u5b89\u5e02", "area": "\u83b2\u6e56\u533a", "street_id": "3a0a78bd18a52efa63180952", "telephone": "(029)87317959", "detail": 1, "uid": "3a0a78bd18a52efa63180952", "detail_info": {"tag": "\u6c7d\u8f66\u670d\u52a1;\u6c7d\u8f66\u9500\u552e", "navi_location": {"lng": 108.94252843658, "lat": 34.275750948472}, "type": "life", "detail_url": "http://api.map.baidu.com/place/detail?uid=3a0a78bd18a52efa63180952&output=html&source=placeapi_v2", "overall_rating": "3.0", "image_num": "8", "comment_num": "2", "children": []}}, {"name": "\u9655\u897f\u4eac\u5a01\u6c7d\u8f66\u9500\u552e\u670d\u52a1\u6709\u9650\u516c\u53f8", "location": {"lat": 34.277399, "lng": 108.920257}, "address": "\u52b3\u52a8\u5317\u8def15\u53f7\u6c7d\u8f66\u81ea\u9009\u5e02\u573a\u4e09\u6865\u897f\u90e8\u56fd\u9645\u8f66\u57ce", "province": "\u9655\u897f\u7701", "city": "\u897f\u5b89\u5e02", "area": "\u83b2\u6e56\u533a", "street_id": "3207e558f69ac1e8283a9f26", "telephone": "(029)88613669", "detail": 1, "uid": "3207e558f69ac1e8283a9f26", "detail_info": {"tag": "\u6c7d\u8f66\u670d\u52a1;\u6c7d\u8f66\u9500\u552e", "navi_location": {"lng": 108.92048875973, "lat": 34.27739619607}, "type": "life", "detail_url": "http://api.map.baidu.com/place/detail?uid=3207e558f69ac1e8283a9f26&output=html&source=placeapi_v2", "image_num": "6", "comment_num": "0", "children": []}}, {"name": "\u897f\u5b89\u777f\u4e4b\u661f\u6c7d\u8f66\u670d\u52a1", "location": {"lat": 34.219176, "lng": 108.908416}, "address": "\u767d\u6c99\u8def\u897f\u5b89\u96c1\u5854\u9e7f\u534e\u53e3\u8154\u8bca\u6240\u897f\u535730\u7c73", "province": "\u9655\u897f\u7701", "city": "\u897f\u5b89\u5e02", "area": "\u96c1\u5854\u533a", "street_id": "3ebf45dc4ad0cee630870a98", "telephone": "13572105554", "detail": 1, "uid": "3ebf45dc4ad0cee630870a98", "detail_info": {"tag": "\u6c7d\u8f66\u670d\u52a1;\u6c7d\u8f66\u9500\u552e", "type": "life", "detail_url": "http://api.map.baidu.com/place/detail?uid=3ebf45dc4ad0cee630870a98&output=html&source=placeapi_v2", "image_num": "7", "children": []}}, {"name": "\u8fdc\u822a\u670d\u52a1\u90e8", "location": {"lat": 34.269711, "lng": 108.883961}, "address": "\u9655\u897f\u7701\u897f\u5b89\u5e02\u83b2\u6e56\u533a\u56e2\u7ed3\u56db\u8def\u8fdc\u4e1c\u4e1c\u793e\u533a\u4e8c\u5341\u56db\u8857\u574a\u897f\u95e8", "province": "\u9655\u897f\u7701", "city": "\u897f\u5b89\u5e02", "area": "\u83b2\u6e56\u533a", "street_id": "7e80d64101e57eacc17da20f", "detail": 1, "uid": "7e80d64101e57eacc17da20f", "detail_info": {"tag": "\u6c7d\u8f66\u670d\u52a1;\u6c7d\u8f66\u7f8e\u5bb9", "type": "life", "detail_url": "http://api.map.baidu.com/place/detail?uid=7e80d64101e57eacc17da20f&output=html&source=placeapi_v2", "image_num": "2", "children": []}}, {"name": "\u76db\u6e90\u6c7d\u4fee", "location": {"lat": 34.191473, "lng": 108.914793}, "address": "\u7535\u5b50\u57ce\u8857\u9053\u5b50\u5348\u5efa\u6750\u5546\u57cea2\u6392", "province": "\u9655\u897f\u7701", "city": "\u897f\u5b89\u5e02", "area": "\u96c1\u5854\u533a", "street_id": "4847c5a3d48c743eca1b95fa", "detail": 1, "uid": "4847c5a3d48c743eca1b95fa", "detail_info": {"tag": "\u6c7d\u8f66\u670d\u52a1;\u6c7d\u8f66\u7ef4\u4fee", "type": "life", "detail_url": "http://api.map.baidu.com/place/detail?uid=4847c5a3d48c743eca1b95fa&output=html&source=placeapi_v2", "image_num": "3", "children": []}}, {"name": "\u9a70\u52a0\u6c7d\u8f66\u670d\u52a1\u4e2d\u5fc3-\u6c7d\u8f66\u7528\u54c1\u670d\u52a1\u4e2d\u5fc3", "location": {"lat": 34.256399, "lng": 108.930641}, "address": "\u592a\u767d\u5317\u8def279\u53f7", "province": "\u9655\u897f\u7701", "city": "\u897f\u5b89\u5e02", "area": "\u7891\u6797\u533a", "street_id": "ba815acf54d459416b49f3c6", "detail": 1, "uid": "ba815acf54d459416b49f3c6", "detail_info": {"tag": "\u6c7d\u8f66\u670d\u52a1;\u6c7d\u8f66\u7f8e\u5bb9", "type": "life", "detail_url": "http://api.map.baidu.com/place/detail?uid=ba815acf54d459416b49f3c6&output=html&source=placeapi_v2", "image_num": "3", "children": []}}, {"name": "\u65b0\u8f66\u4ea4\u4ed8\u533a", "location": {"lat": 34.223744, "lng": 108.894335}, "address": "\u6ca3\u60e0\u5357\u8def\u4e0e\u79d1\u6280\u4e94\u8def\u4ea4\u53c9\u53e3\u5317200\u7c73", "province": "\u9655\u897f\u7701", "city": "\u897f\u5b89\u5e02", "area": "\u96c1\u5854\u533a", "street_id": "8b855642359a2279157643d0", "detail": 1, "uid": "8b855642359a2279157643d0", "detail_info": {"tag": "\u6c7d\u8f66\u670d\u52a1", "type": "life", "detail_url": "http://api.map.baidu.com/place/detail?uid=8b855642359a2279157643d0&output=html&source=placeapi_v2", "image_num": "1", "children": []}}, {"name": "\u9526\u5b8f\u6c7d\u8f66\u670d\u52a1", "location": {"lat": 34.274817, "lng": 108.835066}, "address": "\u963f\u623f\u4e00\u8def\u4e0e\u5929\u53f0\u8def\u4ea4\u6c47\u5411\u4e1c280\u7c73", "province": "\u9655\u897f\u7701", "city": "\u897f\u5b89\u5e02", "area": "\u672a\u592e\u533a", "street_id": "b576e2240f9d132015c90540", "telephone": "13992857235", "detail": 1, "uid": "b576e2240f9d132015c90540", "detail_info": {"tag": "\u6c7d\u8f66\u670d\u52a1;\u6c7d\u8f66\u9500\u552e", "type": "life", "detail_url": "http://api.map.baidu.com/place/detail?uid=b576e2240f9d132015c90540&output=html&source=placeapi_v2", "image_num": "14", "comment_num": "1", "children": []}}, {"name": "\u8f66\u9970\u754c\u6c7d\u8f66\u7f8e\u5bb9\u88c5\u9970", "location": {"lat": 34.191579, "lng": 108.918166}, "address": "\u4e08\u675c\u8def\u4e0e\u96c1\u73af\u4e2d\u8def\u4ea4\u53c9\u53e3\u5317200\u7c73", "province": "\u9655\u897f\u7701", "city": "\u897f\u5b89\u5e02", "area": "\u96c1\u5854\u533a", "street_id": "b4e111ded19443c02b201ac6", "telephone": "15109295574,18092239538", "detail": 1, "uid": "b4e111ded19443c02b201ac6", "detail_info": {"tag": "\u6c7d\u8f66\u670d\u52a1;\u6c7d\u8f66\u7f8e\u5bb9", "type": "life", "detail_url": "http://api.map.baidu.com/place/detail?uid=b4e111ded19443c02b201ac6&output=html&source=placeapi_v2", "image_num": "2", "children": []}}, {"name": "\u946b\u6e90\u8f66\u4e1a\u6c7d\u8f66\u7f8e\u5bb9\u88c5\u749c", "location": {"lat": 34.274123, "lng": 108.833831}, "address": "\u4e09\u6865\u8857\u9053\u963f\u623f\u4e00\u8def\u897f\u53e3\u4e09\u53f7", "province": "\u9655\u897f\u7701", "city": "\u897f\u5b89\u5e02", "area": "\u672a\u592e\u533a", "street_id": "923afe223e0f90fe077ce8d3", "telephone": "15309103505", "detail": 1, "uid": "923afe223e0f90fe077ce8d3", "detail_info": {"tag": "\u6c7d\u8f66\u670d\u52a1;\u6c7d\u8f66\u7f8e\u5bb9", "type": "life", "detail_url": "http://api.map.baidu.com/place/detail?uid=923afe223e0f90fe077ce8d3&output=html&source=placeapi_v2", "image_num": "5", "children": []}}, {"name": "\u5343\u9f99\u6c7d\u914d", "location": {"lat": 34.279304, "lng": 108.924007}, "address": "\u73af\u57ce\u897f\u8def\u8857\u9053\u7389\u7965\u95e8\u5916\u897f\u7ad9\u885723\u53f7", "province": "\u9655\u897f\u7701", "city": "\u897f\u5b89\u5e02", "area": "\u83b2\u6e56\u533a", "street_id": "4bf9f2773142df2a97031995", "detail": 1, "uid": "4bf9f2773142df2a97031995", "detail_info": {"tag": "\u6c7d\u8f66\u670d\u52a1;\u6c7d\u8f66\u914d\u4ef6", "navi_location": {"lng": 108.92400638576, "lat": 34.279301652827}, "type": "life", "detail_url": "http://api.map.baidu.com/place/detail?uid=4bf9f2773142df2a97031995&output=html&source=placeapi_v2", "image_num": "10", "children": []}}, {"name": "\u901f\u6d01\u58eb\u6d17\u8f66\u884c", "location": {"lat": 34.228871, "lng": 108.856511}, "address": "\u9c7c\u6597\u8def69\u53f7\u9644\u8fd1", "province": "\u9655\u897f\u7701", "city": "\u897f\u5b89\u5e02", "area": "\u96c1\u5854\u533a", "street_id": "ace6c1a4cc02e438cb1b9597", "telephone": "13186053612", "detail": 1, "uid": "ace6c1a4cc02e438cb1b9597", "detail_info": {"tag": "\u6c7d\u8f66\u670d\u52a1;\u6c7d\u8f66\u7f8e\u5bb9", "type": "life", "detail_url": "http://api.map.baidu.com/place/detail?uid=ace6c1a4cc02e438cb1b9597&output=html&source=placeapi_v2", "image_num": "7", "children": []}}, {"name": "\u4f2f\u4e50\u4e13\u4e1a\u6c7d\u8f66\u7f8e\u5bb9\u88c5\u749c\u6b27\u534e\u6307\u5b9a\u5b89\u88c5\u70b9", "location": {"lat": 34.217308, "lng": 108.908512}, "address": "\u96c1\u5854\u533a\u9ad8\u65b0\u533a\u79d1\u6280\u516d\u8def2\u53f7", "province": "\u9655\u897f\u7701", "city": "\u897f\u5b89\u5e02", "area": "\u96c1\u5854\u533a", "street_id": "060f5e5358c66faa081cc7c3", "telephone": "18792987888", "detail": 1, "uid": "060f5e5358c66faa081cc7c3", "detail_info": {"tag": "\u6c7d\u8f66\u670d\u52a1;\u6c7d\u8f66\u7f8e\u5bb9", "navi_location": {"lng": 108.90837812913, "lat": 34.21733115987}, "type": "life", "detail_url": "http://api.map.baidu.com/place/detail?uid=060f5e5358c66faa081cc7c3&output=html&source=placeapi_v2", "overall_rating": "0.0", "image_num": "1", "comment_num": "0", "children": []}}, {"name": "\u9655\u897f\u4e94\u4e94\u6c7d\u8f66\u670d\u52a1\u6709\u9650\u516c\u53f8", "location": {"lat": 34.26487, "lng": 108.913614}, "address": "\u6ca3\u9550\u4e1c\u8def4\u53f7\u957f\u5b89\u5927\u53a65\u5c42", "province": "\u9655\u897f\u7701", "city": "\u897f\u5b89\u5e02", "area": "\u83b2\u6e56\u533a", "street_id": "cf0ea864886eb9c83ce23191", "telephone": "(029)84287833", "detail": 1, "uid": "efe637d4a6677dfa1f3894dd", "detail_info": {"tag": "\u6c7d\u8f66\u670d\u52a1;\u6c7d\u8f66\u9500\u552e", "navi_location": {"lng": 108.91373641639, "lat": 34.264957108649}, "type": "life", "detail_url": "http://api.map.baidu.com/place/detail?uid=efe637d4a6677dfa1f3894dd&output=html&source=placeapi_v2", "image_num": "4", "children": []}}, {"name": "\u96ea\u9e70\u4e8c\u624b\u8f66\u4fe1\u606f\u4e2d\u5fc3", "location": {"lat": 34.222471, "lng": 108.909246}, "address": "\u9655\u897f\u7701\u897f\u5b89\u5e02\u96c1\u5854\u533a\u79d1\u6280\u4e8c\u8def\u9644\u8fd1", "province": "\u9655\u897f\u7701", "city": "\u897f\u5b89\u5e02", "area": "\u96c1\u5854\u533a", "street_id": "126dc1030f4a39724e2fdf76", "detail": 1, "uid": "126dc1030f4a39724e2fdf76", "detail_info": {"tag": "\u6c7d\u8f66\u670d\u52a1;\u6c7d\u8f66\u9500\u552e", "type": "life", "detail_url": "http://api.map.baidu.com/place/detail?uid=126dc1030f4a39724e2fdf76&output=html&source=placeapi_v2", "image_num": "1", "children": []}}, {"name": "\u5353\u8d8a\u94c1\u827a\u4e0d\u9508\u94a2\u88c5\u9970\u90e8", "location": {"lat": 34.22711, "lng": 108.913345}, "address": "\u9655\u897f\u7701\u897f\u5b89\u5e02\u96c1\u5854\u533a\u767d\u6c99\u8def\u4e0e\u79d1\u6280\u4e8c\u8def\u4ea4\u53c9\u53e3\u4e1c\u5317150\u7c73", "province": "\u9655\u897f\u7701", "city": "\u897f\u5b89\u5e02", "area": "\u96c1\u5854\u533a", "street_id": "fea51b68872d0bebd23ce356", "telephone": "13572500124,15102908729", "detail": 1, "uid": "fea51b68872d0bebd23ce356", "detail_info": {"tag": "\u6c7d\u8f66\u670d\u52a1;\u6c7d\u8f66\u7f8e\u5bb9", "navi_location": {"lng": 108.91323282812, "lat": 34.227225189257}, "type": "life", "detail_url": "http://api.map.baidu.com/place/detail?uid=fea51b68872d0bebd23ce356&output=html&source=placeapi_v2", "image_num": "2", "children": []}}, {"name": "\u666e\u5229\u53f8\u901a\u8f6e\u80ce\u5c11\u5e05\u6c7d\u8f66\u8f6e\u80ce\u884c", "location": {"lat": 34.265697, "lng": 108.816341}, "address": "\u9655\u897f\u7701\u897f\u5b89\u5e02\u957f\u5b89\u533a\u653f\u5e9c\u5c0f\u533a\u5357\u95e8(\u963f\u623f\u5bab\u8003\u53e4\u9057\u5740\u516c\u56ed\u897f\u5357)", "province": "\u9655\u897f\u7701", "city": "\u897f\u5b89\u5e02", "area": "\u957f\u5b89\u533a", "street_id": "2658cfa4b70fc7d730169b32", "detail": 1, "uid": "3dfe7a94c4e4e6354afc8df4", "detail_info": {"tag": "\u6c7d\u8f66\u670d\u52a1;\u6c7d\u8f66\u914d\u4ef6", "type": "life", "detail_url": "http://api.map.baidu.com/place/detail?uid=3dfe7a94c4e4e6354afc8df4&output=html&source=placeapi_v2", "image_num": "6", "comment_num": "2", "children": []}}, {"name": "\u9ad8\u6027\u80fd\u5b9d\u9a6c\u6c7d\u8f66\u897f\u5b89\u4e2d\u5fc3", "location": {"lat": 34.217831, "lng": 108.897719}, "address": "\u9655\u897f\u7701\u897f\u5b89\u5e02\u96c1\u5854\u533a\u5510\u5ef6\u8def45\u53f7\u9655\u897f\u6295\u8d44\u5927\u53a61\u5c42", "province": "\u9655\u897f\u7701", "city": "\u897f\u5b89\u5e02", "area": "\u96c1\u5854\u533a", "street_id": "7783d25836988e4a3310af21", "detail": 1, "uid": "7783d25836988e4a3310af21", "detail_info": {"tag": "\u6c7d\u8f66\u670d\u52a1;\u6c7d\u8f66\u9500\u552e", "type": "life", "detail_url": "http://api.map.baidu.com/place/detail?uid=7783d25836988e4a3310af21&output=html&source=placeapi_v2", "image_num": "1", "children": []}}, {"name": "\u94ed\u7452\u4e13\u4fee\u4e2d\u534e\u5c0a\u9a70\u9a8f\u6377", "location": {"lat": 34.24778, "lng": 108.879033}, "address": "\u9655\u897f\u7701\u897f\u5b89\u5e02\u96c1\u5854\u533a\u4e08\u516b\u6c9f\u8857\u9053\u4e08\u516b\u5317\u8def10\u53f7(\u519c\u884c\u5357\u90bb)", "province": "\u9655\u897f\u7701", "city": "\u897f\u5b89\u5e02", "area": "\u96c1\u5854\u533a", "street_id": "f6b2f3adf39e147b94ec84ad", "detail": 1, "uid": "f6b2f3adf39e147b94ec84ad", "detail_info": {"tag": "\u6c7d\u8f66\u670d\u52a1;\u6c7d\u8f66\u7ef4\u4fee", "type": "life", "detail_url": "http://api.map.baidu.com/place/detail?uid=f6b2f3adf39e147b94ec84ad&output=html&source=placeapi_v2", "image_num": "4", "comment_num": "1", "children": []}}, {"name": "Iron\u827e\u620e\u56fd\u9645\u6c7d\u8f66\u4ff1\u4e50\u90e8", "location": {"lat": 34.243374, "lng": 108.813851}, "address": "\u9655\u897f\u7701\u897f\u5b89\u5e02\u957f\u5b89\u533a\u9c7c\u5316\u6c7d\u8f66\u4ea7\u4e1a\u56ed", "province": "\u9655\u897f\u7701", "city": "\u897f\u5b89\u5e02", "area": "\u957f\u5b89\u533a", "detail": 1, "uid": "e027c463347b1e7d931fc9ad", "detail_info": {"tag": "\u6c7d\u8f66\u670d\u52a1;\u6c7d\u8f66\u7f8e\u5bb9", "type": "life", "detail_url": "http://api.map.baidu.com/place/detail?uid=e027c463347b1e7d931fc9ad&output=html&source=placeapi_v2", "image_num": "5", "comment_num": "1", "children": []}}, {"name": "\u738b\u8c6a\u6c7d\u4fee", "location": {"lat": 34.215459, "lng": 109.119407}, "address": "\u9655\u897f\u7701\u897f\u5b89\u5e02\u705e\u6865\u533a\u72c4\u5be8\u8857\u9053\u72c4\u5be8\u5357\u8def\u5c0f\u5929\u9e45\u5e7c\u513f\u56ed\u9644\u8fd1", "province": "\u9655\u897f\u7701", "city": "\u897f\u5b89\u5e02", "area": "\u705e\u6865\u533a", "detail": 1, "uid": "f51303f9433eae593310afe4", "detail_info": {"tag": "\u6c7d\u8f66\u670d\u52a1;\u6c7d\u8f66\u7ef4\u4fee", "type": "life", "detail_url": "http://api.map.baidu.com/place/detail?uid=f51303f9433eae593310afe4&output=html&source=placeapi_v2", "image_num": "1", "children": []}}, {"name": "\u897f\u5b89\u5e02\u96c1\u5854\u533a\u946b\u6d77\u6c7d\u8f66\u914d\u4ef6\u9500\u552e\u90e8", "location": {"lat": 34.23634, "lng": 108.989491}, "address": "\u7ecf\u4e5d\u5357\u8def\u897f\u90e8\u5bb6\u5177\u57ceD\u533a\u535712-16\u53f7", "province": "\u9655\u897f\u7701", "city": "\u897f\u5b89\u5e02", "area": "\u96c1\u5854\u533a", "street_id": "8cfe23f6c958b25f42d63e35", "detail": 1, "uid": "8cfe23f6c958b25f42d63e35", "detail_info": {"tag": "\u6c7d\u8f66\u670d\u52a1;\u6c7d\u8f66\u914d\u4ef6", "type": "life", "detail_url": "http://api.map.baidu.com/place/detail?uid=8cfe23f6c958b25f42d63e35&output=html&source=placeapi_v2", "image_num": "6", "children": []}}, {"name": "\u65b0\u80fd\u6e90\u6c7d\u8f66", "location": {"lat": 34.235352, "lng": 109.019227}, "address": "\u516c\u56ed\u5357\u8def\u671d\u9633\u5c0f\u533a\u5bf9\u9762", "province": "\u9655\u897f\u7701", "city": "\u897f\u5b89\u5e02", "area": "\u96c1\u5854\u533a", "street_id": "22ddc40276926aa5095cb3f2", "detail": 1, "uid": "22ddc40276926aa5095cb3f2", "detail_info": {"tag": "\u6c7d\u8f66\u670d\u52a1;\u6c7d\u8f66\u79df\u8d41", "type": "life", "detail_url": "http://api.map.baidu.com/place/detail?uid=22ddc40276926aa5095cb3f2&output=html&source=placeapi_v2", "image_num": "5", "children": []}}, {"name": "\u6781\u901f\u6c7d\u8f66\u7528\u54c1", "location": {"lat": 34.17882, "lng": 108.964629}, "address": "\u97e6\u66f2\u8857\u9053\u822a\u5929\u5927\u9053\u795e\u5dde\u4e8c\u8def\u5411\u897f200\u7c73", "province": "\u9655\u897f\u7701", "city": "\u897f\u5b89\u5e02", "area": "\u957f\u5b89\u533a", "street_id": "ad69671ed3624b51bfa8221e", "detail": 1, "uid": "ad69671ed3624b51bfa8221e", "detail_info": {"tag": "\u6c7d\u8f66\u670d\u52a1;\u6c7d\u8f66\u7f8e\u5bb9", "type": "life", "detail_url": "http://api.map.baidu.com/place/detail?uid=ad69671ed3624b51bfa8221e&output=html&source=placeapi_v2", "overall_rating": "3.2", "image_num": "6", "comment_num": "1", "children": []}}, {"name": "\u9526\u714c\u6c7d\u8f66\u670d\u52a1\u516c\u53f8", "location": {"lat": 34.257031, "lng": 108.963904}, "address": "\u897f\u5b89\u5e02\u7891\u6797\u533a\u73af\u57ce\u5357\u8def\u4e2d\u6bb586\u53f7", "province": "\u9655\u897f\u7701", "city": "\u897f\u5b89\u5e02", "area": "\u7891\u6797\u533a", "street_id": "1cea15a95d4586dc06fef5a7", "detail": 1, "uid": "1cea15a95d4586dc06fef5a7", "detail_info": {"tag": "\u516c\u53f8\u4f01\u4e1a;\u516c\u53f8", "type": "life", "detail_url": "http://api.map.baidu.com/place/detail?uid=1cea15a95d4586dc06fef5a7&output=html&source=placeapi_v2", "image_num": "6", "children": []}}, {"name": "\u660e\u51ef\u4fee\u7406\u5382", "location": {"lat": 34.253854, "lng": 109.040275}, "address": "\u897f\u5b89\u5e02\u96c1\u5854\u533a\u7530\u9a6c\u8def10\u53f7", "province": "\u9655\u897f\u7701", "city": "\u897f\u5b89\u5e02", "area": "\u96c1\u5854\u533a", "street_id": "345f4525019115b26fc02c77", "telephone": "15802923947,15934861907", "detail": 1, "uid": "345f4525019115b26fc02c77", "detail_info": {"tag": "\u6c7d\u8f66\u670d\u52a1;\u6c7d\u8f66\u7ef4\u4fee", "type": "life", "detail_url": "http://api.map.baidu.com/place/detail?uid=345f4525019115b26fc02c77&output=html&source=placeapi_v2", "image_num": "13", "comment_num": "1", "children": []}}, {"name": "\u5149\u8f89\u6c7d\u4fee\u5382", "location": {"lat": 34.239824, "lng": 109.02317}, "address": "\u9655\u897f\u7701\u897f\u5b89\u5e02\u96c1\u5854\u533a\u5e78\u798f\u5357\u8def1\u53f7", "province": "\u9655\u897f\u7701", "city": "\u897f\u5b89\u5e02", "area": "\u96c1\u5854\u533a", "street_id": "d43c072465c6793dc8213d33", "detail": 1, "uid": "d43c072465c6793dc8213d33", "detail_info": {"tag": "\u6c7d\u8f66\u670d\u52a1;\u6c7d\u8f66\u7ef4\u4fee", "type": "life", "detail_url": "http://api.map.baidu.com/place/detail?uid=d43c072465c6793dc8213d33&output=html&source=placeapi_v2", "image_num": "3", "children": []}}, {"name": "\u9655\u897f\u534e\u5c71\u534e\u8fd0\u6c7d\u8f66\u9500\u552e\u6709\u9650\u8d23\u4efb\u516c\u53f8", "location": {"lat": 34.258671, "lng": 109.022868}, "address": "\u5e78\u798f\u4e2d\u8def29\u53f7", "province": "\u9655\u897f\u7701", "city": "\u897f\u5b89\u5e02", "area": "\u65b0\u57ce\u533a", "street_id": "6fddd7fda3a03f7c3517dc6f", "telephone": "(029)82281988", "detail": 1, "uid": "6fddd7fda3a03f7c3517dc6f", "detail_info": {"tag": "\u6c7d\u8f66\u670d\u52a1;\u6c7d\u8f66\u9500\u552e", "type": "life", "detail_url": "http://api.map.baidu.com/place/detail?uid=6fddd7fda3a03f7c3517dc6f&output=html&source=placeapi_v2", "image_num": "8", "comment_num": "1", "children": []}}, {"name": "\u6613\u9053\u79df\u8f66", "location": {"lat": 34.22481, "lng": 108.957169}, "address": "\u96c1\u5854\u897f\u8def101\u53f7", "province": "\u9655\u897f\u7701", "city": "\u897f\u5b89\u5e02", "area": "\u96c1\u5854\u533a", "street_id": "6b7a9ddfae1e71fdfa0cada8", "telephone": "13720607023", "detail": 1, "uid": "6b7a9ddfae1e71fdfa0cada8", "detail_info": {"tag": "\u6c7d\u8f66\u670d\u52a1;\u6c7d\u8f66\u79df\u8d41", "type": "life", "detail_url": "http://api.map.baidu.com/place/detail?uid=6b7a9ddfae1e71fdfa0cada8&output=html&source=placeapi_v2", "overall_rating": "2.2", "image_num": "36", "comment_num": "0", "children": []}}, {"name": "\u9f99\u817e\u6c7d\u79df", "location": {"lat": 34.254135, "lng": 108.998773}, "address": "\u9655\u897f\u7701\u897f\u5b89\u5e02\u7891\u6797\u533a\u4ea4\u5927\u5546\u573a\u8857\u897f(\u6587\u9038\u82d1\u5185)", "province": "\u9655\u897f\u7701", "city": "\u897f\u5b89\u5e02", "area": "\u7891\u6797\u533a", "street_id": "3207c08f816d8c9a4d776e41", "telephone": "(029)82252979", "detail": 1, "uid": "3207c08f816d8c9a4d776e41", "detail_info": {"tag": "\u6c7d\u8f66\u670d\u52a1;\u6c7d\u8f66\u79df\u8d41", "type": "life", "detail_url": "http://api.map.baidu.com/place/detail?uid=3207c08f816d8c9a4d776e41&output=html&source=placeapi_v2", "image_num": "21", "comment_num": "5", "children": []}}, {"name": "\u9ece\u660e\u6c7d\u4fee\u884c", "location": {"lat": 34.238144, "lng": 109.02335}, "address": "\u5e78\u798f\u5357\u8def2\u53f7\u9644\u8fd1", "province": "\u9655\u897f\u7701", "city": "\u897f\u5b89\u5e02", "area": "\u96c1\u5854\u533a", "street_id": "c04419a8c298c43ac42ba188", "telephone": "13572951513,18049017569", "detail": 1, "uid": "c04419a8c298c43ac42ba188", "detail_info": {"tag": "\u6c7d\u8f66\u670d\u52a1;\u6c7d\u8f66\u7ef4\u4fee", "type": "life", "detail_url": "http://api.map.baidu.com/place/detail?uid=c04419a8c298c43ac42ba188&output=html&source=placeapi_v2", "overall_rating": "0.0", "image_num": "7", "comment_num": "2", "children": []}}, {"name": "\u8d77\u6210\u6c7d\u8f66\u5fae\u4fee\u670d\u52a1", "location": {"lat": 34.265186, "lng": 109.008749}, "address": "\u97e9\u68ee\u8def7\u53f7(\u4e1c\u4e8c\u73af\u5efa\u56fd\u996d\u5e97\u5411\u4e1c300\u7c73\u8def\u5317)", "province": "\u9655\u897f\u7701", "city": "\u897f\u5b89\u5e02", "area": "\u65b0\u57ce\u533a", "telephone": "13519162296", "detail": 1, "uid": "a6457cec46c2f62cc5effb47", "detail_info": {"tag": "\u6c7d\u8f66\u670d\u52a1;\u6c7d\u8f66\u7ef4\u4fee", "type": "life", "detail_url": "http://api.map.baidu.com/place/detail?uid=a6457cec46c2f62cc5effb47&output=html&source=placeapi_v2", "image_num": "2", "comment_num": "2", "children": []}}, {"name": "\u81f4\u5c1a\u6c7d\u8f66\u7f8e\u5bb9\u88c5\u6f62", "location": {"lat": 34.261667, "lng": 108.979379}, "address": "\u897f\u5b89\u5e02\u7891\u6797\u533a\u67a3\u56ed\u5df7\u897f\u53e3", "province": "\u9655\u897f\u7701", "city": "\u897f\u5b89\u5e02", "area": "\u7891\u6797\u533a", "street_id": "1a9db5100493ae79ab175a92", "detail": 1, "uid": "1a9db5100493ae79ab175a92", "detail_info": {"tag": "\u6c7d\u8f66\u670d\u52a1;\u6c7d\u8f66\u7f8e\u5bb9", "type": "life", "detail_url": "http://api.map.baidu.com/place/detail?uid=1a9db5100493ae79ab175a92&output=html&source=placeapi_v2", "image_num": "4", "children": []}}, {"name": "\u53cc\u76ca\u6c7d\u8f66\u670d\u52a1(\u897f\u5b89\u97e9\u68ee\u8def\u5e97)", "location": {"lat": 34.26514, "lng": 109.009223}, "address": "\u97e9\u68ee\u8def\u897f\u6bb51\u53f7(\u4e92\u52a9\u8def\u7acb\u4ea4\u5411\u4e1c200\u7c73)", "province": "\u9655\u897f\u7701", "city": "\u897f\u5b89\u5e02", "area": "\u65b0\u57ce\u533a", "street_id": "33fbfa83ce0670c20bf5ebfe", "telephone": "(029)83256938", "detail": 1, "uid": "33fbfa83ce0670c20bf5ebfe", "detail_info": {"tag": "\u6c7d\u8f66\u670d\u52a1;\u6c7d\u8f66\u9500\u552e", "navi_location": {"lng": 109.00922294681, "lat": 34.26499386222}, "type": "life", "detail_url": "http://api.map.baidu.com/place/detail?uid=33fbfa83ce0670c20bf5ebfe&output=html&source=placeapi_v2", "overall_rating": "3.0", "image_num": "10", "comment_num": "1", "children": []}}, {"name": "\u5fb7\u660c\u6c7d\u4fee\u670d\u52a1\u4e2d\u5fc3", "location": {"lat": 34.236707, "lng": 109.018456}, "address": "\u9655\u897f\u7701\u897f\u5b89\u5e02\u96c1\u5854\u533a\u897f\u5b89\u5e02\u516c\u5b89\u5c40\u4ea4\u8b66\u652f\u961f\u66f2\u6c5f\u5927\u961f\u4e8b\u6545\u5904\u7406\u4e2d\u961f", "province": "\u9655\u897f\u7701", "city": "\u897f\u5b89\u5e02", "area": "\u96c1\u5854\u533a", "street_id": "a99b62a5b83f8b16ad045711", "detail": 1, "uid": "a99b62a5b83f8b16ad045711", "detail_info": {"tag": "\u6c7d\u8f66\u670d\u52a1;\u6c7d\u8f66\u7ef4\u4fee", "type": "life", "detail_url": "http://api.map.baidu.com/place/detail?uid=a99b62a5b83f8b16ad045711&output=html&source=placeapi_v2", "image_num": "11", "children": []}}, {"name": "\u6d50\u705e\u96c1\u9e23\u6e56\u56ed\u533a\u73b2\u73d1\u8f6e\u80ce(\u6052\u8fbe\u5e97)", "location": {"lat": 34.236756, "lng": 109.04229}, "address": "\u4e1c\u6708\u8def\u4e0e\u7530\u9a6c\u8def\u4ea4\u53c9\u53e3\u897f\u531750\u7c73", "province": "\u9655\u897f\u7701", "city": "\u897f\u5b89\u5e02", "area": "\u96c1\u5854\u533a", "street_id": "4d27fa77908b3a3e2811d107", "detail": 1, "uid": "4d27fa77908b3a3e2811d107", "detail_info": {"tag": "\u6c7d\u8f66\u670d\u52a1;\u6c7d\u8f66\u914d\u4ef6", "type": "life", "detail_url": "http://api.map.baidu.com/place/detail?uid=4d27fa77908b3a3e2811d107&output=html&source=placeapi_v2", "image_num": "1", "children": []}}, {"name": "\u68ee\u8bfa\u5929\u7136\u6c14\u6c7d\u8f66\u6539\u88c5\u5382", "location": {"lat": 34.256265, "lng": 109.025934}, "address": "\u54b8\u5b81\u4e1c\u8def502\u53f7", "province": "\u9655\u897f\u7701", "city": "\u897f\u5b89\u5e02", "area": "\u65b0\u57ce\u533a", "street_id": "cfaea42bdab8be94ad080f98", "telephone": "13720550577", "detail": 1, "uid": "cfaea42bdab8be94ad080f98", "detail_info": {"tag": "\u6c7d\u8f66\u670d\u52a1", "type": "life", "detail_url": "http://api.map.baidu.com/place/detail?uid=cfaea42bdab8be94ad080f98&output=html&source=placeapi_v2", "image_num": "6", "children": []}}, {"name": "\u897f\u5b89\u7533\u817e\u6c7d\u8f66\u670d\u52a1\u6709\u9650\u516c\u53f8", "location": {"lat": 34.255519, "lng": 109.056126}, "address": "\u6d50\u6cb3\u4e1c\u8def\u548c\u54b8\u5b81\u4e1c\u8def\u4ea4\u53c9\u53e3\u5411\u5357100\u7c73", "province": "\u9655\u897f\u7701", "city": "\u897f\u5b89\u5e02", "area": "\u705e\u6865\u533a", "street_id": "ebc93b36481b73d1d42ce237", "detail": 1, "uid": "28964680703209ea71455bf8", "detail_info": {"tag": "\u6c7d\u8f66\u670d\u52a1;\u6c7d\u8f66\u9500\u552e", "type": "life", "detail_url": "http://api.map.baidu.com/place/detail?uid=28964680703209ea71455bf8&output=html&source=placeapi_v2", "overall_rating": "0.0", "image_num": "7", "comment_num": "0", "children": []}}, {"name": "\u5149\u949c\u6c7d\u8f66\u670d\u52a1", "location": {"lat": 34.275524, "lng": 109.02394}, "address": "\u9655\u897f\u7701\u897f\u5b89\u5e02\u65b0\u57ce\u533a\u957f\u4e50\u4e1c\u8def169", "province": "\u9655\u897f\u7701", "city": "\u897f\u5b89\u5e02", "area": "\u65b0\u57ce\u533a", "street_id": "b2048119b1ba0ba15bf6bee4", "telephone": "18066599968", "detail": 1, "uid": "b2048119b1ba0ba15bf6bee4", "detail_info": {"tag": "\u6c7d\u8f66\u670d\u52a1;\u6c7d\u8f66\u9500\u552e", "type": "life", "detail_url": "http://api.map.baidu.com/place/detail?uid=b2048119b1ba0ba15bf6bee4&output=html&source=placeapi_v2", "image_num": "3", "children": []}}, {"name": "\u897f\u5b89\u7fd4\u60a6\u6c7d\u8f66\u79df\u8d41\u670d\u52a1\u6709\u9650\u516c\u53f8", "location": {"lat": 34.278608, "lng": 109.070659}, "address": "\u65b0\u533b\u8def\u4e0e\u7eba\u4e00\u8def\u4ea4\u53c9\u53e3\u4e1c100\u7c73", "province": "\u9655\u897f\u7701", "city": "\u897f\u5b89\u5e02", "area": "\u705e\u6865\u533a", "street_id": "ced59d16afd313b60b1cc79a", "detail": 1, "uid": "ced59d16afd313b60b1cc79a", "detail_info": {"tag": "\u6c7d\u8f66\u670d\u52a1;\u6c7d\u8f66\u79df\u8d41", "type": "life", "detail_url": "http://api.map.baidu.com/place/detail?uid=ced59d16afd313b60b1cc79a&output=html&source=placeapi_v2", "image_num": "1", "children": []}}, {"name": "\u5361\u4e50\u9014\u6c7d\u8f66\u4f1a\u6240", "location": {"lat": 34.258321, "lng": 109.04015}, "address": "\u897f\u5b89\u5e02\u54b8\u5b81\u4e1c\u8def391", "province": "\u9655\u897f\u7701", "city": "\u897f\u5b89\u5e02", "area": "\u705e\u6865\u533a", "street_id": "47ba5e2a50090376c9c3dbca", "detail": 1, "uid": "47ba5e2a50090376c9c3dbca", "detail_info": {"tag": "\u6c7d\u8f66\u670d\u52a1;\u6c7d\u8f66\u7f8e\u5bb9", "type": "life", "detail_url": "http://api.map.baidu.com/place/detail?uid=47ba5e2a50090376c9c3dbca&output=html&source=placeapi_v2", "overall_rating": "4.3", "image_num": "7", "children": []}}, {"name": "\u4f51\u798f\u79df\u8f66", "location": {"lat": 34.223728, "lng": 108.952508}, "address": "\u9655\u897f\u7701\u897f\u5b89\u5e02\u96c1\u5854\u533a\u6587\u5316\u65b0\u5929\u5730(\u957f\u5b89\u5357\u8def\u897f)", "province": "\u9655\u897f\u7701", "city": "\u897f\u5b89\u5e02", "area": "\u96c1\u5854\u533a", "street_id": "04fd1f2f7db172beddee8b5e", "telephone": "(029)85220227", "detail": 1, "uid": "04fd1f2f7db172beddee8b5e", "detail_info": {"tag": "\u6c7d\u8f66\u670d\u52a1;\u6c7d\u8f66\u79df\u8d41", "type": "life", "detail_url": "http://api.map.baidu.com/place/detail?uid=04fd1f2f7db172beddee8b5e&output=html&source=placeapi_v2", "image_num": "6", "children": []}}, {"name": "\u897f\u5b89\u7acb\u624d\u6c7d\u8f66\u670d\u52a1\u6709\u9650\u516c\u53f8", "location": {"lat": 34.250247, "lng": 108.956588}, "address": "\u4f53\u80b2\u9986\u4e1c\u8def12\u53f7", "province": "\u9655\u897f\u7701", "city": "\u897f\u5b89\u5e02", "area": "\u7891\u6797\u533a", "street_id": "b9981eaa04a8ae712fb96d58", "detail": 1, "uid": "b9981eaa04a8ae712fb96d58", "detail_info": {"tag": "\u6c7d\u8f66\u670d\u52a1;\u6c7d\u8f66\u9500\u552e", "navi_location": {"lng": 108.95672393007, "lat": 34.250402995734}, "type": "life", "detail_url": "http://api.map.baidu.com/place/detail?uid=b9981eaa04a8ae712fb96d58&output=html&source=placeapi_v2", "image_num": "5", "children": []}}, {"name": "\u5b8c\u7f8e(\u794e\u7f8e\u65e5\u7528\u54c1\u5546\u884c)", "location": {"lat": 34.244125, "lng": 108.955222}, "address": "\u8349\u573a\u5761\u6c38\u5b81\u8def\u6469\u767b\u4e3b\u573a", "province": "\u9655\u897f\u7701", "city": "\u897f\u5b89\u5e02", "area": "\u7891\u6797\u533a", "street_id": "e6ffef998428b794cc06a480", "detail": 1, "uid": "e6ffef998428b794cc06a480", "detail_info": {"tag": "\u6c7d\u8f66\u670d\u52a1;\u6c7d\u8f66\u7f8e\u5bb9", "type": "life", "detail_url": "http://api.map.baidu.com/place/detail?uid=e6ffef998428b794cc06a480&output=html&source=placeapi_v2", "image_num": "8", "children": []}}, {"name": "\u4e09\u5229\u6c7d\u79df", "location": {"lat": 34.2627, "lng": 109.022844}, "address": "\u897f\u5b89\u5e02\u65b0\u57ce\u533a\u5e78\u798f\u4e2d\u8def47", "province": "\u9655\u897f\u7701", "city": "\u897f\u5b89\u5e02", "area": "\u65b0\u57ce\u533a", "street_id": "f60a15edf17942ecbb17e729", "telephone": "(029)83253787,15309239993", "detail": 1, "uid": "f60a15edf17942ecbb17e729", "detail_info": {"tag": "\u6c7d\u8f66\u670d\u52a1;\u6c7d\u8f66\u79df\u8d41", "type": "life", "detail_url": "http://api.map.baidu.com/place/detail?uid=f60a15edf17942ecbb17e729&output=html&source=placeapi_v2", "image_num": "12", "comment_num": "2", "children": []}}, {"name": "\u9a86\u9a7c\u7535\u74f6", "location": {"lat": 34.253473, "lng": 109.042049}, "address": "\u7530\u9a6c\u8def1\u53f7\u9644\u8fd1", "province": "\u9655\u897f\u7701", "city": "\u897f\u5b89\u5e02", "area": "\u96c1\u5854\u533a", "street_id": "a0f111b56bc959dc79b55cde", "detail": 1, "uid": "a0f111b56bc959dc79b55cde", "detail_info": {"tag": "\u6c7d\u8f66\u670d\u52a1;\u6c7d\u8f66\u914d\u4ef6", "type": "life", "detail_url": "http://api.map.baidu.com/place/detail?uid=a0f111b56bc959dc79b55cde&output=html&source=placeapi_v2", "image_num": "2", "children": []}}, {"name": "\u8001\u9b4f\u7535\u74f6\u8f6e\u80ce\u7535\u5668", "location": {"lat": 34.25322, "lng": 108.979022}, "address": "\u592a\u4e59\u8def245\u53f7", "province": "\u9655\u897f\u7701", "city": "\u897f\u5b89\u5e02", "area": "\u7891\u6797\u533a", "street_id": "58225b69404d618204fef5bc", "telephone": "13359203462", "detail": 1, "uid": "58225b69404d618204fef5bc", "detail_info": {"tag": "\u6c7d\u8f66\u670d\u52a1;\u6c7d\u8f66\u914d\u4ef6", "type": "life", "detail_url": "http://api.map.baidu.com/place/detail?uid=58225b69404d618204fef5bc&output=html&source=placeapi_v2", "image_num": "4", "comment_num": "1", "children": []}}, {"name": "\u5b9d\u9a7e\u79df\u8f66(\u897f\u5b89\u5e97)", "location": {"lat": 34.250015, "lng": 108.95281}, "address": "\u957f\u5b89\u5317\u8def\u4e2d\u8d38\u5e7f\u573a15\u53f7\u697c2\u5355\u51431504\u5ba4", "province": "\u9655\u897f\u7701", "city": "\u897f\u5b89\u5e02", "area": "\u7891\u6797\u533a", "street_id": "65a7923514421ac74e776e2e", "detail": 1, "uid": "65a7923514421ac74e776e2e", "detail_info": {"tag": "\u6c7d\u8f66\u670d\u52a1;\u6c7d\u8f66\u79df\u8d41", "type": "life", "detail_url": "http://api.map.baidu.com/place/detail?uid=65a7923514421ac74e776e2e&output=html&source=placeapi_v2", "image_num": "1", "children": []}}, {"name": "\u500d\u8010\u529b\u8f6e\u80ce", "location": {"lat": 34.275452, "lng": 109.023535}, "address": "\u897f\u5b89\u5e02\u65b0\u57ce\u533a\u9ec4\u6cb3\u6e29\u6cc9\u5c0f\u533a2\u53f7", "province": "\u9655\u897f\u7701", "city": "\u897f\u5b89\u5e02", "area": "\u65b0\u57ce\u533a", "street_id": "afeafc8b47107bff9322e0f8", "detail": 1, "uid": "afeafc8b47107bff9322e0f8", "detail_info": {"tag": "\u6c7d\u8f66\u670d\u52a1;\u6c7d\u8f66\u914d\u4ef6", "type": "life", "detail_url": "http://api.map.baidu.com/place/detail?uid=afeafc8b47107bff9322e0f8&output=html&source=placeapi_v2", "image_num": "2", "comment_num": "1", "children": []}}, {"name": "\u4e07\u76db\u6c7d\u8f66\u79df\u8d41", "location": {"lat": 34.224856, "lng": 108.958831}, "address": "\u96c1\u5854\u897f\u8def75\u53f7", "province": "\u9655\u897f\u7701", "city": "\u897f\u5b89\u5e02", "area": "\u96c1\u5854\u533a", "street_id": "f757e6ee494e9469260bd003", "telephone": "(029)85427309", "detail": 1, "uid": "f757e6ee494e9469260bd003", "detail_info": {"tag": "\u6c7d\u8f66\u670d\u52a1;\u6c7d\u8f66\u79df\u8d41", "type": "life", "detail_url": "http://api.map.baidu.com/place/detail?uid=f757e6ee494e9469260bd003&output=html&source=placeapi_v2", "overall_rating": "1.0", "image_num": "23", "comment_num": "2", "children": []}}, {"name": "\u805a\u6ea2\u8fc8\u6c7d\u914d", "location": {"lat": 34.241108, "lng": 109.041259}, "address": "\u9655\u897f\u7701\u897f\u5b89\u5e02\u96c1\u5854\u533a\u65b0\u5174\u5357\u8def\u4e0e\u7530\u9a6c\u8def\u4ea4\u53c9\u53e3\u5317100\u7c73", "province": "\u9655\u897f\u7701", "city": "\u897f\u5b89\u5e02", "area": "\u96c1\u5854\u533a", "street_id": "a167f35276b924c8cf06a48f", "detail": 1, "uid": "a167f35276b924c8cf06a48f", "detail_info": {"tag": "\u6c7d\u8f66\u670d\u52a1;\u6c7d\u8f66\u914d\u4ef6", "navi_location": {"lng": 109.04111074967, "lat": 34.241159743148}, "type": "life", "detail_url": "http://api.map.baidu.com/place/detail?uid=a167f35276b924c8cf06a48f&output=html&source=placeapi_v2", "image_num": "9", "children": []}}, {"name": "\u9655\u897f\u535a\u4e50\u6c7d\u8f66\u5bfc\u822a\u5f71\u97f3", "location": {"lat": 34.261221, "lng": 109.033744}, "address": "\u54b8\u5b81\u4e1c\u8def(\u536b\u661f\u6d4b\u63a7\u4e2d\u5fc3\u5bf9\u9762)609\u53f7", "province": "\u9655\u897f\u7701", "city": "\u897f\u5b89\u5e02", "area": "\u65b0\u57ce\u533a", "street_id": "3fa93c14e53429a29ff779db", "detail": 1, "uid": "3fa93c14e53429a29ff779db", "detail_info": {"tag": "\u6c7d\u8f66\u670d\u52a1;\u6c7d\u8f66\u914d\u4ef6", "type": "life", "detail_url": "http://api.map.baidu.com/place/detail?uid=3fa93c14e53429a29ff779db&output=html&source=placeapi_v2", "image_num": "5", "children": []}}, {"name": "\u9f99\u658c\u79df\u8f66", "location": {"lat": 34.221979, "lng": 108.952702}, "address": "\u957f\u5b89\u5357\u8def2\u53f7\u9644\u8fd1", "province": "\u9655\u897f\u7701", "city": "\u897f\u5b89\u5e02", "area": "\u96c1\u5854\u533a", "street_id": "be1220f1e94e60352bd7abb9", "telephone": "17189060000", "detail": 1, "uid": "be1220f1e94e60352bd7abb9", "detail_info": {"tag": "\u6c7d\u8f66\u670d\u52a1;\u6c7d\u8f66\u79df\u8d41", "type": "life", "detail_url": "http://api.map.baidu.com/place/detail?uid=be1220f1e94e60352bd7abb9&output=html&source=placeapi_v2", "image_num": "4", "children": []}}, {"name": "\u897f\u5b89\u6d77\u901a\u6c7d\u8f66\u7ef4\u4fee\u516c\u53f8", "location": {"lat": 34.218545, "lng": 109.058227}, "address": "\u9655\u897f\u7701\u897f\u5b89\u5e02\u705e\u6865\u533a\u6d50\u6cb3\u5927\u6865", "province": "\u9655\u897f\u7701", "city": "\u897f\u5b89\u5e02", "area": "\u705e\u6865\u533a", "detail": 1, "uid": "5cc4b5add027609a8f55ec02", "detail_info": {"tag": "\u6c7d\u8f66\u670d\u52a1;\u6c7d\u8f66\u7ef4\u4fee", "type": "life", "detail_url": "http://api.map.baidu.com/place/detail?uid=5cc4b5add027609a8f55ec02&output=html&source=placeapi_v2", "image_num": "1", "children": []}}, {"name": "\u79e6\u6e90\u6c7d\u79df", "location": {"lat": 34.22483, "lng": 108.957913}, "address": "\u96c1\u5854\u897f\u8def93", "province": "\u9655\u897f\u7701", "city": "\u897f\u5b89\u5e02", "area": "\u96c1\u5854\u533a", "street_id": "cdef4edf382bd05728d7ab64", "telephone": "(029)85219836", "detail": 1, "uid": "cdef4edf382bd05728d7ab64", "detail_info": {"tag": "\u6c7d\u8f66\u670d\u52a1;\u6c7d\u8f66\u79df\u8d41", "type": "life", "detail_url": "http://api.map.baidu.com/place/detail?uid=cdef4edf382bd05728d7ab64&output=html&source=placeapi_v2", "image_num": "9", "comment_num": "2", "children": []}}, {"name": "\u9093\u7984\u666e\u8f6e\u80ce\u5fa1\u98ce\u8f6e\u80ce\u5e97", "location": {"lat": 34.272977, "lng": 108.992425}, "address": "\u9655\u897f\u7701\u897f\u5b89\u5e02\u65b0\u57ce\u533a\u6c38\u4e50\u8def8-9\u53f7", "province": "\u9655\u897f\u7701", "city": "\u897f\u5b89\u5e02", "area": "\u65b0\u57ce\u533a", "street_id": "38b586f21b54605ad4851f66", "telephone": "18966871964", "detail": 1, "uid": "27a301bae65df06d1d1d1128", "detail_info": {"tag": "\u6c7d\u8f66\u670d\u52a1;\u6c7d\u8f66\u914d\u4ef6", "navi_location": {"lng": 108.99238122855, "lat": 34.273160337516}, "type": "life", "detail_url": "http://api.map.baidu.com/place/detail?uid=27a301bae65df06d1d1d1128&output=html&source=placeapi_v2", "overall_rating": "5.0", "image_num": "8", "comment_num": "5", "children": []}}, {"name": "\u7f8e\u4f73\u5a1c\u7f8e\u5bb9\u6709\u9650\u516c\u53f8", "location": {"lat": 34.265165, "lng": 108.976405}, "address": "\u4e1c\u5927\u8857\u4e00\u53f7\u65b9\u5927\u7f8e\u535a\u57ce3\u697c(\u4e1c\u95e8\u5e7f\u573a)", "province": "\u9655\u897f\u7701", "city": "\u897f\u5b89\u5e02", "area": "\u7891\u6797\u533a", "street_id": "17cb68cec1870372d8d891d4", "detail": 1, "uid": "17cb68cec1870372d8d891d4", "detail_info": {"tag": "\u6c7d\u8f66\u670d\u52a1;\u6c7d\u8f66\u7f8e\u5bb9", "type": "life", "detail_url": "http://api.map.baidu.com/place/detail?uid=17cb68cec1870372d8d891d4&output=html&source=placeapi_v2", "image_num": "1", "children": []}}, {"name": "\u897f\u5b89\u5e02\u76db\u6cf0\u6c7d\u8f66\u670d\u52a1\u6709\u9650\u516c\u53f8", "location": {"lat": 34.269955, "lng": 109.020758}, "address": "\u4e07\u5bff\u4e2d\u8def80\u53f7\u4e07\u5bff\u8def\u5730\u94c1\u5357300\u7c73\u8def\u897f", "province": "\u9655\u897f\u7701", "city": "\u897f\u5b89\u5e02", "area": "\u65b0\u57ce\u533a", "street_id": "781d53897b415b6de8e58274", "telephone": "13892880359", "detail": 1, "uid": "781d53897b415b6de8e58274", "detail_info": {"tag": "\u6c7d\u8f66\u670d\u52a1;\u6c7d\u8f66\u9500\u552e", "type": "life", "detail_url": "http://api.map.baidu.com/place/detail?uid=781d53897b415b6de8e58274&output=html&source=placeapi_v2", "image_num": "7", "children": []}}, {"name": "\u5965\u6797\u5df4\u65af(\u5317\u4eac)\u9500\u552e\u670d\u52a1\u6709\u9650\u516c\u53f8\u897f\u5b89\u529e\u4e8b\u5904", "location": {"lat": 34.263513, "lng": 108.969792}, "address": "\u548c\u5e73\u8def99\u53f7\u91d1\u946b\u56fd\u96458\u5c42807\uff5e810", "province": "\u9655\u897f\u7701", "city": "\u897f\u5b89\u5e02", "area": "\u7891\u6797\u533a", "street_id": "b0100c83cd19fd589dec2bcb", "detail": 1, "uid": "b0100c83cd19fd589dec2bcb", "detail_info": {"tag": "\u6c7d\u8f66\u670d\u52a1;\u6c7d\u8f66\u9500\u552e", "type": "life", "detail_url": "http://api.map.baidu.com/place/detail?uid=b0100c83cd19fd589dec2bcb&output=html&source=placeapi_v2", "image_num": "1", "children": []}}, {"name": "\u9655\u897f\u795e\u5dde\u901a\u8fbe\u6c7d\u8f66\u670d\u52a1\u6709\u9650\u516c\u53f8", "location": {"lat": 34.217753, "lng": 108.956132}, "address": "\u9655\u897f\u7701\u897f\u5b89\u5e02\u96c1\u5854\u533a\u96c1\u5357\u4e00\u8def\u897f\u6bb5\u897f\u5b89\u5e02\u7b2c\u4e5d\u5341\u4e5d\u4e2d\u5b66", "province": "\u9655\u897f\u7701", "city": "\u897f\u5b89\u5e02", "area": "\u96c1\u5854\u533a", "street_id": "07d9014e91ddda3a4bcc4acf", "telephone": "4000981615", "detail": 1, "uid": "07d9014e91ddda3a4bcc4acf", "detail_info": {"tag": "\u6c7d\u8f66\u670d\u52a1;\u6c7d\u8f66\u79df\u8d41", "type": "life", "detail_url": "http://api.map.baidu.com/place/detail?uid=07d9014e91ddda3a4bcc4acf&output=html&source=placeapi_v2", "image_num": "5", "children": []}}, {"name": "\u4e13\u4e1a\u6c7d\u8f66\u5c3e\u6c14\u6cbb\u7406", "location": {"lat": 34.225009, "lng": 109.034339}, "address": "\u957f\u9e23\u8def70\u53f7\u9644\u8fd1", "province": "\u9655\u897f\u7701", "city": "\u897f\u5b89\u5e02", "area": "\u96c1\u5854\u533a", "street_id": "33d7146aa2e19b033b13fd93", "detail": 1, "uid": "33d7146aa2e19b033b13fd93", "detail_info": {"tag": "\u6c7d\u8f66\u670d\u52a1", "type": "life", "detail_url": "http://api.map.baidu.com/place/detail?uid=33d7146aa2e19b033b13fd93&output=html&source=placeapi_v2", "image_num": "1", "children": []}}, {"name": "\u7c73\u5176\u6797\u8f6e\u80ce", "location": {"lat": 34.275512, "lng": 109.023732}, "address": "\u957f\u4e50\u4e1c\u8def\u9ec4\u6cb3\u6e29\u6cc9\u5c0f\u533a1\u53f7\u5546\u94fa", "province": "\u9655\u897f\u7701", "city": "\u897f\u5b89\u5e02", "area": "\u65b0\u57ce\u533a", "street_id": "20d199858ef0ccf54d776ee1", "telephone": "(029)82518222", "detail": 1, "uid": "20d199858ef0ccf54d776ee1", "detail_info": {"tag": "\u6c7d\u8f66\u670d\u52a1;\u6c7d\u8f66\u914d\u4ef6", "type": "life", "detail_url": "http://api.map.baidu.com/place/detail?uid=20d199858ef0ccf54d776ee1&output=html&source=placeapi_v2", "image_num": "2", "comment_num": "1", "children": []}}, {"name": "\u9655\u897f\u7701\u673a\u52a8\u8f66\u8f86\u68c0\u6d4b\u534f\u4f1a", "location": {"lat": 34.25697, "lng": 108.984751}, "address": "\u54b8\u5b81\u897f\u8def30\u53f7\u9655\u897f\u7701\u8d28\u68c0\u5927\u53a617\u5c42", "province": "\u9655\u897f\u7701", "city": "\u897f\u5b89\u5e02", "area": "\u7891\u6797\u533a", "street_id": "3ef00174bf8d6402bca822be", "detail": 1, "uid": "3ef00174bf8d6402bca822be", "detail_info": {"tag": "\u6c7d\u8f66\u670d\u52a1;\u6c7d\u8f66\u68c0\u6d4b\u573a", "type": "life", "detail_url": "http://api.map.baidu.com/place/detail?uid=3ef00174bf8d6402bca822be&output=html&source=placeapi_v2", "image_num": "1", "children": []}}, {"name": "\u8f66\u9053\u8f66\u5fb7\u6c7d\u8f66\u670d\u52a1\u6709\u9650\u516c\u53f8", "location": {"lat": 34.239277, "lng": 108.99111}, "address": "\u9752\u9f99\u5c0f\u533a\u5357\u95e8\u659c\u5bf9\u9762", "province": "\u9655\u897f\u7701", "city": "\u897f\u5b89\u5e02", "area": "\u96c1\u5854\u533a", "street_id": "ba5db03d134b0e32e60738e5", "detail": 1, "uid": "ba5db03d134b0e32e60738e5", "detail_info": {"tag": "\u6c7d\u8f66\u670d\u52a1;\u6c7d\u8f66\u9500\u552e", "navi_location": {"lng": 108.99103484826, "lat": 34.2394670555}, "type": "life", "detail_url": "http://api.map.baidu.com/place/detail?uid=ba5db03d134b0e32e60738e5&output=html&source=placeapi_v2", "image_num": "12", "comment_num": "2", "children": []}}, {"name": "\u5927\u8c61\u6c7d\u8f66\u670d\u52a1", "location": {"lat": 34.21558, "lng": 108.959641}, "address": "\u7fe0\u534e\u5357\u8def44\u53f7\u897f\u5b89\u8d22\u7ecf\u5b66\u9662\u56fe\u4e66\u9986\u9644\u8fd1", "province": "\u9655\u897f\u7701", "city": "\u897f\u5b89\u5e02", "area": "\u96c1\u5854\u533a", "street_id": "192b20241e232d1f9d09f7b9", "telephone": "13669202223", "detail": 1, "uid": "192b20241e232d1f9d09f7b9", "detail_info": {"tag": "\u6c7d\u8f66\u670d\u52a1;\u6c7d\u8f66\u9500\u552e", "type": "life", "detail_url": "http://api.map.baidu.com/place/detail?uid=192b20241e232d1f9d09f7b9&output=html&source=placeapi_v2", "image_num": "4", "children": []}}, {"name": "\u897f\u5b89\u6377\u80dc\u6c7d\u8f66\u7ef4\u4fee\u670d\u52a1\u6709\u9650\u516c\u53f8", "location": {"lat": 34.259085, "lng": 109.06264}, "address": "\u4e1c\u4e09\u73af\u7a46\u5c06\u738b\u7acb\u4ea4\u4e1c\u5317\u89d2\u4e94\u91cc\u67513\u53f7", "province": "\u9655\u897f\u7701", "city": "\u897f\u5b89\u5e02", "area": "\u705e\u6865\u533a", "street_id": "d22331727b467f5715c9055e", "detail": 1, "uid": "d22331727b467f5715c9055e", "detail_info": {"tag": "\u6c7d\u8f66\u670d\u52a1;\u6c7d\u8f66\u7ef4\u4fee", "type": "life", "detail_url": "http://api.map.baidu.com/place/detail?uid=d22331727b467f5715c9055e&output=html&source=placeapi_v2", "image_num": "1", "children": []}}, {"name": "\u76db\u4e16\u6c7d\u8f66\u79df\u8d41", "location": {"lat": 34.257039, "lng": 108.974072}, "address": "\u7891\u6797\u533a\u73af\u57ce\u5357\u8def\u4e1c\u6bb566\u53f71\u697c", "province": "\u9655\u897f\u7701", "city": "\u897f\u5b89\u5e02", "area": "\u7891\u6797\u533a", "street_id": "34b3c59f54af6f790ba8d4a0", "telephone": "(029)82211703,(029)88089567", "detail": 1, "uid": "34b3c59f54af6f790ba8d4a0", "detail_info": {"tag": "\u6c7d\u8f66\u670d\u52a1;\u6c7d\u8f66\u79df\u8d41", "navi_location": {"lng": 108.97511941233, "lat": 34.257275308309}, "type": "life", "detail_url": "http://api.map.baidu.com/place/detail?uid=34b3c59f54af6f790ba8d4a0&output=html&source=placeapi_v2", "overall_rating": "3.2", "image_num": "8", "comment_num": "0", "children": []}}, {"name": "\u7eb3\u667a\u6377\u897f\u5b89\u4e16\u7eaa\u5e7f\u9686\u6c7d\u8f66\u751f\u6d3b\u9986", "location": {"lat": 34.249267, "lng": 109.004937}, "address": "\u897f\u5b89\u5e02\u7891\u6797\u533a\u5efa\u5de5\u8def3\u53f7\uff08\u91d1\u6d77\u5cb8\u9152\u697c\u4e00\u5c42\uff09", "province": "\u9655\u897f\u7701", "city": "\u897f\u5b89\u5e02", "area": "\u7891\u6797\u533a", "street_id": "a028e1c4af8182a9a4c756bf", "detail": 1, "uid": "a028e1c4af8182a9a4c756bf", "detail_info": {"tag": "\u6c7d\u8f66\u670d\u52a1;\u6c7d\u8f66\u7f8e\u5bb9", "navi_location": {"lng": 109.0046125968, "lat": 34.249321312089}, "type": "life", "detail_url": "http://api.map.baidu.com/place/detail?uid=a028e1c4af8182a9a4c756bf&output=html&source=placeapi_v2", "image_num": "13", "comment_num": "3", "children": []}}, {"name": "\u897f\u5b89\u5e02\u9ec4\u6807\u8f66\u8001\u65e7\u8f66\u63d0\u524d\u6dd8\u6c70\u8865\u8d34\u8054\u5408\u670d\u52a1\u529e\u516c\u5ba4", "location": {"lat": 34.182857, "lng": 109.019649}, "address": "\u9655\u897f\u7701\u897f\u5b89\u5e02\u957f\u5b89\u533a\u96c1\u5f15\u8def", "province": "\u9655\u897f\u7701", "city": "\u897f\u5b89\u5e02", "area": "\u957f\u5b89\u533a", "detail": 1, "uid": "bbcb6ea8e372fbd68c1a8933", "detail_info": {"tag": "\u6c7d\u8f66\u670d\u52a1", "type": "life", "detail_url": "http://api.map.baidu.com/place/detail?uid=bbcb6ea8e372fbd68c1a8933&output=html&source=placeapi_v2", "image_num": "3", "comment_num": "1", "children": []}}, {"name": "\u8f66\u7ba1\u5bb6\u6c7d\u8f66\u670d\u52a1\u90e8", "location": {"lat": 34.178189, "lng": 108.964519}, "address": "\u9655\u897f\u7701\u897f\u5b89\u5e02\u957f\u5b89\u533a\u822a\u5929\u5927\u9053\u4e2d\u6bb5", "province": "\u9655\u897f\u7701", "city": "\u897f\u5b89\u5e02", "area": "\u957f\u5b89\u533a", "street_id": "a5d7a339c0bae2fe2b3a9f63", "detail": 1, "uid": "a5d7a339c0bae2fe2b3a9f63", "detail_info": {"tag": "\u6c7d\u8f66\u670d\u52a1;\u6c7d\u8f66\u7f8e\u5bb9", "type": "life", "detail_url": "http://api.map.baidu.com/place/detail?uid=a5d7a339c0bae2fe2b3a9f63&output=html&source=placeapi_v2", "overall_rating": "3.8", "image_num": "20", "comment_num": "3", "children": []}}, {"name": "\u8dd1\u9177\u8f66\u53cb\u4ff1\u4e50\u90e8", "location": {"lat": 34.260901, "lng": 109.033596}, "address": "\u897f\u5b89\u5e02\u65b0\u57ce\u533a\u9e3f\u745e\u6797\u88c5\u6f62\u533a3\u63929~10\u53f7", "province": "\u9655\u897f\u7701", "city": "\u897f\u5b89\u5e02", "area": "\u65b0\u57ce\u533a", "street_id": "ba80c204b584619a88b9881d", "telephone": "15829234971,18049666674,13572076785", "detail": 1, "uid": "ba80c204b584619a88b9881d", "detail_info": {"tag": "\u6c7d\u8f66\u670d\u52a1;\u5176\u4ed6", "navi_location": {"lng": 109.03317350185, "lat": 34.260864614035}, "type": "life", "detail_url": "http://api.map.baidu.com/place/detail?uid=ba80c204b584619a88b9881d&output=html&source=placeapi_v2", "image_num": "11", "comment_num": "1", "children": []}}, {"name": "\u4f17\u5174\u6c7d\u4fee", "location": {"lat": 34.257049, "lng": 109.025498}, "address": "\u54b8\u5b81\u4e1c\u8def657\u53f7", "province": "\u9655\u897f\u7701", "city": "\u897f\u5b89\u5e02", "area": "\u65b0\u57ce\u533a", "street_id": "a74481d6407a6845f503b86f", "detail": 1, "uid": "a74481d6407a6845f503b86f", "detail_info": {"tag": "\u6c7d\u8f66\u670d\u52a1;\u6c7d\u8f66\u7ef4\u4fee", "type": "life", "detail_url": "http://api.map.baidu.com/place/detail?uid=a74481d6407a6845f503b86f&output=html&source=placeapi_v2", "overall_rating": "2.9", "image_num": "12", "comment_num": "0", "children": []}}, {"name": "\u65b0\u4f17\u8fbe\u6c7d\u8f66\u670d\u52a1\u4e2d\u5fc3", "location": {"lat": 34.254222, "lng": 108.974983}, "address": "\u592a\u4e59\u8def\u8857\u9053\u6807\u65b0\u88571\u53f7", "province": "\u9655\u897f\u7701", "city": "\u897f\u5b89\u5e02", "area": "\u7891\u6797\u533a", "street_id": "ceaf7682a1d72bdb15a190ba", "telephone": "15129566966", "detail": 1, "uid": "ceaf7682a1d72bdb15a190ba", "detail_info": {"tag": "\u6c7d\u8f66\u670d\u52a1;\u6c7d\u8f66\u7f8e\u5bb9", "type": "life", "detail_url": "http://api.map.baidu.com/place/detail?uid=ceaf7682a1d72bdb15a190ba&output=html&source=placeapi_v2", "image_num": "8", "children": []}}, {"name": "\u661f\u6e90\u4e13\u4e1a\u94a3\u91d1\u4e2d\u5fc3", "location": {"lat": 34.277094, "lng": 109.041452}, "address": "\u9655\u897f\u7701\u897f\u5b89\u5e02\u705e\u6865\u533a\u6c81\u6c34\u8def", "province": "\u9655\u897f\u7701", "city": "\u897f\u5b89\u5e02", "area": "\u705e\u6865\u533a", "street_id": "aa4e9227076ed74d79dbd23b", "detail": 1, "uid": "aa4e9227076ed74d79dbd23b", "detail_info": {"tag": "\u6c7d\u8f66\u670d\u52a1;\u6c7d\u8f66\u7f8e\u5bb9", "type": "life", "detail_url": "http://api.map.baidu.com/place/detail?uid=aa4e9227076ed74d79dbd23b&output=html&source=placeapi_v2", "image_num": "3", "children": []}}, {"name": "\u897f\u5b89\u5e02\u9e4f\u51ef\u6c7d\u8f66\u7528\u54c1\u5e97", "location": {"lat": 34.261277, "lng": 109.033937}, "address": "\u9655\u897f\u7701\u897f\u5b89\u5e02\u65b0\u57ce\u533a\u79e6\u82d1\u5c0f\u533a(\u54b8\u5b81\u4e1c\u8def\u5317)", "province": "\u9655\u897f\u7701", "city": "\u897f\u5b89\u5e02", "area": "\u65b0\u57ce\u533a", "street_id": "37035863d8473dfa30f71d9e", "telephone": "13659185086", "detail": 1, "uid": "37035863d8473dfa30f71d9e", "detail_info": {"tag": "\u6c7d\u8f66\u670d\u52a1", "type": "life", "detail_url": "http://api.map.baidu.com/place/detail?uid=37035863d8473dfa30f71d9e&output=html&source=placeapi_v2", "image_num": "5", "children": []}}, {"name": "\u884c\u8005\u9a7f\u7ad9\u6c7d\u8f66\u767e\u8d27(\u54b8\u5b81\u4e1c\u8def\u5e97)", "location": {"lat": 34.258455, "lng": 109.040284}, "address": "\u54b8\u5b81\u4e1c\u8def391\u53f7,\u54b8\u5b81\u4e1c\u8def\u4e0e\u7530\u9a6c\u8def\u5341\u5b57\u5411\u5317200\u7c73\u8def\u4e1c", "province": "\u9655\u897f\u7701", "city": "\u897f\u5b89\u5e02", "area": "\u705e\u6865\u533a", "street_id": "5c517f238b30129e047ce8d7", "detail": 1, "uid": "5c517f238b30129e047ce8d7", "detail_info": {"tag": "\u6c7d\u8f66\u670d\u52a1;\u6c7d\u8f66\u7f8e\u5bb9", "type": "life", "detail_url": "http://api.map.baidu.com/place/detail?uid=5c517f238b30129e047ce8d7&output=html&source=placeapi_v2", "image_num": "4", "children": []}}, {"name": "\u897f\u5b89\u5e02\u822a\u5929\u57fa\u5730\u822a\u6807\u6c7d\u8f66\u670d\u52a1\u4e2d\u5fc3", "location": {"lat": 34.178098, "lng": 108.964464}, "address": "\u822a\u5929\u897f\u8def\u5317\u53e3\u4e1c200\u7c73", "province": "\u9655\u897f\u7701", "city": "\u897f\u5b89\u5e02", "area": "\u957f\u5b89\u533a", "street_id": "09b194353a793143ddee8b68", "detail": 1, "uid": "09b194353a793143ddee8b68", "detail_info": {"tag": "\u6c7d\u8f66\u670d\u52a1;\u6c7d\u8f66\u7f8e\u5bb9", "type": "life", "detail_url": "http://api.map.baidu.com/place/detail?uid=09b194353a793143ddee8b68&output=html&source=placeapi_v2", "overall_rating": "3.0", "image_num": "11", "comment_num": "2", "children": []}}, {"name": "\u4f1f\u6210\u94a3\u91d1\u55b7\u6f06", "location": {"lat": 34.230074, "lng": 109.03093}, "address": "\u957f\u9e23\u8def\u4e2d\u6bb5", "province": "\u9655\u897f\u7701", "city": "\u897f\u5b89\u5e02", "area": "\u96c1\u5854\u533a", "street_id": "40aaf3916ec616fe96ca079d", "telephone": "13379091393", "detail": 1, "uid": "40aaf3916ec616fe96ca079d", "detail_info": {"tag": "\u6c7d\u8f66\u670d\u52a1;\u6c7d\u8f66\u7ef4\u4fee", "type": "life", "detail_url": "http://api.map.baidu.com/place/detail?uid=40aaf3916ec616fe96ca079d&output=html&source=placeapi_v2", "image_num": "7", "comment_num": "2", "children": []}}, {"name": "\u5947\u9a8f\u6c7d\u79df", "location": {"lat": 34.245839, "lng": 108.978474}, "address": "\u592a\u4e59\u8def70\u53f7", "province": "\u9655\u897f\u7701", "city": "\u897f\u5b89\u5e02", "area": "\u7891\u6797\u533a", "street_id": "383191035734dd0cd52ce27a", "telephone": "13630253857", "detail": 1, "uid": "383191035734dd0cd52ce27a", "detail_info": {"tag": "\u6c7d\u8f66\u670d\u52a1;\u6c7d\u8f66\u79df\u8d41", "type": "life", "detail_url": "http://api.map.baidu.com/place/detail?uid=383191035734dd0cd52ce27a&output=html&source=placeapi_v2", "overall_rating": "5.0", "image_num": "10", "comment_num": "2", "children": []}}, {"name": "\u946b\u76db\u6c7d\u4fee\u670d\u52a1", "location": {"lat": 34.265945, "lng": 109.030005}, "address": "\u9655\u897f\u7701\u897f\u5b89\u5e02\u65b0\u57ce\u533a\u91d1\u8302\u7d2b\u5ead\u4e1c(\u97e9\u68ee\u8def\u5317)", "province": "\u9655\u897f\u7701", "city": "\u897f\u5b89\u5e02", "area": "\u65b0\u57ce\u533a", "street_id": "4fb6fad398287a30fa42b2db", "telephone": "(029)82463446", "detail": 1, "uid": "4fb6fad398287a30fa42b2db", "detail_info": {"tag": "\u6c7d\u8f66\u670d\u52a1;\u6c7d\u8f66\u7ef4\u4fee", "type": "life", "detail_url": "http://api.map.baidu.com/place/detail?uid=4fb6fad398287a30fa42b2db&output=html&source=placeapi_v2", "overall_rating": "0.0", "image_num": "5", "comment_num": "2", "children": []}}, {"name": "\u5f64\u5f64\u8f6e\u80ce\u7ef4\u4fee", "location": {"lat": 34.258934, "lng": 108.973518}, "address": "\u5efa\u56fd\u8def7\u53f7", "province": "\u9655\u897f\u7701", "city": "\u897f\u5b89\u5e02", "area": "\u7891\u6797\u533a", "street_id": "95bb872933c82d7e3c9a5ef8", "telephone": "13325466383", "detail": 1, "uid": "95bb872933c82d7e3c9a5ef8", "detail_info": {"tag": "\u6c7d\u8f66\u670d\u52a1;\u6c7d\u8f66\u914d\u4ef6", "type": "life", "detail_url": "http://api.map.baidu.com/place/detail?uid=95bb872933c82d7e3c9a5ef8&output=html&source=placeapi_v2", "overall_rating": "4.5", "image_num": "7", "comment_num": "3", "children": []}}, {"name": "\u8f66\u6f06\u901f\u4fee\u4fdd\u517b\u4e2d\u5fc3", "location": {"lat": 34.19348, "lng": 108.96113}, "address": "\u5357\u4e09\u73af318\u53f7\u9644\u8fd1", "province": "\u9655\u897f\u7701", "city": "\u897f\u5b89\u5e02", "area": "\u96c1\u5854\u533a", "street_id": "104b35c45d6c43895d0d02fd", "detail": 1, "uid": "104b35c45d6c43895d0d02fd", "detail_info": {"tag": "\u6c7d\u8f66\u670d\u52a1;\u6c7d\u8f66\u7f8e\u5bb9", "type": "life", "detail_url": "http://api.map.baidu.com/place/detail?uid=104b35c45d6c43895d0d02fd&output=html&source=placeapi_v2", "image_num": "3", "children": []}}, {"name": "(\u66f2\u6c5f\u670d\u52a1\u533a)\u6c7d\u8f66\u7ef4\u4fee", "location": {"lat": 34.194278, "lng": 108.987505}, "address": "\u9655\u897f\u7701\u897f\u5b89\u5e02\u96c1\u5854\u533a\u66f2\u6c5f\u8857\u9053\u897f\u66f2\u5357\u4e09\u73af\u66f2\u6c5f\u660e\u73e0\u9644\u8fd1", "province": "\u9655\u897f\u7701", "city": "\u897f\u5b89\u5e02", "area": "\u96c1\u5854\u533a", "street_id": "5d5cb2e463eeab7857bfff88", "detail": 1, "uid": "2cc3c8e88ebd41a84d2fdf0d", "detail_info": {"tag": "\u6c7d\u8f66\u670d\u52a1;\u6c7d\u8f66\u7ef4\u4fee", "navi_location": {"lng": 108.98749440436, "lat": 34.194064135801}, "type": "life", "detail_url": "http://api.map.baidu.com/place/detail?uid=2cc3c8e88ebd41a84d2fdf0d&output=html&source=placeapi_v2", "image_num": "1", "children": []}}, {"name": "\u9655\u897f\u4fdd\u6c11\u91cd\u578b\u6c7d\u8f66\u7ef4\u4fee\u6709\u9650\u516c\u53f8", "location": {"lat": 34.248333, "lng": 109.062962}, "address": "\u534a\u5f15\u8def\u9644\u8fd1", "province": "\u9655\u897f\u7701", "city": "\u897f\u5b89\u5e02", "area": "\u705e\u6865\u533a", "street_id": "88e67b7759955a4ac1f1cfb4", "telephone": "13991318256,13720631975", "detail": 1, "uid": "88e67b7759955a4ac1f1cfb4", "detail_info": {"tag": "\u6c7d\u8f66\u670d\u52a1;\u6c7d\u8f66\u7ef4\u4fee", "type": "life", "detail_url": "http://api.map.baidu.com/place/detail?uid=88e67b7759955a4ac1f1cfb4&output=html&source=placeapi_v2", "image_num": "8", "comment_num": "1", "children": []}}, {"name": "\u534e\u5b87\u6c7d\u8f66\u670d\u52a1\u4e2d\u5fc3", "location": {"lat": 34.178571, "lng": 108.96586}, "address": "\u9655\u897f\u7701\u897f\u5b89\u5e02\u957f\u5b89\u533a\u57ce\u5357\u5bbe\u9986(\u897f\u5b89\u822a\u5929\u4e1c\u8def\u5e97)", "province": "\u9655\u897f\u7701", "city": "\u897f\u5b89\u5e02", "area": "\u957f\u5b89\u533a", "street_id": "ab75544fc5e3157f57bfff38", "detail": 1, "uid": "ab75544fc5e3157f57bfff38", "detail_info": {"tag": "\u6c7d\u8f66\u670d\u52a1;\u6c7d\u8f66\u7ef4\u4fee", "type": "life", "detail_url": "http://api.map.baidu.com/place/detail?uid=ab75544fc5e3157f57bfff38&output=html&source=placeapi_v2", "overall_rating": "4.0", "image_num": "13", "comment_num": "3", "children": []}}, {"name": "\u987a\u5e06\u6c7d\u4fee", "location": {"lat": 34.252938, "lng": 109.040297}, "address": "\u9655\u897f\u7701\u897f\u5b89\u5e02\u96c1\u5854\u533a\u7b49\u9a7e\u5761\u8857\u9053\u7530\u9a6c\u8def\u7530\u9a6c\u8d85\u5e02\u5357100\u7c73", "province": "\u9655\u897f\u7701", "city": "\u897f\u5b89\u5e02", "area": "\u96c1\u5854\u533a", "street_id": "dd0f431d2776a05b85420e90", "telephone": "13991377229,18092117653", "detail": 1, "uid": "dd0f431d2776a05b85420e90", "detail_info": {"tag": "\u6c7d\u8f66\u670d\u52a1;\u6c7d\u8f66\u7ef4\u4fee", "type": "life", "detail_url": "http://api.map.baidu.com/place/detail?uid=dd0f431d2776a05b85420e90&output=html&source=placeapi_v2", "image_num": "12", "children": []}}, {"name": "\u4fe1\u6e90\u6c7d\u8f66\u88c5\u6f62", "location": {"lat": 34.260901, "lng": 109.033596}, "address": "\u54b8\u5b81\u4e1c\u8def609\u53f7\u9e3f\u745e\u6797\u6c7d\u914d\u57ce\u88c5\u6f62\u533a5\u63922-4\u53f7", "province": "\u9655\u897f\u7701", "city": "\u897f\u5b89\u5e02", "area": "\u65b0\u57ce\u533a", "street_id": "32a2d58e95896705b320a8f2", "telephone": "15029906038,15829260591", "detail": 1, "uid": "32a2d58e95896705b320a8f2", "detail_info": {"tag": "\u6c7d\u8f66\u670d\u52a1;\u6c7d\u8f66\u7f8e\u5bb9", "type": "life", "detail_url": "http://api.map.baidu.com/place/detail?uid=32a2d58e95896705b320a8f2&output=html&source=placeapi_v2", "image_num": "5", "children": []}}, {"name": "\u897f\u5b89\u5510\u6377\u6c7d\u8f66\u670d\u52a1\u6709\u9650\u516c\u53f8", "location": {"lat": 34.256405, "lng": 109.025934}, "address": "\u897f\u5b89\u5e02\u65b0\u57ce\u533a\u97e9\u68ee\u5be8\u8857\u9053\u54b8\u5b81\u4e1c\u8def502\u53f7\u9662\u5185", "province": "\u9655\u897f\u7701", "city": "\u897f\u5b89\u5e02", "area": "\u65b0\u57ce\u533a", "street_id": "14934f8a12d054efcafa5fa6", "telephone": "(029)82556502", "detail": 1, "uid": "14934f8a12d054efcafa5fa6", "detail_info": {"tag": "\u6c7d\u8f66\u670d\u52a1;\u6c7d\u8f66\u9500\u552e", "type": "life", "detail_url": "http://api.map.baidu.com/place/detail?uid=14934f8a12d054efcafa5fa6&output=html&source=placeapi_v2", "image_num": "9", "comment_num": "4", "children": []}}, {"name": "\u9a70\u52a0\u6c7d\u8f66\u670d\u52a1\u4e2d\u5fc3", "location": {"lat": 34.254691, "lng": 109.008403}, "address": "\u9655\u897f\u7701\u897f\u5b89\u5e02\u7891\u6797\u533a\u661f\u5149\u4e00\u8def\u4e1c\u6bb51\u53f7", "province": "\u9655\u897f\u7701", "city": "\u897f\u5b89\u5e02", "area": "\u7891\u6797\u533a", "street_id": "f340843fa2f781c7ae0457e4", "detail": 1, "uid": "f340843fa2f781c7ae0457e4", "detail_info": {"tag": "\u6c7d\u8f66\u670d\u52a1;\u6c7d\u8f66\u7ef4\u4fee", "type": "life", "detail_url": "http://api.map.baidu.com/place/detail?uid=f340843fa2f781c7ae0457e4&output=html&source=placeapi_v2", "image_num": "1", "children": []}}, {"name": "\u897f\u5b89\u5468\u79e6\u6c7d\u8f66\u670d\u52a1", "location": {"lat": 34.257396, "lng": 109.030345}, "address": "\u54b8\u5b81\u4e1c\u8def\u9e3f\u745e\u6797\u5e02\u573a1\u53f7(\u897f\u5b89\u5e02\u536b\u661f\u6d4b\u63a7\u4e2d\u5fc3\u5bf9\u9762)(\u897f\u5b89\u5e02\u536b\u661f\u6d4b\u63a7\u4e2d\u5fc3)", "province": "\u9655\u897f\u7701", "city": "\u897f\u5b89\u5e02", "area": "\u65b0\u57ce\u533a", "street_id": "47c27dc6e2063c83ae0457d7", "telephone": "(029)83225300", "detail": 1, "uid": "47c27dc6e2063c83ae0457d7", "detail_info": {"tag": "\u6c7d\u8f66\u670d\u52a1;\u6c7d\u8f66\u9500\u552e", "type": "life", "detail_url": "http://api.map.baidu.com/place/detail?uid=47c27dc6e2063c83ae0457d7&output=html&source=placeapi_v2", "image_num": "5", "children": []}}, {"name": "\u5fb7\u56fd\u9a6c\u724c", "location": {"lat": 34.234449, "lng": 109.019313}, "address": "\u897f\u5b89\u5e02\u96c1\u5854\u533a\u671d\u9633\u5c0f\u533a5\u53f7\u697c", "province": "\u9655\u897f\u7701", "city": "\u897f\u5b89\u5e02", "area": "\u96c1\u5854\u533a", "street_id": "c2b94e0d46f95359d9d891de", "detail": 1, "uid": "c2b94e0d46f95359d9d891de", "detail_info": {"tag": "\u6c7d\u8f66\u670d\u52a1;\u6c7d\u8f66\u914d\u4ef6", "type": "life", "detail_url": "http://api.map.baidu.com/place/detail?uid=c2b94e0d46f95359d9d891de&output=html&source=placeapi_v2", "image_num": "3", "children": []}}, {"name": "\u4e09\u548c\u6c7d\u8f66\u4fee\u62a4\u54c1", "location": {"lat": 34.261221, "lng": 109.033744}, "address": "\u897f\u5b89\u5e02\u65b0\u57ce\u533a\u9e3f\u745e\u6797\u88c5\u6f62\u533a8\u639213\u53f7", "province": "\u9655\u897f\u7701", "city": "\u897f\u5b89\u5e02", "area": "\u65b0\u57ce\u533a", "street_id": "b3117620631edf8f2911d17f", "telephone": "18629529180", "detail": 1, "uid": "b3117620631edf8f2911d17f", "detail_info": {"tag": "\u6c7d\u8f66\u670d\u52a1;\u6c7d\u8f66\u7ef4\u4fee", "type": "life", "detail_url": "http://api.map.baidu.com/place/detail?uid=b3117620631edf8f2911d17f&output=html&source=placeapi_v2", "image_num": "5", "children": []}}, {"name": "\u9655\u897f\u767e\u5609\u8d38\u6613\u670d\u52a1\u6709\u9650\u516c\u53f8", "location": {"lat": 34.275113, "lng": 108.980329}, "address": "\u9655\u897f\u7701\u897f\u5b89\u5e02\u65b0\u57ce\u533a\u4e2d\u5174\u8def61\u53f7", "province": "\u9655\u897f\u7701", "city": "\u897f\u5b89\u5e02", "area": "\u65b0\u57ce\u533a", "street_id": "ff47fcd4886786dd990050d1", "detail": 1, "uid": "ff47fcd4886786dd990050d1", "detail_info": {"tag": "\u6c7d\u8f66\u670d\u52a1;\u6c7d\u8f66\u9500\u552e", "type": "life", "detail_url": "http://api.map.baidu.com/place/detail?uid=ff47fcd4886786dd990050d1&output=html&source=placeapi_v2", "image_num": "1", "children": []}}, {"name": "\u5e73\u5e73\u6d17\u8f66\u884c", "location": {"lat": 34.238872, "lng": 108.998848}, "address": "\u9655\u897f\u7701\u897f\u5b89\u5e02\u96c1\u5854\u533a\u5b97\u6c5f\u957f\u5b89\u660e\u73e0\u7b2c\u4e09\u5341\u4e8c\u5bb6\u5206\u5e97\u4e1c\u5357", "province": "\u9655\u897f\u7701", "city": "\u897f\u5b89\u5e02", "area": "\u96c1\u5854\u533a", "street_id": "bbc5d98d8ea51cf0ede4a5d2", "detail": 1, "uid": "bbc5d98d8ea51cf0ede4a5d2", "detail_info": {"tag": "\u6c7d\u8f66\u670d\u52a1;\u6c7d\u8f66\u7f8e\u5bb9", "type": "life", "detail_url": "http://api.map.baidu.com/place/detail?uid=bbc5d98d8ea51cf0ede4a5d2&output=html&source=placeapi_v2", "image_num": "16", "children": []}}, {"name": "\u53f8\u5176\u7279\u6c7d\u8f66\u670d\u52a1\u90e8", "location": {"lat": 34.25799, "lng": 108.979028}, "address": "\u73af\u57ce\u4e1c\u8def\u5357\u6bb51\u53f7\u751f\u4ea7\u529b\u5927\u53a61\u5c42", "province": "\u9655\u897f\u7701", "city": "\u897f\u5b89\u5e02", "area": "\u7891\u6797\u533a", "street_id": "1f6819a608144a591d1d1162", "detail": 1, "uid": "1f6819a608144a591d1d1162", "detail_info": {"tag": "\u6c7d\u8f66\u670d\u52a1;\u6c7d\u8f66\u7f8e\u5bb9", "type": "life", "detail_url": "http://api.map.baidu.com/place/detail?uid=1f6819a608144a591d1d1162&output=html&source=placeapi_v2", "image_num": "12", "comment_num": "1", "children": []}}, {"name": "\u9886\u822a\u6c7d\u8f66\u670d\u52a1", "location": {"lat": 34.237065, "lng": 109.040453}, "address": "\u9655\u897f\u7701\u897f\u5b89\u5e02\u96c1\u5854\u533a\u7b49\u9a7e\u5761\u8857\u9053\u7530\u9a6c\u8def\u5357\u53e3(\u6708\u767b\u9601)\u516c\u4ea4\u7ad9", "province": "\u9655\u897f\u7701", "city": "\u897f\u5b89\u5e02", "area": "\u96c1\u5854\u533a", "street_id": "469c41519141b68f15a19095", "detail": 1, "uid": "469c41519141b68f15a19095", "detail_info": {"tag": "\u6c7d\u8f66\u670d\u52a1;\u6c7d\u8f66\u9500\u552e", "type": "life", "detail_url": "http://api.map.baidu.com/place/detail?uid=469c41519141b68f15a19095&output=html&source=placeapi_v2", "image_num": "7", "children": []}}, {"name": "\u5c0f\u521a\u6c7d\u914d(\u96c1\u7fd4\u8def)", "location": {"lat": 34.182901, "lng": 109.022282}, "address": "\u897f\u5b89\u5e02\u957f\u5b89\u533a", "province": "\u9655\u897f\u7701", "city": "\u897f\u5b89\u5e02", "area": "\u957f\u5b89\u533a", "telephone": "18789405750", "detail": 1, "uid": "4c1727d125de0b612806ce31", "detail_info": {"tag": "\u6c7d\u8f66\u670d\u52a1;\u6c7d\u8f66\u914d\u4ef6", "type": "life", "detail_url": "http://api.map.baidu.com/place/detail?uid=4c1727d125de0b612806ce31&output=html&source=placeapi_v2", "image_num": "2", "children": []}}, {"name": "\u9e4f\u7a0b\u6c7d\u914d", "location": {"lat": 34.2617, "lng": 109.032748}, "address": "\u9655\u897f\u7701\u897f\u5b89\u5e02\u65b0\u57ce\u533a\u54b8\u5b81\u4e1c\u8def609\u53f7\u9644\u8fd1", "province": "\u9655\u897f\u7701", "city": "\u897f\u5b89\u5e02", "area": "\u65b0\u57ce\u533a", "street_id": "8f82b8cb2f6216ef4f3a5946", "telephone": "(029)89534930,13379069983", "detail": 1, "uid": "8f82b8cb2f6216ef4f3a5946", "detail_info": {"tag": "\u6c7d\u8f66\u670d\u52a1;\u6c7d\u8f66\u914d\u4ef6", "type": "life", "detail_url": "http://api.map.baidu.com/place/detail?uid=8f82b8cb2f6216ef4f3a5946&output=html&source=placeapi_v2", "image_num": "4", "children": []}}, {"name": "\u9ec4\u5761\u6d17\u8f66\u623f", "location": {"lat": 34.265986, "lng": 109.042657}, "address": "\u9655\u897f\u7701\u897f\u5b89\u5e02\u705e\u6865\u533a\u6c81\u6c34\u8def", "province": "\u9655\u897f\u7701", "city": "\u897f\u5b89\u5e02", "area": "\u705e\u6865\u533a", "street_id": "6db3be56adde472601294fef", "detail": 1, "uid": "6db3be56adde472601294fef", "detail_info": {"tag": "\u6c7d\u8f66\u670d\u52a1;\u6c7d\u8f66\u7f8e\u5bb9", "type": "life", "detail_url": "http://api.map.baidu.com/place/detail?uid=6db3be56adde472601294fef&output=html&source=placeapi_v2", "overall_rating": "5.0", "image_num": "2", "comment_num": "1", "children": []}}, {"name": "\u65b0\u95ea\u4eae\u6c7d\u8f66\u7f8e\u5bb9\u670d\u52a1\u4e2d\u5fc3", "location": {"lat": 34.212738, "lng": 108.981324}, "address": "\u8299\u84c9\u897f\u8def91\u53f7\u5e7f\u7535\u5927\u5267\u9662\u9662\u5185", "province": "\u9655\u897f\u7701", "city": "\u897f\u5b89\u5e02", "area": "\u96c1\u5854\u533a", "street_id": "880a14e7a0c26eee24e0a0e9", "detail": 1, "uid": "0b6a4ef2643517892e47335d", "detail_info": {"tag": "\u6c7d\u8f66\u670d\u52a1;\u6c7d\u8f66\u7f8e\u5bb9", "type": "life", "detail_url": "http://api.map.baidu.com/place/detail?uid=0b6a4ef2643517892e47335d&output=html&source=placeapi_v2", "overall_rating": "5.0", "image_num": "11", "comment_num": "4", "children": []}}, {"name": "\u8001\u5929\u6210\u5ea7\u5957\u88c5\u749c", "location": {"lat": 34.268839, "lng": 108.973588}, "address": "\u897f\u5b89\u5e02\u65b0\u57ce\u533a\u5c1a\u52e4\u8def55\u53f7", "province": "\u9655\u897f\u7701", "city": "\u897f\u5b89\u5e02", "area": "\u65b0\u57ce\u533a", "street_id": "47eddfdfc0b4b2b2ca09f067", "telephone": "(029)87453795", "detail": 1, "uid": "47eddfdfc0b4b2b2ca09f067", "detail_info": {"tag": "\u6c7d\u8f66\u670d\u52a1;\u6c7d\u8f66\u7f8e\u5bb9", "type": "life", "detail_url": "http://api.map.baidu.com/place/detail?uid=47eddfdfc0b4b2b2ca09f067&output=html&source=placeapi_v2", "image_num": "6", "comment_num": "1", "children": []}}, {"name": "\u8d85\u51e1\u6c7d\u4fee\u5382", "location": {"lat": 34.242129, "lng": 109.062483}, "address": "\u9655\u897f\u7701\u897f\u5b89\u5e02\u705e\u6865\u533a\u7ea2\u65d7\u8857\u9053\u534a\u5f15\u8def\u897f\u5b89\u7ea2\u65d7\u8db3\u7403\u516c\u56ed", "province": "\u9655\u897f\u7701", "city": "\u897f\u5b89\u5e02", "area": "\u705e\u6865\u533a", "street_id": "d2f0c4d8c85cbcf1ddee8b12", "detail": 1, "uid": "d2f0c4d8c85cbcf1ddee8b12", "detail_info": {"tag": "\u6c7d\u8f66\u670d\u52a1;\u6c7d\u8f66\u7ef4\u4fee", "type": "life", "detail_url": "http://api.map.baidu.com/place/detail?uid=d2f0c4d8c85cbcf1ddee8b12&output=html&source=placeapi_v2", "image_num": "5", "children": []}}, {"name": "\u897f\u5b89\u9f99\u6e90\u6c7d\u914d", "location": {"lat": 34.182901, "lng": 109.022282}, "address": "\u9655\u897f\u7701\u897f\u5b89\u5e02\u957f\u5b89\u533a\u6fb3\u90fd\u516c\u53f8\u85cf\u7352\u517b\u6b96\u57fa\u5730\u897f(\u96c1\u7fd4\u8def)", "province": "\u9655\u897f\u7701", "city": "\u897f\u5b89\u5e02", "area": "\u957f\u5b89\u533a", "detail": 1, "uid": "cc180ae85622763e11882418", "detail_info": {"tag": "\u6c7d\u8f66\u670d\u52a1;\u6c7d\u8f66\u914d\u4ef6", "type": "life", "detail_url": "http://api.map.baidu.com/place/detail?uid=cc180ae85622763e11882418&output=html&source=placeapi_v2", "image_num": "2", "children": []}}, {"name": "\u91d1\u9a6c\u6bd4\u4e9a\u8fea\u914d\u4ef6", "location": {"lat": 34.255904, "lng": 109.040187}, "address": "\u7530\u9a6c\u8def\u5317\u6bb5", "province": "\u9655\u897f\u7701", "city": "\u897f\u5b89\u5e02", "area": "\u96c1\u5854\u533a", "street_id": "af6ca8c94616af1174026996", "telephone": "13201593862,15109225022", "detail": 1, "uid": "af6ca8c94616af1174026996", "detail_info": {"tag": "\u6c7d\u8f66\u670d\u52a1;\u6c7d\u8f66\u914d\u4ef6", "type": "life", "detail_url": "http://api.map.baidu.com/place/detail?uid=af6ca8c94616af1174026996&output=html&source=placeapi_v2", "image_num": "9", "comment_num": "1", "children": []}}, {"name": "\u9e4f\u98de\u6c7d\u4fee", "location": {"lat": 34.23676, "lng": 109.035242}, "address": "\u9655\u897f\u7701\u897f\u5b89\u5e02\u96c1\u5854\u533a\u4e1c\u6708\u8def\u4e16\u56ed\u82b1\u5349\u4ea4\u6613\u4e2d\u5fc3\u516c\u4ea4\u7ad9", "province": "\u9655\u897f\u7701", "city": "\u897f\u5b89\u5e02", "area": "\u96c1\u5854\u533a", "street_id": "9ce2cb0cf4dd24004afc8d44", "detail": 1, "uid": "9ce2cb0cf4dd24004afc8d44", "detail_info": {"tag": "\u6c7d\u8f66\u670d\u52a1;\u6c7d\u8f66\u7ef4\u4fee", "type": "life", "detail_url": "http://api.map.baidu.com/place/detail?uid=9ce2cb0cf4dd24004afc8d44&output=html&source=placeapi_v2", "image_num": "2", "children": []}}, {"name": "\u5174\u5e86\u6c7d\u8f66\u7f8e\u5bb9\u517b\u62a4\u4e2d\u5fc3", "location": {"lat": 34.264003, "lng": 108.994039}, "address": "\u9655\u897f\u7701\u897f\u5b89\u5e02\u7891\u6797\u533a\u65b0\u90ed\u95e88\u53f7(\u5174\u5e86\u516c\u56ed\u5317)", "province": "\u9655\u897f\u7701", "city": "\u897f\u5b89\u5e02", "area": "\u7891\u6797\u533a", "street_id": "632bf3662e265f1982288abe", "telephone": "13619205845", "detail": 1, "uid": "632bf3662e265f1982288abe", "detail_info": {"tag": "\u6c7d\u8f66\u670d\u52a1;\u6c7d\u8f66\u7f8e\u5bb9", "type": "life", "detail_url": "http://api.map.baidu.com/place/detail?uid=632bf3662e265f1982288abe&output=html&source=placeapi_v2", "image_num": "9", "comment_num": "1", "children": []}}, {"name": "\u8f66\u4e4b\u57ce\u6c7d\u8f66\u4e3b\u9898", "location": {"lat": 34.236336, "lng": 109.01877}, "address": "\u516c\u56ed\u5357\u8def\u4e0e\u5ef6\u5357\u4e09\u8def\u4ea4\u53c9\u53e3\u4e1c50\u7c73", "province": "\u9655\u897f\u7701", "city": "\u897f\u5b89\u5e02", "area": "\u96c1\u5854\u533a", "street_id": "20ac86a985b8685e5e0d02e4", "detail": 1, "uid": "20ac86a985b8685e5e0d02e4", "detail_info": {"tag": "\u6c7d\u8f66\u670d\u52a1;\u6c7d\u8f66\u7f8e\u5bb9", "type": "life", "detail_url": "http://api.map.baidu.com/place/detail?uid=20ac86a985b8685e5e0d02e4&output=html&source=placeapi_v2", "image_num": "5", "children": []}}, {"name": "\u5609\u534e\u6c7d\u8f66\u670d\u52a1", "location": {"lat": 34.279446, "lng": 109.095637}, "address": "\u9655\u897f\u7701\u897f\u5b89\u5e02\u705e\u6865\u533a\u5e2d\u738b\u8857\u9053\u4f55\u5bb6\u8857\u7965\u4e91\u8def\u6668\u5149\u5e7c\u513f\u56ed\u9644\u8fd1", "province": "\u9655\u897f\u7701", "city": "\u897f\u5b89\u5e02", "area": "\u705e\u6865\u533a", "detail": 1, "uid": "2b0342b6bd59e5f52fb9085d", "detail_info": {"tag": "\u6c7d\u8f66\u670d\u52a1;\u6c7d\u8f66\u9500\u552e", "type": "life", "detail_url": "http://api.map.baidu.com/place/detail?uid=2b0342b6bd59e5f52fb9085d&output=html&source=placeapi_v2", "image_num": "1", "children": []}}, {"name": "\u9886\u822a\u6dae\u6dae", "location": {"lat": 34.260276, "lng": 108.981324}, "address": "\u9655\u897f\u7701\u897f\u5b89\u5e02\u7891\u6797\u533a\u4e1c\u5173\u5357\u885736\u53f7", "province": "\u9655\u897f\u7701", "city": "\u897f\u5b89\u5e02", "area": "\u7891\u6797\u533a", "street_id": "801abe679a07e9dbf03cbaed", "detail": 1, "uid": "801abe679a07e9dbf03cbaed", "detail_info": {"tag": "\u6c7d\u8f66\u670d\u52a1;\u6c7d\u8f66\u7f8e\u5bb9", "type": "life", "detail_url": "http://api.map.baidu.com/place/detail?uid=801abe679a07e9dbf03cbaed&output=html&source=placeapi_v2", "image_num": "4", "children": []}}, {"name": "\u5174\u65fa\u6c7d\u4fee", "location": {"lat": 34.256069, "lng": 109.040572}, "address": "\u9655\u897f\u7701\u897f\u5b89\u5e02\u96c1\u5854\u533a\u7530\u9a6c\u8def\u897f\u5b89\u7167\u660e\u7535\u5668\u5de5\u4e1a\u516c\u53f8\u5bb6\u5c5e\u9662", "province": "\u9655\u897f\u7701", "city": "\u897f\u5b89\u5e02", "area": "\u96c1\u5854\u533a", "street_id": "4dd0e0ac7cbb1cb2c61b75b5", "telephone": "15398020673", "detail": 1, "uid": "4dd0e0ac7cbb1cb2c61b75b5", "detail_info": {"tag": "\u6c7d\u8f66\u670d\u52a1;\u6c7d\u8f66\u7ef4\u4fee", "type": "life", "detail_url": "http://api.map.baidu.com/place/detail?uid=4dd0e0ac7cbb1cb2c61b75b5&output=html&source=placeapi_v2", "image_num": "9", "children": []}}, {"name": "AM CLUB", "location": {"lat": 34.245725, "lng": 108.996416}, "address": "\u4e8c\u73af\u5357\u8def\u4e1c\u6bb550\u53f7\u6b66\u9686\u5e7f\u573a", "province": "\u9655\u897f\u7701", "city": "\u897f\u5b89\u5e02", "area": "\u7891\u6797\u533a", "street_id": "336595ea5570f6bffd0eb0ad", "detail": 1, "uid": "336595ea5570f6bffd0eb0ad", "detail_info": {"tag": "\u6c7d\u8f66\u670d\u52a1;\u6c7d\u8f66\u914d\u4ef6", "type": "life", "detail_url": "http://api.map.baidu.com/place/detail?uid=336595ea5570f6bffd0eb0ad&output=html&source=placeapi_v2", "image_num": "1", "children": []}}, {"name": "\u541b\u8fbe\u6c7d\u8f66\u7528\u54c1\u914d\u4ef6\u7ecf\u9500\u90e8", "location": {"lat": 34.25956, "lng": 109.022956}, "address": "\u9655\u897f\u7701\u897f\u5b89\u5e02\u65b0\u57ce\u533a\u5e78\u798f\u4e2d\u8def33\u53f7\u79e6\u5ddd\u538222\u8857\u574a\u95e8\u53e3\u666e\u5229\u53f8\u901a\u8f6e\u80ce\u5e97(\u7ca4\u6d774S\u5e97\u5411\u5317100\u7c73\u8def\u4e1c\u666e\u5229\u53f8\u901a\u8f6e\u80ce\u5e97)", "province": "\u9655\u897f\u7701", "city": "\u897f\u5b89\u5e02", "area": "\u65b0\u57ce\u533a", "street_id": "ee4000dcb6bfdb8ca0d230b6", "detail": 1, "uid": "ee4000dcb6bfdb8ca0d230b6", "detail_info": {"tag": "\u6c7d\u8f66\u670d\u52a1;\u6c7d\u8f66\u914d\u4ef6", "type": "life", "detail_url": "http://api.map.baidu.com/place/detail?uid=ee4000dcb6bfdb8ca0d230b6&output=html&source=placeapi_v2", "image_num": "9", "comment_num": "2", "children": []}}, {"name": "\u897f\u5b89\u6d77\u96f7\u6c7d\u8f66\u670d\u52a1\u6709\u9650\u516c\u53f8", "location": {"lat": 34.264435, "lng": 109.060242}, "address": "\u534a\u5761\u8def25\u53f7", "province": "\u9655\u897f\u7701", "city": "\u897f\u5b89\u5e02", "area": "\u705e\u6865\u533a", "street_id": "35ec22e028e344bb220262fc", "telephone": "(029)83551312,13186059405,13227827696,13991137930,15353543891", "detail": 1, "uid": "35ec22e028e344bb220262fc", "detail_info": {"tag": "\u6c7d\u8f66\u670d\u52a1;\u6c7d\u8f66\u9500\u552e", "type": "life", "detail_url": "http://api.map.baidu.com/place/detail?uid=35ec22e028e344bb220262fc&output=html&source=placeapi_v2", "image_num": "9", "comment_num": "1", "children": []}}, {"name": "\u9655\u897f\u4e2d\u8fdc\u6c7d\u8f66\u79df\u8d41", "location": {"lat": 34.252408, "lng": 108.957681}, "address": "\u4f53\u80b2\u9986\u5357\u88571\u680b79\u53f7", "province": "\u9655\u897f\u7701", "city": "\u897f\u5b89\u5e02", "area": "\u7891\u6797\u533a", "street_id": "326bc96bf5430e3fcd04efbb", "telephone": "(029)87812039,13572222649", "detail": 1, "uid": "326bc96bf5430e3fcd04efbb", "detail_info": {"tag": "\u6c7d\u8f66\u670d\u52a1;\u6c7d\u8f66\u79df\u8d41", "type": "life", "detail_url": "http://api.map.baidu.com/place/detail?uid=326bc96bf5430e3fcd04efbb&output=html&source=placeapi_v2", "overall_rating": "5.0", "image_num": "17", "comment_num": "9", "children": []}}, {"name": "\u6c7d\u914d\u793e\u533a\u670d\u52a1\u90e8", "location": {"lat": 34.279288, "lng": 109.083618}, "address": "\u9655\u897f\u7701\u897f\u5b89\u5e02\u705e\u6865\u533a\u7eba\u4e00\u8def9\u9644\u8fd1", "province": "\u9655\u897f\u7701", "city": "\u897f\u5b89\u5e02", "area": "\u705e\u6865\u533a", "street_id": "d068c998ee78e03e8c1a8972", "telephone": "13572163691,13991905930", "detail": 1, "uid": "d068c998ee78e03e8c1a8972", "detail_info": {"tag": "\u6c7d\u8f66\u670d\u52a1;\u6c7d\u8f66\u7f8e\u5bb9", "type": "life", "detail_url": "http://api.map.baidu.com/place/detail?uid=d068c998ee78e03e8c1a8972&output=html&source=placeapi_v2", "image_num": "6", "children": []}}, {"name": "\u7279\u901a\u4e2d\u5fc3", "location": {"lat": 34.224282, "lng": 108.960326}, "address": "\u96c1\u5854\u897f\u8def6\u53f7", "province": "\u9655\u897f\u7701", "city": "\u897f\u5b89\u5e02", "area": "\u96c1\u5854\u533a", "detail": 1, "uid": "988982548aeac63c3b13fda6", "detail_info": {"tag": "\u6c7d\u8f66\u670d\u52a1;\u6c7d\u8f66\u7ef4\u4fee", "type": "life", "detail_url": "http://api.map.baidu.com/place/detail?uid=988982548aeac63c3b13fda6&output=html&source=placeapi_v2", "image_num": "1", "children": []}}, {"name": "\u534e\u9f99\u6c7d\u8f66\u6d17\u8f66\u88c5\u6f62\u7f8e\u5bb9", "location": {"lat": 34.234661, "lng": 109.001693}, "address": "\u96c1\u7fd4\u8def66\u53f7\u9644\u8fd1", "province": "\u9655\u897f\u7701", "city": "\u897f\u5b89\u5e02", "area": "\u96c1\u5854\u533a", "street_id": "b642de111aa49df44e2fdfec", "detail": 1, "uid": "b642de111aa49df44e2fdfec", "detail_info": {"tag": "\u6c7d\u8f66\u670d\u52a1;\u6c7d\u8f66\u7f8e\u5bb9", "type": "life", "detail_url": "http://api.map.baidu.com/place/detail?uid=b642de111aa49df44e2fdfec&output=html&source=placeapi_v2", "image_num": "3", "children": []}}, {"name": "\u96c1\u7fd4\u6c7d\u4fee", "location": {"lat": 34.234865, "lng": 109.001395}, "address": "\u9655\u897f\u7701\u897f\u5b89\u5e02\u96c1\u5854\u533a\u96c1\u7fd4\u8def\u9655\u897f\u4e09\u4f17\u5de5\u8d38\u6709\u9650\u516c\u53f8\u4e1c\u5317\u95e8", "province": "\u9655\u897f\u7701", "city": "\u897f\u5b89\u5e02", "area": "\u96c1\u5854\u533a", "street_id": "316ef5c1d1e78f570f3ddab1", "detail": 1, "uid": "316ef5c1d1e78f570f3ddab1", "detail_info": {"tag": "\u6c7d\u8f66\u670d\u52a1;\u6c7d\u8f66\u7ef4\u4fee", "type": "life", "detail_url": "http://api.map.baidu.com/place/detail?uid=316ef5c1d1e78f570f3ddab1&output=html&source=placeapi_v2", "image_num": "10", "comment_num": "1", "children": []}}, {"name": "\u52c9\u4e54\u6c7d\u8f66\u88c5\u9970", "location": {"lat": 34.269127, "lng": 108.973535}, "address": "\u5c1a\u52e4\u8def99\u53f7", "province": "\u9655\u897f\u7701", "city": "\u897f\u5b89\u5e02", "area": "\u65b0\u57ce\u533a", "street_id": "822416560d044ba6b6147f9d", "detail": 1, "uid": "822416560d044ba6b6147f9d", "detail_info": {"tag": "\u6c7d\u8f66\u670d\u52a1;\u6c7d\u8f66\u7f8e\u5bb9", "type": "life", "detail_url": "http://api.map.baidu.com/place/detail?uid=822416560d044ba6b6147f9d&output=html&source=placeapi_v2", "image_num": "15", "comment_num": "1", "children": []}}, {"name": "\u6377\u901a\u6c7d\u8f66\u670d\u52a1\u90e8", "location": {"lat": 34.2558, "lng": 109.069476}, "address": "\u897f\u5b89\u5e02\u705e\u6865\u533a\u72c4\u5be8\u8def3\u53f7", "province": "\u9655\u897f\u7701", "city": "\u897f\u5b89\u5e02", "area": "\u705e\u6865\u533a", "street_id": "91e692e213349646213bf2c3", "telephone": "13649298180", "detail": 1, "uid": "91e692e213349646213bf2c3", "detail_info": {"tag": "\u6c7d\u8f66\u670d\u52a1;\u6c7d\u8f66\u7f8e\u5bb9", "type": "life", "detail_url": "http://api.map.baidu.com/place/detail?uid=91e692e213349646213bf2c3&output=html&source=placeapi_v2", "image_num": "4", "children": []}}, {"name": "\u6c7d\u8f66\u73bb\u7483\u4e13\u5bb6", "location": {"lat": 34.245403, "lng": 109.012819}, "address": "\u516c\u56ed\u5357\u8def4\u53f7\u9644\u8fd1", "province": "\u9655\u897f\u7701", "city": "\u897f\u5b89\u5e02", "area": "\u96c1\u5854\u533a", "street_id": "3d2ccd51316220c5a0acc4fa", "detail": 1, "uid": "3d2ccd51316220c5a0acc4fa", "detail_info": {"tag": "\u6c7d\u8f66\u670d\u52a1;\u5176\u4ed6", "type": "life", "detail_url": "http://api.map.baidu.com/place/detail?uid=3d2ccd51316220c5a0acc4fa&output=html&source=placeapi_v2", "image_num": "1", "children": []}}, {"name": "\u897f\u5b89\u65b0\u5f3a\u6c7d\u8f66\u7ef4\u4fee\u6709\u9650\u516c\u53f8", "location": {"lat": 34.277131, "lng": 109.032783}, "address": "\u897f\u5b89\u5e02\u957f\u4e50\u8def58\u53f7\u4e1c\u90ca\u8f66\u7ba1\u6240\u5411\u4e1c200\u7c73\u4e2d\u77f3\u6cb9\u9694\u58c1", "province": "\u9655\u897f\u7701", "city": "\u897f\u5b89\u5e02", "area": "\u705e\u6865\u533a", "street_id": "36da1ee3d2d6b061047ce847", "detail": 1, "uid": "36da1ee3d2d6b061047ce847", "detail_info": {"tag": "\u6c7d\u8f66\u670d\u52a1;\u6c7d\u8f66\u7ef4\u4fee", "type": "life", "detail_url": "http://api.map.baidu.com/place/detail?uid=36da1ee3d2d6b061047ce847&output=html&source=placeapi_v2", "overall_rating": "2.2", "image_num": "1", "comment_num": "0", "children": []}}, {"name": "\u6c5f\u6dee\u8f7f\u8f66(\u57ce\u4e1c\u76f4\u8425\u5e97)", "location": {"lat": 34.265805, "lng": 109.022978}, "address": "\u5e78\u798f\u4e2d\u8def77\u53f7\u9644\u8fd1", "province": "\u9655\u897f\u7701", "city": "\u897f\u5b89\u5e02", "area": "\u65b0\u57ce\u533a", "street_id": "8c426c43802ab0b9441a32a8", "detail": 1, "uid": "8c426c43802ab0b9441a32a8", "detail_info": {"tag": "\u6c7d\u8f66\u670d\u52a1;\u6c7d\u8f66\u7ef4\u4fee", "type": "life", "detail_url": "http://api.map.baidu.com/place/detail?uid=8c426c43802ab0b9441a32a8&output=html&source=placeapi_v2", "image_num": "2", "children": []}}, {"name": "\u4e1c\u98ce\u5965\u9f99\u6c7d\u914d", "location": {"lat": 34.22828, "lng": 109.032447}, "address": "\u957f\u9e23\u8def\u4e2d\u6bb5", "province": "\u9655\u897f\u7701", "city": "\u897f\u5b89\u5e02", "area": "\u96c1\u5854\u533a", "street_id": "0803c2f4cc4183b56140a914", "telephone": "15389208858", "detail": 1, "uid": "0803c2f4cc4183b56140a914", "detail_info": {"tag": "\u6c7d\u8f66\u670d\u52a1;\u6c7d\u8f66\u914d\u4ef6", "navi_location": {"lng": 109.03224484529, "lat": 34.228129588162}, "type": "life", "detail_url": "http://api.map.baidu.com/place/detail?uid=0803c2f4cc4183b56140a914&output=html&source=placeapi_v2", "image_num": "6", "comment_num": "1", "children": []}}, {"name": "\u6625\u79cb\u8e0f\u677f\u8f66\u914d\u4ef6", "location": {"lat": 34.254684, "lng": 109.023033}, "address": "\u9655\u897f\u7701\u897f\u5b89\u5e02\u65b0\u57ce\u533a\u5e78\u798f\u5357\u8def154\u53f7\u9644\u8fd1", "province": "\u9655\u897f\u7701", "city": "\u897f\u5b89\u5e02", "area": "\u65b0\u57ce\u533a", "street_id": "f89cffc22c08f2359ff7791f", "detail": 1, "uid": "f89cffc22c08f2359ff7791f", "detail_info": {"tag": "\u6c7d\u8f66\u670d\u52a1", "type": "life", "detail_url": "http://api.map.baidu.com/place/detail?uid=f89cffc22c08f2359ff7791f&output=html&source=placeapi_v2", "image_num": "2", "children": []}}, {"name": "\u4f17\u8f66\u7f18\u6c7d\u8f66\u88c5\u6f62", "location": {"lat": 34.261221, "lng": 109.033744}, "address": "\u54b8\u5b81\u4e1c\u8def609\u53f7\u9e3f\u745e\u6797\u6c7d\u914d\u57ce8\u639211\u53f7", "province": "\u9655\u897f\u7701", "city": "\u897f\u5b89\u5e02", "area": "\u65b0\u57ce\u533a", "street_id": "968a77be882d68d7b14c4914", "telephone": "13399182237,18966705518", "detail": 1, "uid": "968a77be882d68d7b14c4914", "detail_info": {"tag": "\u6c7d\u8f66\u670d\u52a1;\u6c7d\u8f66\u7f8e\u5bb9", "type": "life", "detail_url": "http://api.map.baidu.com/place/detail?uid=968a77be882d68d7b14c4914&output=html&source=placeapi_v2", "image_num": "5", "children": []}}, {"name": "\u4e1c\u98ce\u6c7d\u914d", "location": {"lat": 34.248139, "lng": 109.022525}, "address": "\u5e78\u798f\u5357\u8def58\u53f7\u9644\u8fd1", "province": "\u9655\u897f\u7701", "city": "\u897f\u5b89\u5e02", "area": "\u96c1\u5854\u533a", "street_id": "982bc23f75d761da25e0a0fe", "detail": 1, "uid": "982bc23f75d761da25e0a0fe", "detail_info": {"tag": "\u6c7d\u8f66\u670d\u52a1;\u6c7d\u8f66\u914d\u4ef6", "type": "life", "detail_url": "http://api.map.baidu.com/place/detail?uid=982bc23f75d761da25e0a0fe&output=html&source=placeapi_v2", "overall_rating": "0.0", "image_num": "1", "comment_num": "0", "children": []}}, {"name": "\u597d\u8fd0\u8f6e\u80ce", "location": {"lat": 34.248302, "lng": 109.063221}, "address": "\u9655\u897f\u7701\u897f\u5b89\u5e02\u705e\u6865\u533a\u534a\u5f15\u8def\u56fd\u9645\u5e78\u798f\u57ce2\u680b1\u5355\u5143103\u5ba4", "province": "\u9655\u897f\u7701", "city": "\u897f\u5b89\u5e02", "area": "\u705e\u6865\u533a", "street_id": "41b6afa1632d8907abf729e9", "detail": 1, "uid": "41b6afa1632d8907abf729e9", "detail_info": {"tag": "\u6c7d\u8f66\u670d\u52a1;\u6c7d\u8f66\u914d\u4ef6", "type": "life", "detail_url": "http://api.map.baidu.com/place/detail?uid=41b6afa1632d8907abf729e9&output=html&source=placeapi_v2", "image_num": "2", "children": []}}, {"name": "\u4e50\u9014\u6c7d\u8f66\u670d\u52a1\u4e2d\u5fc3", "location": {"lat": 34.235487, "lng": 109.006338}, "address": "\u897f\u5b89\u5e02\u96c1\u5854\u533a\u535a\u6e90\u8def28\u53f7", "province": "\u9655\u897f\u7701", "city": "\u897f\u5b89\u5e02", "area": "\u96c1\u5854\u533a", "street_id": "9eabc01cffb5f09bc8213dc4", "detail": 1, "uid": "9eabc01cffb5f09bc8213dc4", "detail_info": {"tag": "\u6c7d\u8f66\u670d\u52a1;\u6c7d\u8f66\u7f8e\u5bb9", "navi_location": {"lng": 109.00612714259, "lat": 34.23538677813}, "type": "life", "detail_url": "http://api.map.baidu.com/place/detail?uid=9eabc01cffb5f09bc8213dc4&output=html&source=placeapi_v2", "overall_rating": "0.0", "image_num": "6", "comment_num": "2", "children": []}}, {"name": "\u6cfd\u8c6a\u6c7d\u8f66\u88c5\u749c", "location": {"lat": 34.265203, "lng": 109.00825}, "address": "\u97e9\u68ee\u8def7\u53f7", "province": "\u9655\u897f\u7701", "city": "\u897f\u5b89\u5e02", "area": "\u65b0\u57ce\u533a", "street_id": "c7eca12b0ea40334e115f9fe", "detail": 1, "uid": "c7eca12b0ea40334e115f9fe", "detail_info": {"tag": "\u6c7d\u8f66\u670d\u52a1;\u6c7d\u8f66\u7f8e\u5bb9", "navi_location": {"lng": 109.00824880635, "lat": 34.265054493284}, "type": "life", "detail_url": "http://api.map.baidu.com/place/detail?uid=c7eca12b0ea40334e115f9fe&output=html&source=placeapi_v2", "overall_rating": "3.2", "image_num": "10", "comment_num": "2", "children": []}}, {"name": "\u7535\u74f6\u5927\u5168", "location": {"lat": 34.245693, "lng": 108.979037}, "address": "\u592a\u4e59\u8def\u5357\u6bb591\u53f7", "province": "\u9655\u897f\u7701", "city": "\u897f\u5b89\u5e02", "area": "\u7891\u6797\u533a", "street_id": "d42d65407a1eaebf8c55eced", "telephone": "13572468078", "detail": 1, "uid": "d42d65407a1eaebf8c55eced", "detail_info": {"tag": "\u6c7d\u8f66\u670d\u52a1;\u6c7d\u8f66\u914d\u4ef6", "type": "life", "detail_url": "http://api.map.baidu.com/place/detail?uid=d42d65407a1eaebf8c55eced&output=html&source=placeapi_v2", "overall_rating": "3.0", "image_num": "12", "comment_num": "2", "children": []}}, {"name": "\u521a\u6781\u9a71\u6c7d\u8f66\u670d\u52a1\u4e2d\u5fc3", "location": {"lat": 34.231195, "lng": 109.030066}, "address": "\u9655\u897f\u7701\u897f\u5b89\u5e02\u96c1\u5854\u533a\u957f\u9e23\u8def\u79e6\u5ddd\u793e\u533a(\u79e6\u5ddd\u4e00\u5206\u5382)\u516c\u4ea4\u7ad9", "province": "\u9655\u897f\u7701", "city": "\u897f\u5b89\u5e02", "area": "\u96c1\u5854\u533a", "street_id": "8f2c3f432b357af049fc8d1f", "detail": 1, "uid": "8f2c3f432b357af049fc8d1f", "detail_info": {"tag": "\u6c7d\u8f66\u670d\u52a1;\u6c7d\u8f66\u7ef4\u4fee", "type": "life", "detail_url": "http://api.map.baidu.com/place/detail?uid=8f2c3f432b357af049fc8d1f&output=html&source=placeapi_v2", "image_num": "7", "comment_num": "1", "children": []}}, {"name": "\u65b0\u610f\u8bda\u6c7d\u8f66\u670d\u52a1\u4e2d\u5fc3", "location": {"lat": 34.232669, "lng": 108.973617}, "address": "\u9655\u897f\u7701\u897f\u5b89\u5e02\u96c1\u5854\u533a\u540e\u6751\u5546\u4e1a\u885720\u53f7", "province": "\u9655\u897f\u7701", "city": "\u897f\u5b89\u5e02", "area": "\u96c1\u5854\u533a", "street_id": "e3ff4f318c009f28c16c14f4", "detail": 1, "uid": "e3ff4f318c009f28c16c14f4", "detail_info": {"tag": "\u6c7d\u8f66\u670d\u52a1;\u6c7d\u8f66\u7f8e\u5bb9", "type": "life", "detail_url": "http://api.map.baidu.com/place/detail?uid=e3ff4f318c009f28c16c14f4&output=html&source=placeapi_v2", "image_num": "4", "children": []}}, {"name": "\u83f1\u8c79\u6c7d\u4fee\u94a3\u91d1\u70e4\u6f06", "location": {"lat": 34.257066, "lng": 109.026001}, "address": "\u9655\u897f\u7701\u897f\u5b89\u5e02\u65b0\u57ce\u533a\u54b8\u5b81\u4e1c\u8def649", "province": "\u9655\u897f\u7701", "city": "\u897f\u5b89\u5e02", "area": "\u65b0\u57ce\u533a", "street_id": "f0bf0f070e40bb473be4a6cf", "telephone": "13991931035", "detail": 1, "uid": "f0bf0f070e40bb473be4a6cf", "detail_info": {"tag": "\u6c7d\u8f66\u670d\u52a1;\u6c7d\u8f66\u7ef4\u4fee", "type": "life", "detail_url": "http://api.map.baidu.com/place/detail?uid=f0bf0f070e40bb473be4a6cf&output=html&source=placeapi_v2", "image_num": "7", "comment_num": "1", "children": []}}, {"name": "\u540c\u529b\u6c7d\u79df", "location": {"lat": 34.224805, "lng": 108.956758}, "address": "\u96c1\u5854\u897f\u8def129\u53f7\u897f\u5b89\u94f6\u884c\u5bf9\u9762", "province": "\u9655\u897f\u7701", "city": "\u897f\u5b89\u5e02", "area": "\u96c1\u5854\u533a", "street_id": "bfbd148936c1406a2fb96dde", "telephone": "(029)85266199,18092835555", "detail": 1, "uid": "bfbd148936c1406a2fb96dde", "detail_info": {"tag": "\u6c7d\u8f66\u670d\u52a1;\u6c7d\u8f66\u79df\u8d41", "type": "life", "detail_url": "http://api.map.baidu.com/place/detail?uid=bfbd148936c1406a2fb96dde&output=html&source=placeapi_v2", "image_num": "9", "children": []}}, {"name": "\u548c\u8c10\u79df\u8f66", "location": {"lat": 34.243192, "lng": 108.989633}, "address": "\u9655\u897f\u7701\u897f\u5b89\u5e02\u7891\u6797\u533a\u5357\u4e8c\u73af\u4e1c\u6bb5\u5218\u5bb6\u5e84\u5929\u4f26\u5fa1\u57ce\u9f99\u8109\u8fd8\u5efa\u5546\u4e1a\u623f1\u5c42", "province": "\u9655\u897f\u7701", "city": "\u897f\u5b89\u5e02", "area": "\u7891\u6797\u533a", "street_id": "f707eed45a0c19f63f9a5e8d", "detail": 1, "uid": "f707eed45a0c19f63f9a5e8d", "detail_info": {"tag": "\u6c7d\u8f66\u670d\u52a1;\u6c7d\u8f66\u79df\u8d41", "type": "life", "detail_url": "http://api.map.baidu.com/place/detail?uid=f707eed45a0c19f63f9a5e8d&output=html&source=placeapi_v2", "image_num": "1", "children": []}}, {"name": "\u897f\u94c1\u5609\u5bbe\u6c7d\u8f66\u517b\u62a4\u670d\u52a1\u4e2d\u5fc3", "location": {"lat": 34.245193, "lng": 108.985123}, "address": "\u9655\u897f\u7701\u897f\u5b89\u5e02\u7891\u6797\u533a\u94c1\u5b89\u4e09\u885735\u680b", "province": "\u9655\u897f\u7701", "city": "\u897f\u5b89\u5e02", "area": "\u7891\u6797\u533a", "street_id": "42e6ac9b866c38839b68b4e1", "detail": 1, "uid": "42e6ac9b866c38839b68b4e1", "detail_info": {"tag": "\u6c7d\u8f66\u670d\u52a1;\u6c7d\u8f66\u7f8e\u5bb9", "type": "life", "detail_url": "http://api.map.baidu.com/place/detail?uid=42e6ac9b866c38839b68b4e1&output=html&source=placeapi_v2", "image_num": "1", "children": []}}, {"name": "\u5c0f\u5f20\u6c7d\u8f66\u4fee\u7406\u90e8", "location": {"lat": 34.276182, "lng": 109.102414}, "address": "\u9655\u897f\u7701\u897f\u5b89\u5e02\u705e\u6865\u533a\u6bdb\u897f\u516c\u8def", "province": "\u9655\u897f\u7701", "city": "\u897f\u5b89\u5e02", "area": "\u705e\u6865\u533a", "detail": 1, "uid": "2366a2746a980013e215f907", "detail_info": {"tag": "\u6c7d\u8f66\u670d\u52a1;\u6c7d\u8f66\u7ef4\u4fee", "type": "life", "detail_url": "http://api.map.baidu.com/place/detail?uid=2366a2746a980013e215f907&output=html&source=placeapi_v2", "overall_rating": "0.0", "image_num": "2", "comment_num": "1", "children": []}}, {"name": "GOODYEAR\u56fa\u7279\u5f02\u8f6e\u80ce\u8679\u5f69\u6c7d\u8f66\u670d\u52a1\u4e2d\u5fc3", "location": {"lat": 34.237642, "lng": 108.986849}, "address": "\u9655\u897f\u7701\u897f\u5b89\u5e02\u96c1\u5854\u533a\u897f\u90e8\u5bb6\u5177\u57ceb\u533a-2\u6392", "province": "\u9655\u897f\u7701", "city": "\u897f\u5b89\u5e02", "area": "\u96c1\u5854\u533a", "street_id": "c2f2469189a952ec0869d90e", "detail": 1, "uid": "c2f2469189a952ec0869d90e", "detail_info": {"tag": "\u6c7d\u8f66\u670d\u52a1;\u6c7d\u8f66\u7f8e\u5bb9", "type": "life", "detail_url": "http://api.map.baidu.com/place/detail?uid=c2f2469189a952ec0869d90e&output=html&source=placeapi_v2", "image_num": "11", "comment_num": "1", "children": []}}, {"name": "\u5e9e\u514b\u6c7d\u8d38", "location": {"lat": 34.244426, "lng": 108.953574}, "address": "\u897f\u5b89\u5e02\u7891\u6797\u533a\u957f\u5b89\u5317\u8def91\u53f7\u5bcc\u57ce\u5927\u53a612\u5c42", "province": "\u9655\u897f\u7701", "city": "\u897f\u5b89\u5e02", "area": "\u7891\u6797\u533a", "street_id": "60c55141c9a6291714c8f6ee", "detail": 1, "uid": "60c55141c9a6291714c8f6ee", "detail_info": {"tag": "\u6c7d\u8f66\u670d\u52a1;\u6c7d\u8f66\u9500\u552e", "type": "life", "detail_url": "http://api.map.baidu.com/place/detail?uid=60c55141c9a6291714c8f6ee&output=html&source=placeapi_v2", "image_num": "1", "children": []}}, {"name": "\u53cb\u90a6\u8f66\u53cb", "location": {"lat": 34.229725, "lng": 108.9902}, "address": "\u9655\u897f\u7701\u897f\u5b89\u5e02\u96c1\u5854\u533a\u516b\u4e00\u5c0f\u533a(\u516b\u4e00\u5df7\u4e1c)", "province": "\u9655\u897f\u7701", "city": "\u897f\u5b89\u5e02", "area": "\u96c1\u5854\u533a", "street_id": "c70f511568fd8a64100daaec", "detail": 1, "uid": "c70f511568fd8a64100daaec", "detail_info": {"tag": "\u6c7d\u8f66\u670d\u52a1;\u6c7d\u8f66\u7f8e\u5bb9", "type": "life", "detail_url": "http://api.map.baidu.com/place/detail?uid=c70f511568fd8a64100daaec&output=html&source=placeapi_v2", "image_num": "2", "children": []}}, {"name": "\u665f\u5b9d\u6c7d\u8f66\u670d\u52a1", "location": {"lat": 34.244619, "lng": 109.062855}, "address": "\u534a\u5f15\u8def\u5317\u6bbf\u675186\u53f7", "province": "\u9655\u897f\u7701", "city": "\u897f\u5b89\u5e02", "area": "\u705e\u6865\u533a", "street_id": "266c9ae5854655fc31f71dd6", "detail": 1, "uid": "266c9ae5854655fc31f71dd6", "detail_info": {"tag": "\u6c7d\u8f66\u670d\u52a1;\u6c7d\u8f66\u9500\u552e", "type": "life", "detail_url": "http://api.map.baidu.com/place/detail?uid=266c9ae5854655fc31f71dd6&output=html&source=placeapi_v2", "image_num": "5", "children": []}}, {"name": "\u673a\u6cb9\u7535\u74f6\u56db\u8f6e\u5b9a\u4f4d", "location": {"lat": 34.193887, "lng": 108.956477}, "address": "\u9655\u897f\u7701\u897f\u5b89\u5e02\u96c1\u5854\u533a\u957f\u5b89\u7acb\u4ea4\u6865", "province": "\u9655\u897f\u7701", "city": "\u897f\u5b89\u5e02", "area": "\u96c1\u5854\u533a", "street_id": "a57c303696885a1317b54b60", "detail": 1, "uid": "a57c303696885a1317b54b60", "detail_info": {"tag": "\u6c7d\u8f66\u670d\u52a1;\u6c7d\u8f66\u914d\u4ef6", "type": "life", "detail_url": "http://api.map.baidu.com/place/detail?uid=a57c303696885a1317b54b60&output=html&source=placeapi_v2", "image_num": "1", "children": []}}, {"name": "\u8f69\u94b0\u6c7d\u79df", "location": {"lat": 34.223181, "lng": 108.952426}, "address": "\u5927\u96c1\u5854\u8857\u9053\u7eac\u4e8c\u8857\u5341\u5b57\u897f\u5357\u89d2\u96c1\u5854\u6587\u5316\u65b0\u5929\u5730(\u539f\u6d82\u9e26\u8857\u4e0a)", "province": "\u9655\u897f\u7701", "city": "\u897f\u5b89\u5e02", "area": "\u96c1\u5854\u533a", "street_id": "12ea9dcb4973407a2902e15c", "detail": 1, "uid": "12ea9dcb4973407a2902e15c", "detail_info": {"tag": "\u6c7d\u8f66\u670d\u52a1;\u6c7d\u8f66\u79df\u8d41", "type": "life", "detail_url": "http://api.map.baidu.com/place/detail?uid=12ea9dcb4973407a2902e15c&output=html&source=placeapi_v2", "image_num": "6", "comment_num": "0", "children": []}}, {"name": "\u535a\u4e16\u6c7d\u8f66\u4e13\u4e1a\u7ef4\u4fee", "location": {"lat": 34.260679, "lng": 108.972869}, "address": "\u9655\u897f\u7701\u897f\u5b89\u5e02\u7891\u6797\u533a\u4e1c\u5341\u4e00\u9053\u5df77", "province": "\u9655\u897f\u7701", "city": "\u897f\u5b89\u5e02", "area": "\u7891\u6797\u533a", "street_id": "dfc496b61e021bb68936ee10", "detail": 1, "uid": "dfc496b61e021bb68936ee10", "detail_info": {"tag": "\u6c7d\u8f66\u670d\u52a1;\u6c7d\u8f66\u7ef4\u4fee", "type": "life", "detail_url": "http://api.map.baidu.com/place/detail?uid=dfc496b61e021bb68936ee10&output=html&source=placeapi_v2", "image_num": "13", "comment_num": "2", "children": []}}, {"name": "\u5b8c\u7f8e(\u4e3d\u5eb7\u7f8e\u7f18\u670d\u52a1\u90e8)", "location": {"lat": 34.233109, "lng": 108.977197}, "address": "\u9655\u897f\u7701\u897f\u5b89\u5e02\u96c1\u5854\u533a\u592a\u4e59\u8def\u5357\u4e8c\u73af\u7acb\u4ea4\u897f\u5317\u89d2\u66fc\u57ce\u56fd\u96451\u53f7\u697c1\u5c42", "province": "\u9655\u897f\u7701", "city": "\u897f\u5b89\u5e02", "area": "\u96c1\u5854\u533a", "street_id": "9375c1cf0e8b68c8c2f1cf71", "detail": 1, "uid": "9375c1cf0e8b68c8c2f1cf71", "detail_info": {"tag": "\u6c7d\u8f66\u670d\u52a1;\u6c7d\u8f66\u7f8e\u5bb9", "type": "life", "detail_url": "http://api.map.baidu.com/place/detail?uid=9375c1cf0e8b68c8c2f1cf71&output=html&source=placeapi_v2", "image_num": "4", "children": []}}, {"name": "\u897f\u5b89\u5e02\u7891\u6797\u533a\u798f\u817e\u6c7d\u8f66\u517b\u62a4\u7ef4\u4fee\u670d\u52a1\u7ad9", "location": {"lat": 34.254707, "lng": 108.978503}, "address": "\u592a\u4e59\u8def\u4e3d\u82d1\u5e95\u5546", "province": "\u9655\u897f\u7701", "city": "\u897f\u5b89\u5e02", "area": "\u7891\u6797\u533a", "street_id": "a3216fa17a947a7709b93a37", "detail": 1, "uid": "a3216fa17a947a7709b93a37", "detail_info": {"tag": "\u6c7d\u8f66\u670d\u52a1;\u6c7d\u8f66\u7f8e\u5bb9", "type": "life", "detail_url": "http://api.map.baidu.com/place/detail?uid=a3216fa17a947a7709b93a37&output=html&source=placeapi_v2", "image_num": "2", "children": []}}, {"name": "\u91d1\u5178\u6d17\u8f66\u884c(\u4ea4\u5927\u66f2\u6c5f\u65b0\u6751\u5357\u82d1\u4e1c)", "location": {"lat": 34.233529, "lng": 109.012424}, "address": "\u66f2\u6c5f\u65b0\u6751\u5ef6\u5174\u95e8\u535745\u8def\u516c\u4ea4\u8f66\u7ec8\u70b9\u7ad9\u9644\u8fd1", "province": "\u9655\u897f\u7701", "city": "\u897f\u5b89\u5e02", "area": "\u96c1\u5854\u533a", "street_id": "8a1678031eb93c75b1077ddf", "detail": 1, "uid": "8a1678031eb93c75b1077ddf", "detail_info": {"tag": "\u6c7d\u8f66\u670d\u52a1;\u6c7d\u8f66\u7f8e\u5bb9", "type": "life", "detail_url": "http://api.map.baidu.com/place/detail?uid=8a1678031eb93c75b1077ddf&output=html&source=placeapi_v2", "image_num": "3", "children": []}}, {"name": "\u534e\u4e2d\u745e\u9a70\u6c7d\u8f66\u670d\u52a1\u4e2d\u5fc3", "location": {"lat": 34.188049, "lng": 108.952809}, "address": "\u957f\u5b89\u5357\u8def\u897f\u5b89\u534e\u4e2d\u79d1\u6280\u6280\u672f\u5b66\u966263\u53f7", "province": "\u9655\u897f\u7701", "city": "\u897f\u5b89\u5e02", "area": "\u96c1\u5854\u533a", "street_id": "0dc3d82d240cc51175e5b601", "telephone": "(029)85338407", "detail": 1, "uid": "0dc3d82d240cc51175e5b601", "detail_info": {"tag": "\u6c7d\u8f66\u670d\u52a1;\u6c7d\u8f66\u7f8e\u5bb9", "navi_location": {"lng": 108.9525018762, "lat": 34.187995113274}, "type": "life", "detail_url": "http://api.map.baidu.com/place/detail?uid=0dc3d82d240cc51175e5b601&output=html&source=placeapi_v2", "image_num": "8", "comment_num": "2", "children": []}}, {"name": "\u897f\u5b89\u9a70\u7fd4\u6c7d\u8f66\u7ef4\u4fee\u670d\u52a1\u6709\u9650\u516c\u53f8", "location": {"lat": 34.237406, "lng": 109.018702}, "address": "\u9655\u897f\u7701\u897f\u5b89\u5e02\u96c1\u5854\u533a\u897f\u5b89\u5e02\u516c\u5b89\u5c40\u4ea4\u8b66\u652f\u961f\u66f2\u6c5f\u5927\u961f\u4e8b\u6545\u5904\u7406\u4e2d\u961f", "province": "\u9655\u897f\u7701", "city": "\u897f\u5b89\u5e02", "area": "\u96c1\u5854\u533a", "street_id": "0b6cf577a77b04d32b06ce70", "detail": 1, "uid": "0b6cf577a77b04d32b06ce70", "detail_info": {"tag": "\u6c7d\u8f66\u670d\u52a1;\u6c7d\u8f66\u7ef4\u4fee", "type": "life", "detail_url": "http://api.map.baidu.com/place/detail?uid=0b6cf577a77b04d32b06ce70&output=html&source=placeapi_v2", "image_num": "1", "children": []}}, {"name": "\u897f\u5b89\u4f1f\u6770\u6c7d\u8f66\u670d\u52a1\u6709\u9650\u516c\u53f8", "location": {"lat": 34.252142, "lng": 108.981601}, "address": "\u5efa\u4e1c\u88574\u53f7", "province": "\u9655\u897f\u7701", "city": "\u897f\u5b89\u5e02", "area": "\u7891\u6797\u533a", "street_id": "f05f2a6b65a01849c16c140e", "telephone": "(029)82222693", "detail": 1, "uid": "f05f2a6b65a01849c16c140e", "detail_info": {"tag": "\u6c7d\u8f66\u670d\u52a1;\u6c7d\u8f66\u9500\u552e", "type": "life", "detail_url": "http://api.map.baidu.com/place/detail?uid=f05f2a6b65a01849c16c140e&output=html&source=placeapi_v2", "image_num": "3", "comment_num": "0", "children": []}}, {"name": "\u9e7f\u586c\u6c7d\u8f66\u7f8e\u5bb9", "location": {"lat": 34.27567, "lng": 109.078567}, "address": "\u9e7f\u586c\u885784\u53f7\u9644\u8fd1", "province": "\u9655\u897f\u7701", "city": "\u897f\u5b89\u5e02", "area": "\u705e\u6865\u533a", "street_id": "9eb2c7acd3d9b3f42b06ce0c", "detail": 1, "uid": "9eb2c7acd3d9b3f42b06ce0c", "detail_info": {"tag": "\u6c7d\u8f66\u670d\u52a1;\u6c7d\u8f66\u7f8e\u5bb9", "type": "life", "detail_url": "http://api.map.baidu.com/place/detail?uid=9eb2c7acd3d9b3f42b06ce0c&output=html&source=placeapi_v2", "image_num": "3", "children": []}}, {"name": "\u65b0\u7406\u5ff5\u6c7d\u8f66\u670d\u52a1", "location": {"lat": 34.239253, "lng": 109.040588}, "address": "\u7b49\u9a7e\u5761\u8857\u9053\u7530\u9a6c\u8def\u56fd\u5bb6\u7535\u7f51\u5341\u5b57\u5357100\u7c73", "province": "\u9655\u897f\u7701", "city": "\u897f\u5b89\u5e02", "area": "\u96c1\u5854\u533a", "street_id": "30b74b9f2cb9ee155fd4fec2", "detail": 1, "uid": "30b74b9f2cb9ee155fd4fec2", "detail_info": {"tag": "\u6c7d\u8f66\u670d\u52a1;\u6c7d\u8f66\u9500\u552e", "navi_location": {"lng": 109.04090198437, "lat": 34.239156407087}, "type": "life", "detail_url": "http://api.map.baidu.com/place/detail?uid=30b74b9f2cb9ee155fd4fec2&output=html&source=placeapi_v2", "image_num": "4", "children": []}}, {"name": "\u4e07\u901a\u6c7d\u4fee", "location": {"lat": 34.237146, "lng": 109.036008}, "address": "\u4e1c\u6708\u8def52\u53f7\u9644\u8fd1", "province": "\u9655\u897f\u7701", "city": "\u897f\u5b89\u5e02", "area": "\u96c1\u5854\u533a", "street_id": "e6a0afcb45ac6ce7deee8bda", "detail": 1, "uid": "e6a0afcb45ac6ce7deee8bda", "detail_info": {"tag": "\u6c7d\u8f66\u670d\u52a1;\u6c7d\u8f66\u7ef4\u4fee", "type": "life", "detail_url": "http://api.map.baidu.com/place/detail?uid=e6a0afcb45ac6ce7deee8bda&output=html&source=placeapi_v2", "image_num": "2", "children": []}}, {"name": "\u667a\u6052\u6c7d\u8f66\u7f8e\u5bb9", "location": {"lat": 34.193539, "lng": 108.953478}, "address": "\u9655\u897f\u7701\u897f\u5b89\u5e02\u96c1\u5854\u533a\u5357\u4e09\u73af\u4e1c\u4e09\u723b\u5c0f\u660e\u661f\u5e7c\u513f\u56ed\u5317150\u7c73", "province": "\u9655\u897f\u7701", "city": "\u897f\u5b89\u5e02", "area": "\u96c1\u5854\u533a", "street_id": "f5152da223a7cfd59f09f737", "detail": 1, "uid": "f5152da223a7cfd59f09f737", "detail_info": {"tag": "\u6c7d\u8f66\u670d\u52a1;\u6c7d\u8f66\u7f8e\u5bb9", "type": "life", "detail_url": "http://api.map.baidu.com/place/detail?uid=f5152da223a7cfd59f09f737&output=html&source=placeapi_v2", "image_num": "2", "children": []}}, {"name": "\u6ee1\u610f\u94a3\u91d1\u4e00\u7edd", "location": {"lat": 34.256166, "lng": 109.040585}, "address": "\u54b8\u5b81\u4e1c\u8def\u4e0e\u7530\u9a6c\u8def\u5341\u5b50\u535750\u7c73\u8def\u4e1c", "province": "\u9655\u897f\u7701", "city": "\u897f\u5b89\u5e02", "area": "\u96c1\u5854\u533a", "street_id": "afc461dc90ea0e1d74026933", "detail": 1, "uid": "afc461dc90ea0e1d74026933", "detail_info": {"tag": "\u6c7d\u8f66\u670d\u52a1;\u6c7d\u8f66\u7ef4\u4fee", "type": "life", "detail_url": "http://api.map.baidu.com/place/detail?uid=afc461dc90ea0e1d74026933&output=html&source=placeapi_v2", "image_num": "6", "children": []}}, {"name": "\u7535\u52a8\u6c7d\u8f66\u670d\u52a1\u7ad9", "location": {"lat": 34.269919, "lng": 109.001621}, "address": "\u9655\u897f\u7701\u897f\u5b89\u5e02\u7891\u6797\u533a\u4f1e\u5854\u8def\u7535\u52a8\u8f66\u81ea\u884c\u8f66\u7ae5\u8f66\u5e02\u573aM14", "province": "\u9655\u897f\u7701", "city": "\u897f\u5b89\u5e02", "area": "\u7891\u6797\u533a", "street_id": "579d1074822960a02cb96d04", "telephone": "15529207656", "detail": 1, "uid": "579d1074822960a02cb96d04", "detail_info": {"tag": "\u6c7d\u8f66\u670d\u52a1;\u6c7d\u8f66\u7ef4\u4fee", "type": "life", "detail_url": "http://api.map.baidu.com/place/detail?uid=579d1074822960a02cb96d04&output=html&source=placeapi_v2", "image_num": "1", "children": []}}, {"name": "\u98de\u9a70\u6c7d\u4fee", "location": {"lat": 34.254293, "lng": 109.040502}, "address": "\u897f\u5b89\u5e02\u96c1\u5854\u533a\u7530\u9a6c\u8def10\u53f7", "province": "\u9655\u897f\u7701", "city": "\u897f\u5b89\u5e02", "area": "\u96c1\u5854\u533a", "street_id": "849d64332201da383617dc80", "detail": 1, "uid": "849d64332201da383617dc80", "detail_info": {"tag": "\u6c7d\u8f66\u670d\u52a1;\u6c7d\u8f66\u7ef4\u4fee", "type": "life", "detail_url": "http://api.map.baidu.com/place/detail?uid=849d64332201da383617dc80&output=html&source=placeapi_v2", "image_num": "5", "children": []}}, {"name": "\u897f\u5b89\u4e30\u901a\u6c7d\u8f66\u670d\u52a1\u6709\u9650\u516c\u53f8", "location": {"lat": 34.238653, "lng": 109.036422}, "address": "\u9655\u897f\u7701\u897f\u5b89\u5e02\u96c1\u5854\u533a\u4e1c\u6708\u8def", "province": "\u9655\u897f\u7701", "city": "\u897f\u5b89\u5e02", "area": "\u96c1\u5854\u533a", "detail": 1, "uid": "7615ab60859fbee534b06c6c", "detail_info": {"tag": "\u6c7d\u8f66\u670d\u52a1;\u6c7d\u8f66\u9500\u552e", "type": "life", "detail_url": "http://api.map.baidu.com/place/detail?uid=7615ab60859fbee534b06c6c&output=html&source=placeapi_v2", "image_num": "1", "children": []}}, {"name": "\u8001\u7a0b\u6c7d\u8f66\u5185\u9970\u7ffb\u65b0", "location": {"lat": 34.235669, "lng": 109.006126}, "address": "\u897f\u5b89\u5e02\u96c1\u5854\u533a\u535a\u6e90\u8def\u81ea\u7f161\u53f7", "province": "\u9655\u897f\u7701", "city": "\u897f\u5b89\u5e02", "area": "\u96c1\u5854\u533a", "street_id": "6094ff7062b790a7eb12e47c", "telephone": "15877324171", "detail": 1, "uid": "6094ff7062b790a7eb12e47c", "detail_info": {"tag": "\u6c7d\u8f66\u670d\u52a1", "type": "life", "detail_url": "http://api.map.baidu.com/place/detail?uid=6094ff7062b790a7eb12e47c&output=html&source=placeapi_v2", "image_num": "4", "children": []}}, {"name": "\u671d\u8f89\u6c7d\u4fee", "location": {"lat": 34.235252, "lng": 109.001192}, "address": "\u96c1\u7fd4\u8def68\u53f7\u9644\u8fd1", "province": "\u9655\u897f\u7701", "city": "\u897f\u5b89\u5e02", "area": "\u96c1\u5854\u533a", "street_id": "a3029733a9b7d39b09b93a37", "detail": 1, "uid": "a3029733a9b7d39b09b93a37", "detail_info": {"tag": "\u6c7d\u8f66\u670d\u52a1;\u6c7d\u8f66\u7ef4\u4fee", "type": "life", "detail_url": "http://api.map.baidu.com/place/detail?uid=a3029733a9b7d39b09b93a37&output=html&source=placeapi_v2", "image_num": "4", "children": []}}, {"name": "\u957f\u4e30\u6c7d\u8f66\u670d\u52a1\u4e2d\u5fc3", "location": {"lat": 34.24324, "lng": 108.985693}, "address": "\u9655\u897f\u7701\u897f\u5b89\u5e02\u7891\u6797\u533a\u7ecf\u4e5d\u8def2\u53f7", "province": "\u9655\u897f\u7701", "city": "\u897f\u5b89\u5e02", "area": "\u7891\u6797\u533a", "street_id": "5a84a1c41e0b13b3354aaedf", "telephone": "(029)82345133", "detail": 1, "uid": "5a84a1c41e0b13b3354aaedf", "detail_info": {"tag": "\u6c7d\u8f66\u670d\u52a1;\u6c7d\u8f66\u7f8e\u5bb9", "type": "life", "detail_url": "http://api.map.baidu.com/place/detail?uid=5a84a1c41e0b13b3354aaedf&output=html&source=placeapi_v2", "image_num": "4", "comment_num": "0", "children": []}}, {"name": "\u9510\u7ffc\u6c7d\u8f66\u7528\u54c1\u670d\u52a1", "location": {"lat": 34.265307, "lng": 109.00668}, "address": "\u97e9\u68ee\u8def25\u53f7\u9644\u8fd1", "province": "\u9655\u897f\u7701", "city": "\u897f\u5b89\u5e02", "area": "\u65b0\u57ce\u533a", "street_id": "1632c44faf4614c733169be4", "detail": 1, "uid": "1632c44faf4614c733169be4", "detail_info": {"tag": "\u6c7d\u8f66\u670d\u52a1;\u6c7d\u8f66\u7f8e\u5bb9", "type": "life", "detail_url": "http://api.map.baidu.com/place/detail?uid=1632c44faf4614c733169be4&output=html&source=placeapi_v2", "image_num": "4", "children": []}}, {"name": "\u946b\u8bda\u6c7d\u914d", "location": {"lat": 34.261553, "lng": 109.033691}, "address": "\u897f\u5b89\u5e02\u65b0\u57ce\u533a\u9e3f\u745e\u6797\u6c7d\u914d\u533a4\u63929\u53f7", "province": "\u9655\u897f\u7701", "city": "\u897f\u5b89\u5e02", "area": "\u65b0\u57ce\u533a", "street_id": "3bb77f9215eec0141df74df0", "telephone": "(029)89537920,18149045872", "detail": 1, "uid": "3bb77f9215eec0141df74df0", "detail_info": {"tag": "\u6c7d\u8f66\u670d\u52a1;\u6c7d\u8f66\u914d\u4ef6", "type": "life", "detail_url": "http://api.map.baidu.com/place/detail?uid=3bb77f9215eec0141df74df0&output=html&source=placeapi_v2", "image_num": "3", "children": []}}, {"name": "\u590d\u8bda\u6c7d\u8f66\u88c5\u6f62\u5ea7\u5957", "location": {"lat": 34.268684, "lng": 108.973281}, "address": "\u5c1a\u52e4\u8def70\u53f7", "province": "\u9655\u897f\u7701", "city": "\u897f\u5b89\u5e02", "area": "\u65b0\u57ce\u533a", "street_id": "7519d4ed0210e2e7c26c14a0", "detail": 1, "uid": "7519d4ed0210e2e7c26c14a0", "detail_info": {"tag": "\u6c7d\u8f66\u670d\u52a1;\u6c7d\u8f66\u7f8e\u5bb9", "type": "life", "detail_url": "http://api.map.baidu.com/place/detail?uid=7519d4ed0210e2e7c26c14a0&output=html&source=placeapi_v2", "image_num": "8", "children": []}}, {"name": "\u957f\u5174\u6c7d\u8f66\u7f8e\u5bb9", "location": {"lat": 34.229752, "lng": 108.999281}, "address": "\u9655\u897f\u7701\u897f\u5b89\u5e02\u96c1\u5854\u533a\u96c1\u7fd4\u8def\u897f\u5b89\u7406\u5de5\u5927\u5b66(\u66f2\u6c5f\u6821\u533a\u897f\u533a)\u4e1c", "province": "\u9655\u897f\u7701", "city": "\u897f\u5b89\u5e02", "area": "\u96c1\u5854\u533a", "street_id": "0ff9049b72b9cb53f60e7774", "detail": 1, "uid": "0ff9049b72b9cb53f60e7774", "detail_info": {"tag": "\u6c7d\u8f66\u670d\u52a1;\u6c7d\u8f66\u7f8e\u5bb9", "type": "life", "detail_url": "http://api.map.baidu.com/place/detail?uid=0ff9049b72b9cb53f60e7774&output=html&source=placeapi_v2", "image_num": "2", "children": []}}, {"name": "\u705e\u6865\u533a\u5e7f\u64ad\u7535\u89c6\u6237\u6237\u901a\u6807\u51c6\u5316\u670d\u52a1\u7ad9", "location": {"lat": 34.279018, "lng": 109.071644}, "address": "\u9655\u897f\u7701\u897f\u5b89\u5e02\u705e\u6865\u533a\u7eba\u4e00\u8def153\u53f7", "province": "\u9655\u897f\u7701", "city": "\u897f\u5b89\u5e02", "area": "\u705e\u6865\u533a", "street_id": "297ed7e358257122e215f937", "detail": 1, "uid": "297ed7e358257122e215f937", "detail_info": {"tag": "\u6c7d\u8f66\u670d\u52a1", "navi_location": {"lng": 109.07162367259, "lat": 34.279010222899}, "type": "life", "detail_url": "http://api.map.baidu.com/place/detail?uid=297ed7e358257122e215f937&output=html&source=placeapi_v2", "image_num": "6", "children": []}}, {"name": "\u65b0\u5947\u88c5\u9970", "location": {"lat": 34.262761, "lng": 108.967503}, "address": "\u7891\u6797\u533a\u4e1c\u4ed3\u95e8143\u53f7", "province": "\u9655\u897f\u7701", "city": "\u897f\u5b89\u5e02", "area": "\u7891\u6797\u533a", "street_id": "439649cadd0aafe2ddee8b3a", "telephone": "13474136627", "detail": 1, "uid": "439649cadd0aafe2ddee8b3a", "detail_info": {"tag": "\u6c7d\u8f66\u670d\u52a1;\u6c7d\u8f66\u7f8e\u5bb9", "type": "life", "detail_url": "http://api.map.baidu.com/place/detail?uid=439649cadd0aafe2ddee8b3a&output=html&source=placeapi_v2", "overall_rating": "2.2", "image_num": "13", "comment_num": "1", "children": []}}, {"name": "\u9655\u897f\u5510\u4f1a\u6c7d\u8f66\u670d\u52a1\u6709\u9650\u516c\u53f8", "location": {"lat": 34.278105, "lng": 109.065319}, "address": "\u534a\u5761\u56fd\u9645\u827a\u672f\u533aC-B-0304", "province": "\u9655\u897f\u7701", "city": "\u897f\u5b89\u5e02", "area": "\u705e\u6865\u533a", "street_id": "5185a616aa19fa5929fc4837", "detail": 1, "uid": "bfb7ccb9f1b4436528b97cd1", "detail_info": {"tag": "\u6c7d\u8f66\u670d\u52a1;\u6c7d\u8f66\u9500\u552e", "type": "life", "detail_url": "http://api.map.baidu.com/place/detail?uid=bfb7ccb9f1b4436528b97cd1&output=html&source=placeapi_v2", "image_num": "5", "children": []}}, {"name": "\u4f73\u950b\u6c7d\u4fee", "location": {"lat": 34.256619, "lng": 109.039952}, "address": "\u9655\u897f\u7701\u897f\u5b89\u5e02\u96c1\u5854\u533a\u54b8\u5b81\u4e1c\u8def306\u53f7", "province": "\u9655\u897f\u7701", "city": "\u897f\u5b89\u5e02", "area": "\u96c1\u5854\u533a", "street_id": "6797f2623777ab6dc61e5195", "detail": 1, "uid": "6797f2623777ab6dc61e5195", "detail_info": {"tag": "\u6c7d\u8f66\u670d\u52a1;\u6c7d\u8f66\u7ef4\u4fee", "type": "life", "detail_url": "http://api.map.baidu.com/place/detail?uid=6797f2623777ab6dc61e5195&output=html&source=placeapi_v2", "image_num": "11", "children": []}}, {"name": "\u897f\u5b89\u5e02\u7891\u6797\u533a\u76db\u548c\u6c7d\u8f66\u517b\u62a4\u884c(\u592a\u4e59\u8def\u5e97)", "location": {"lat": 34.255319, "lng": 108.979127}, "address": "\u592a\u4e59\u8def275\u53f7", "province": "\u9655\u897f\u7701", "city": "\u897f\u5b89\u5e02", "area": "\u7891\u6797\u533a", "street_id": "a74481d603d3293bf503b8c6", "telephone": "13991143752", "detail": 1, "uid": "a74481d603d3293bf503b8c6", "detail_info": {"tag": "\u6c7d\u8f66\u670d\u52a1;\u6c7d\u8f66\u7f8e\u5bb9", "navi_location": {"lng": 108.97888459879, "lat": 34.255422074787}, "type": "life", "detail_url": "http://api.map.baidu.com/place/detail?uid=a74481d603d3293bf503b8c6&output=html&source=placeapi_v2", "overall_rating": "4.0", "image_num": "1", "children": []}}, {"name": "\u660c\u660e\u6c7d\u8f66\u79df\u8d41", "location": {"lat": 34.256095, "lng": 108.981611}, "address": "\u4e50\u5c45\u5382\u6b63\u885762\u53f7", "province": "\u9655\u897f\u7701", "city": "\u897f\u5b89\u5e02", "area": "\u7891\u6797\u533a", "street_id": "c02db9afb3911ab409b93af1", "detail": 1, "uid": "c02db9afb3911ab409b93af1", "detail_info": {"tag": "\u6c7d\u8f66\u670d\u52a1;\u6c7d\u8f66\u79df\u8d41", "type": "life", "detail_url": "http://api.map.baidu.com/place/detail?uid=c02db9afb3911ab409b93af1&output=html&source=placeapi_v2", "image_num": "4", "children": []}}, {"name": "\u6cf0\u4e30\u6c7d\u914d\u5546\u884c", "location": {"lat": 34.261696, "lng": 109.033543}, "address": "\u897f\u5b89\u5e02\u65b0\u57ce\u533a\u9e3f\u745e\u6797\u6c7d\u914d\u533a5\u63922\u53f7", "province": "\u9655\u897f\u7701", "city": "\u897f\u5b89\u5e02", "area": "\u65b0\u57ce\u533a", "street_id": "a1975a58cb87f4eb9ee321f2", "telephone": "(029)83389573,15349216184", "detail": 1, "uid": "a1975a58cb87f4eb9ee321f2", "detail_info": {"tag": "\u6c7d\u8f66\u670d\u52a1;\u6c7d\u8f66\u914d\u4ef6", "type": "life", "detail_url": "http://api.map.baidu.com/place/detail?uid=a1975a58cb87f4eb9ee321f2&output=html&source=placeapi_v2", "image_num": "3", "children": []}}, {"name": "\u98de\u8dc3\u6c7d\u8f66\u7528\u54c1", "location": {"lat": 34.260994, "lng": 109.033393}, "address": "\u897f\u5b89\u5e02\u65b0\u57ce\u533a\u54b8\u5b81\u8def\u6c7d\u914d\u57ce5\u63925\u53f7", "province": "\u9655\u897f\u7701", "city": "\u897f\u5b89\u5e02", "area": "\u65b0\u57ce\u533a", "street_id": "55dd2beb61916b592b3a9fc1", "telephone": "13759873517", "detail": 1, "uid": "55dd2beb61916b592b3a9fc1", "detail_info": {"tag": "\u6c7d\u8f66\u670d\u52a1;\u6c7d\u8f66\u7f8e\u5bb9", "type": "life", "detail_url": "http://api.map.baidu.com/place/detail?uid=55dd2beb61916b592b3a9fc1&output=html&source=placeapi_v2", "image_num": "5", "comment_num": "1", "children": []}}, {"name": "\u8f66\u4e4b\u5bb6\u6c7d\u8f66\u7528\u54c1", "location": {"lat": 34.26081, "lng": 109.033394}, "address": "\u9655\u897f\u7701\u897f\u5b89\u5e02\u65b0\u57ce\u533a\u97e9\u68ee\u5be8\u8857\u9053\u54b8\u5b81\u4e1c\u8def609\u53f7\u9e3f\u745e\u6797\u6c7d\u914d\u88c5\u6f62\u57ce3\u63921-3\u53f7", "province": "\u9655\u897f\u7701", "city": "\u897f\u5b89\u5e02", "area": "\u65b0\u57ce\u533a", "street_id": "99a034293df1f1201f389482", "telephone": "15702979078", "detail": 1, "uid": "99a034293df1f1201f389482", "detail_info": {"tag": "\u6c7d\u8f66\u670d\u52a1;\u6c7d\u8f66\u7f8e\u5bb9", "type": "life", "detail_url": "http://api.map.baidu.com/place/detail?uid=99a034293df1f1201f389482&output=html&source=placeapi_v2", "image_num": "5", "comment_num": "0", "children": []}}, {"name": "\u5144\u5f1f\u6d17\u8f66\u884c", "location": {"lat": 34.272604, "lng": 109.057864}, "address": "\u534a\u5761\u8def79\u53f7", "province": "\u9655\u897f\u7701", "city": "\u897f\u5b89\u5e02", "area": "\u705e\u6865\u533a", "street_id": "dd8b6fc40a67bfa8d7851f43", "telephone": "13991257828", "detail": 1, "uid": "dd8b6fc40a67bfa8d7851f43", "detail_info": {"tag": "\u6c7d\u8f66\u670d\u52a1;\u6c7d\u8f66\u7f8e\u5bb9", "type": "life", "detail_url": "http://api.map.baidu.com/place/detail?uid=dd8b6fc40a67bfa8d7851f43&output=html&source=placeapi_v2", "image_num": "1", "children": []}}, {"name": "\u94a3\u91d1\u55b7\u6f06", "location": {"lat": 34.216035, "lng": 109.118909}, "address": "\u9655\u897f\u7701\u897f\u5b89\u5e02\u705e\u6865\u533a\u72c4\u5be8\u8857\u9053\u9c8d\u65d7\u5be8\u72c4\u5be8\u5357\u8def\u5c0f\u5929\u9e45\u5e7c\u513f\u56ed", "province": "\u9655\u897f\u7701", "city": "\u897f\u5b89\u5e02", "area": "\u705e\u6865\u533a", "detail": 1, "uid": "7adb465c21b0b23b7069d3ca", "detail_info": {"tag": "\u6c7d\u8f66\u670d\u52a1;\u6c7d\u8f66\u7ef4\u4fee", "type": "life", "detail_url": "http://api.map.baidu.com/place/detail?uid=7adb465c21b0b23b7069d3ca&output=html&source=placeapi_v2", "image_num": "1", "children": []}}, {"name": "\u8001\u5f20\u6d17\u8f66", "location": {"lat": 34.236356, "lng": 109.040676}, "address": "\u4e1c\u6708\u8def\u4e0e\u7530\u9a6c\u8def\u4ea4\u53c9\u53e3\u535750\u7c73", "province": "\u9655\u897f\u7701", "city": "\u897f\u5b89\u5e02", "area": "\u96c1\u5854\u533a", "street_id": "789d0c5310687c8315a19089", "detail": 1, "uid": "789d0c5310687c8315a19089", "detail_info": {"tag": "\u6c7d\u8f66\u670d\u52a1;\u6c7d\u8f66\u7f8e\u5bb9", "type": "life", "detail_url": "http://api.map.baidu.com/place/detail?uid=789d0c5310687c8315a19089&output=html&source=placeapi_v2", "image_num": "3", "children": []}}, {"name": "\u739b\u5409\u65af\u8f6e\u80ce", "location": {"lat": 34.236586, "lng": 109.036493}, "address": "\u9655\u897f\u7701\u897f\u5b89\u5e02\u96c1\u5854\u533a\u7b49\u9a7e\u5761\u8857\u9053\u4e1c\u6708\u8def\u534e\u83b9\u82b1\u5349\u56ed\u9644\u8fd1", "province": "\u9655\u897f\u7701", "city": "\u897f\u5b89\u5e02", "area": "\u96c1\u5854\u533a", "street_id": "03e22bff90c00a818936ee30", "detail": 1, "uid": "03e22bff90c00a818936ee30", "detail_info": {"tag": "\u6c7d\u8f66\u670d\u52a1;\u6c7d\u8f66\u914d\u4ef6", "navi_location": {"lng": 109.03650452647, "lat": 34.23682532215}, "type": "life", "detail_url": "http://api.map.baidu.com/place/detail?uid=03e22bff90c00a818936ee30&output=html&source=placeapi_v2", "overall_rating": "0.0", "image_num": "2", "comment_num": "1", "children": []}}, {"name": "\u6c7d\u8f66\u7535\u5668\u7535\u74f6", "location": {"lat": 34.252834, "lng": 108.979008}, "address": "\u592a\u4e59\u8def\u4e0e\u6807\u65b0\u8857\u4ea4\u53c9\u53e3\u5357100\u7c73", "province": "\u9655\u897f\u7701", "city": "\u897f\u5b89\u5e02", "area": "\u7891\u6797\u533a", "street_id": "ee801f5ded8020e07adbd291", "detail": 1, "uid": "ee801f5ded8020e07adbd291", "detail_info": {"tag": "\u6c7d\u8f66\u670d\u52a1;\u6c7d\u8f66\u914d\u4ef6", "type": "life", "detail_url": "http://api.map.baidu.com/place/detail?uid=ee801f5ded8020e07adbd291&output=html&source=placeapi_v2", "image_num": "4", "children": []}}, {"name": "\u8f66\u7f8e\u8fbe\u6c7d\u8f66\u670d\u52a1(\u7acb\u4e30\u56fd\u9645\u5e97)", "location": {"lat": 34.253535, "lng": 109.003708}, "address": "\u91d1\u82b1\u5357\u8def58\u53f7\u7acb\u4e30\u56fd\u9645\u8d2d\u7269\u5e7f\u573a\u8d1f2\u5c42", "province": "\u9655\u897f\u7701", "city": "\u897f\u5b89\u5e02", "area": "\u7891\u6797\u533a", "street_id": "06cacef024910ec088db7311", "detail": 1, "uid": "06cacef024910ec088db7311", "detail_info": {"tag": "\u6c7d\u8f66\u670d\u52a1;\u6c7d\u8f66\u7f8e\u5bb9", "navi_location": {"lng": 109.00346087931, "lat": 34.253537859464}, "type": "life", "detail_url": "http://api.map.baidu.com/place/detail?uid=06cacef024910ec088db7311&output=html&source=placeapi_v2", "overall_rating": "3.0", "image_num": "17", "children": []}}, {"name": "\u6d77\u4e30\u8f66\u884c", "location": {"lat": 34.252529, "lng": 108.960097}, "address": "\u897f\u5b89\u5e02\u7891\u6797\u533a\u4f53\u80b2\u9986\u5357\u8def", "province": "\u9655\u897f\u7701", "city": "\u897f\u5b89\u5e02", "area": "\u7891\u6797\u533a", "street_id": "9eaf415ae255b23a1ce999bf", "telephone": "(029)87881827", "detail": 1, "uid": "9eaf415ae255b23a1ce999bf", "detail_info": {"tag": "\u6c7d\u8f66\u670d\u52a1;\u6c7d\u8f66\u9500\u552e", "navi_location": {"lng": 108.95988794083, "lat": 34.25235298748}, "type": "life", "detail_url": "http://api.map.baidu.com/place/detail?uid=9eaf415ae255b23a1ce999bf&output=html&source=placeapi_v2", "image_num": "10", "children": []}}, {"name": "\u8f66\u7f8e\u4f73\u6c7d\u8f66\u7f8e\u5bb9\u4f1a\u6240", "location": {"lat": 34.235715, "lng": 109.096514}, "address": "\u5f18\u77e5\u8def\u4e0e\u767d\u9e7f\u897f\u8def\u5317\u6bb5\u4ea4\u53c9\u53e3\u897f\u531750\u7c73", "province": "\u9655\u897f\u7701", "city": "\u897f\u5b89\u5e02", "area": "\u705e\u6865\u533a", "detail": 1, "uid": "c82d72357cf61551e856fae9", "detail_info": {"tag": "\u6c7d\u8f66\u670d\u52a1;\u6c7d\u8f66\u7f8e\u5bb9", "type": "life", "detail_url": "http://api.map.baidu.com/place/detail?uid=c82d72357cf61551e856fae9&output=html&source=placeapi_v2", "image_num": "1", "children": []}}, {"name": "\u6c7d\u8f66\u7535\u74f6\u670d\u52a1", "location": {"lat": 34.238407, "lng": 108.999214}, "address": "\u9655\u897f\u7701\u897f\u5b89\u5e02\u96c1\u5854\u533a\u96c1\u7fd4\u8def", "province": "\u9655\u897f\u7701", "city": "\u897f\u5b89\u5e02", "area": "\u96c1\u5854\u533a", "street_id": "bf41cca6860d670bb6147f96", "telephone": "13319267781", "detail": 1, "uid": "bf41cca6860d670bb6147f96", "detail_info": {"tag": "\u6c7d\u8f66\u670d\u52a1", "type": "life", "detail_url": "http://api.map.baidu.com/place/detail?uid=bf41cca6860d670bb6147f96&output=html&source=placeapi_v2", "image_num": "2", "comment_num": "1", "children": []}}, {"name": "\u5bbd\u9014\u8f66\u535a\u58eb\u6c7d\u8f66\u7f8e\u5bb9", "location": {"lat": 34.242076, "lng": 108.967365}, "address": "\u9655\u897f\u7701\u897f\u5b89\u5e02\u7891\u6797\u533a\u5efa\u8bbe\u8def\u89e3\u653e\u519b323\u533b\u9662\u5bf9\u9762\u5730\u4e0b\u505c\u8f66\u573a", "province": "\u9655\u897f\u7701", "city": "\u897f\u5b89\u5e02", "area": "\u7891\u6797\u533a", "street_id": "7baea066e96e1523734b87b8", "detail": 1, "uid": "7baea066e96e1523734b87b8", "detail_info": {"tag": "\u6c7d\u8f66\u670d\u52a1;\u6c7d\u8f66\u7f8e\u5bb9", "type": "life", "detail_url": "http://api.map.baidu.com/place/detail?uid=7baea066e96e1523734b87b8&output=html&source=placeapi_v2", "overall_rating": "3.7", "image_num": "2", "comment_num": "21", "children": []}}, {"name": "\u6c5f\u897f\u6c14\u4f53\u538b\u7f29\u673a\u6709\u9650\u516c\u53f8(\u897f\u5317\u9500\u552e\u670d\u52a1\u4e2d\u5fc3)", "location": {"lat": 34.263919, "lng": 108.966228}, "address": "\u53bf\u95e8\u5317\u885717\u53f7", "province": "\u9655\u897f\u7701", "city": "\u897f\u5b89\u5e02", "area": "\u7891\u6797\u533a", "street_id": "4b4e5e1bfd025bd91ef74dba", "detail": 1, "uid": "4b4e5e1bfd025bd91ef74dba", "detail_info": {"tag": "\u6c7d\u8f66\u670d\u52a1;\u6c7d\u8f66\u9500\u552e", "navi_location": {"lng": 108.96622063626, "lat": 34.263903688518}, "type": "life", "detail_url": "http://api.map.baidu.com/place/detail?uid=4b4e5e1bfd025bd91ef74dba&output=html&source=placeapi_v2", "image_num": "6", "children": []}}, {"name": "\u6c7d\u8f66\u7535\u74f6\u8f6e\u80ce", "location": {"lat": 34.259643, "lng": 108.973296}, "address": "\u5efa\u56fd\u8def24\u53f7\u9644\u8fd1", "province": "\u9655\u897f\u7701", "city": "\u897f\u5b89\u5e02", "area": "\u7891\u6797\u533a", "street_id": "038ed7f0ac50efc0e8e58255", "telephone": "15129299727", "detail": 1, "uid": "038ed7f0ac50efc0e8e58255", "detail_info": {"tag": "\u6c7d\u8f66\u670d\u52a1;\u6c7d\u8f66\u914d\u4ef6", "type": "life", "detail_url": "http://api.map.baidu.com/place/detail?uid=038ed7f0ac50efc0e8e58255&output=html&source=placeapi_v2", "image_num": "5", "comment_num": "1", "children": []}}, {"name": "\u901a\u5b87\u6c7d\u79df", "location": {"lat": 34.224809, "lng": 108.957671}, "address": "\u96c1\u5854\u533a\u96c1\u5854\u897f\u8def99\u53f7(\u7eac\u4e8c\u8857\u5341\u5b57\u5411\u4e1c300\u7c73\u8def\u5317)", "province": "\u9655\u897f\u7701", "city": "\u897f\u5b89\u5e02", "area": "\u96c1\u5854\u533a", "street_id": "2252352130fc6f57d5b74e16", "telephone": "18991243002", "detail": 1, "uid": "2252352130fc6f57d5b74e16", "detail_info": {"tag": "\u6c7d\u8f66\u670d\u52a1;\u6c7d\u8f66\u79df\u8d41", "type": "life", "detail_url": "http://api.map.baidu.com/place/detail?uid=2252352130fc6f57d5b74e16&output=html&source=placeapi_v2", "image_num": "12", "comment_num": "0", "children": []}}, {"name": "\u4f17\u53cb\u6c7d\u8f66\u7f8e\u5bb9\u5e97", "location": {"lat": 34.272417, "lng": 108.974172}, "address": "\u4e1c\u4e8c\u8def21\u53f7", "province": "\u9655\u897f\u7701", "city": "\u897f\u5b89\u5e02", "area": "\u65b0\u57ce\u533a", "street_id": "a2dfb5a7b6e6793d45572656", "telephone": "15929933898", "detail": 1, "uid": "a2dfb5a7b6e6793d45572656", "detail_info": {"tag": "\u6c7d\u8f66\u670d\u52a1;\u6c7d\u8f66\u7f8e\u5bb9", "type": "life", "detail_url": "http://api.map.baidu.com/place/detail?uid=a2dfb5a7b6e6793d45572656&output=html&source=placeapi_v2", "overall_rating": "5.0", "image_num": "10", "comment_num": "3", "children": []}}, {"name": "\u671d\u9633\u8f6e\u80ce", "location": {"lat": 34.233348, "lng": 108.991526}, "address": "\u897f\u5f71\u8def-\u7ecf\u4e5d\u8def\u53e3\u531750\u7c73", "province": "\u9655\u897f\u7701", "city": "\u897f\u5b89\u5e02", "area": "\u96c1\u5854\u533a", "street_id": "13d5f020623dfb43f8dc85f9", "detail": 1, "uid": "13d5f020623dfb43f8dc85f9", "detail_info": {"tag": "\u6c7d\u8f66\u670d\u52a1;\u6c7d\u8f66\u914d\u4ef6", "type": "life", "detail_url": "http://api.map.baidu.com/place/detail?uid=13d5f020623dfb43f8dc85f9&output=html&source=placeapi_v2", "image_num": "3", "comment_num": "0", "children": []}}, {"name": "\u5eb7\u8fbe\u6c7d\u914d(\u7530\u9a6c\u8def)", "location": {"lat": 34.237306, "lng": 109.040498}, "address": "\u4e1c\u6708\u8def\u4e0e\u7530\u9a6c\u8def\u4ea4\u53c9\u53e3\u5317100\u7c73", "province": "\u9655\u897f\u7701", "city": "\u897f\u5b89\u5e02", "area": "\u96c1\u5854\u533a", "street_id": "b0bd1e617313353cd1f49ebc", "telephone": "(029)68951554,13679101301", "detail": 1, "uid": "b0bd1e617313353cd1f49ebc", "detail_info": {"tag": "\u6c7d\u8f66\u670d\u52a1;\u6c7d\u8f66\u914d\u4ef6", "type": "life", "detail_url": "http://api.map.baidu.com/place/detail?uid=b0bd1e617313353cd1f49ebc&output=html&source=placeapi_v2", "image_num": "4", "children": []}}, {"name": "\u5fb7\u56fd\u9a6c\u724c", "location": {"lat": 34.24248, "lng": 109.015358}, "address": "\u897f\u5b89\u5e02\u96c1\u5854\u533a\u897f\u5f71\u8def16A", "province": "\u9655\u897f\u7701", "city": "\u897f\u5b89\u5e02", "area": "\u96c1\u5854\u533a", "street_id": "272f0fc12b0498c1f7b916fd", "detail": 1, "uid": "272f0fc12b0498c1f7b916fd", "detail_info": {"tag": "\u6c7d\u8f66\u670d\u52a1;\u6c7d\u8f66\u914d\u4ef6", "type": "life", "detail_url": "http://api.map.baidu.com/place/detail?uid=272f0fc12b0498c1f7b916fd&output=html&source=placeapi_v2", "image_num": "5", "children": []}}, {"name": "\u5c0f\u8bb8\u6c7d\u8f66\u7535\u5668\u6c7d\u8f66\u7a7a\u8c03", "location": {"lat": 34.215965, "lng": 109.042162}, "address": "\u957f\u9e23\u8def\u4e1c50\u7c73", "province": "\u9655\u897f\u7701", "city": "\u897f\u5b89\u5e02", "area": "\u96c1\u5854\u533a", "street_id": "2c415b3e42ec682df6c59ce8", "detail": 1, "uid": "2c415b3e42ec682df6c59ce8", "detail_info": {"tag": "\u6c7d\u8f66\u670d\u52a1;\u6c7d\u8f66\u7f8e\u5bb9", "type": "life", "detail_url": "http://api.map.baidu.com/place/detail?uid=2c415b3e42ec682df6c59ce8&output=html&source=placeapi_v2", "image_num": "2", "children": []}}, {"name": "\u5c0f\u9b4f\u6c7d\u8f66\u7f8e\u5bb9(\u5e78\u798f\u4e2d\u8def\u5e97)", "location": {"lat": 34.263488, "lng": 109.022913}, "address": "\u9655\u897f\u7701\u897f\u5b89\u5e02\u65b0\u57ce\u533a\u5e78\u798f\u4e2d\u8def37\u53f7(\u798f\u90b8\u94ed\u95e8\u897f\u95e8\u53e3,\u5e78\u798f\u4e2d\u8def\u4e0e\u97e9\u68ee\u8def\u5341\u5b57\u4e1c\u5357\u89d250\u7c73\u4e2d\u5f71\u661f\u7f8e\u56fd\u9645\u5f71\u57ce\u697c\u4e0b)", "province": "\u9655\u897f\u7701", "city": "\u897f\u5b89\u5e02", "area": "\u65b0\u57ce\u533a", "street_id": "b254aaac92ca55d34e2fdfd3", "detail": 1, "uid": "b254aaac92ca55d34e2fdfd3", "detail_info": {"tag": "\u6c7d\u8f66\u670d\u52a1;\u6c7d\u8f66\u7f8e\u5bb9", "type": "life", "detail_url": "http://api.map.baidu.com/place/detail?uid=b254aaac92ca55d34e2fdfd3&output=html&source=placeapi_v2", "image_num": "1", "comment_num": "74", "children": []}}, {"name": "\u534e\u4f1f\u6d17\u8f66\u884c", "location": {"lat": 34.239956, "lng": 109.022446}, "address": "\u9655\u897f\u7701\u897f\u5b89\u5e02\u96c1\u5854\u533a\u957f\u9e23\u8def\u4e2d\u56fd\u77f3\u6cb9(\u4e1c\u7b49\u9a7e\u5761\u5c0f\u5b66\u897f\u5317)", "province": "\u9655\u897f\u7701", "city": "\u897f\u5b89\u5e02", "area": "\u96c1\u5854\u533a", "street_id": "43e967f8582baac24e5547a1", "detail": 1, "uid": "43e967f8582baac24e5547a1", "detail_info": {"tag": "\u6c7d\u8f66\u670d\u52a1;\u6c7d\u8f66\u7f8e\u5bb9", "type": "life", "detail_url": "http://api.map.baidu.com/place/detail?uid=43e967f8582baac24e5547a1&output=html&source=placeapi_v2", "image_num": "11", "children": []}}, {"name": "\u897f\u5b89\u5e02\u96c1\u5854\u533a\u884c\u653f\u4e8b\u4e1a\u5355\u4f4d\u6267\u6cd5\u6267\u52e4\u8f66\u8f86\u5b9a\u70b9\u7ef4\u4fee\u5382", "location": {"lat": 34.234462, "lng": 108.996888}, "address": "\u897f\u5f71\u8def136\u53f7\u9644\u8fd1", "province": "\u9655\u897f\u7701", "city": "\u897f\u5b89\u5e02", "area": "\u96c1\u5854\u533a", "street_id": "c5bd91081a827b127069d3eb", "detail": 1, "uid": "c5bd91081a827b127069d3eb", "detail_info": {"tag": "\u6c7d\u8f66\u670d\u52a1;\u6c7d\u8f66\u7ef4\u4fee", "type": "life", "detail_url": "http://api.map.baidu.com/place/detail?uid=c5bd91081a827b127069d3eb&output=html&source=placeapi_v2", "image_num": "1", "children": []}}, {"name": "\u51e4\u51f0\u5cad\u516c\u5893\u670d\u52a1\u90e8", "location": {"lat": 34.259504, "lng": 109.013296}, "address": "\u897f\u5b89\u5e02\u65b0\u57ce\u533a\u516c\u56ed\u5357\u8def41\u53f7", "province": "\u9655\u897f\u7701", "city": "\u897f\u5b89\u5e02", "area": "\u65b0\u57ce\u533a", "street_id": "7afe8f14dbf4116540afe63b", "detail": 1, "uid": "7afe8f14dbf4116540afe63b", "detail_info": {"tag": "\u6c7d\u8f66\u670d\u52a1;\u6c7d\u8f66\u7f8e\u5bb9", "type": "life", "detail_url": "http://api.map.baidu.com/place/detail?uid=7afe8f14dbf4116540afe63b&output=html&source=placeapi_v2", "image_num": "5", "children": []}}, {"name": "\u897f\u5b89\u805a\u8f89\u6c7d\u8f66\u8d38\u6613\u6709\u9650\u516c\u53f8", "location": {"lat": 34.279181, "lng": 109.045093}, "address": "\u957f\u4e50\u4e1c\u8def\u6c81\u6c34\u65b0\u57ce(\u5317\u4fbf\u95e8)\u9644\u8fd1", "province": "\u9655\u897f\u7701", "city": "\u897f\u5b89\u5e02", "area": "\u705e\u6865\u533a", "street_id": "bd705f4b13ea0d9e8bdb7304", "detail": 1, "uid": "bd705f4b13ea0d9e8bdb7304", "detail_info": {"tag": "\u6c7d\u8f66\u670d\u52a1;\u6c7d\u8f66\u9500\u552e", "type": "life", "detail_url": "http://api.map.baidu.com/place/detail?uid=bd705f4b13ea0d9e8bdb7304&output=html&source=placeapi_v2", "overall_rating": "0.0", "image_num": "1", "comment_num": "0", "children": []}}, {"name": "\u6167\u6d01\u81ea\u52a8\u53d8\u901f\u7bb1\u4e13\u4fee", "location": {"lat": 34.228505, "lng": 109.031427}, "address": "\u957f\u9e23\u8def66\u53f7\u6bdb\u6cfd\u4e1c\u7eaa\u5ff5\u9986150\u7c73", "province": "\u9655\u897f\u7701", "city": "\u897f\u5b89\u5e02", "area": "\u96c1\u5854\u533a", "street_id": "364de6c0318d5f5a11882432", "detail": 1, "uid": "364de6c0318d5f5a11882432", "detail_info": {"tag": "\u6c7d\u8f66\u670d\u52a1", "type": "life", "detail_url": "http://api.map.baidu.com/place/detail?uid=364de6c0318d5f5a11882432&output=html&source=placeapi_v2", "image_num": "2", "children": []}}, {"name": "\u897f\u5b89\u5e02\u96c1\u5854\u533a\u5c0f\u5f66\u8865\u80ce\u670d\u52a1\u90e8", "location": {"lat": 34.239956, "lng": 109.022446}, "address": "\u9655\u897f\u7701\u897f\u5b89\u5e02\u96c1\u5854\u533a\u7b49\u9a7e\u5761\u4e16\u7eaa\u661f\u5e7c\u513f\u56ed\u4e1c\u5357(\u957f\u9e23\u8def\u897f)", "province": "\u9655\u897f\u7701", "city": "\u897f\u5b89\u5e02", "area": "\u96c1\u5854\u533a", "street_id": "b1704586633daae7f03cbab3", "detail": 1, "uid": "b1704586633daae7f03cbab3", "detail_info": {"tag": "\u6c7d\u8f66\u670d\u52a1;\u6c7d\u8f66\u7f8e\u5bb9", "type": "life", "detail_url": "http://api.map.baidu.com/place/detail?uid=b1704586633daae7f03cbab3&output=html&source=placeapi_v2", "image_num": "4", "children": []}}]
